{"routes": [{"destination": {"icao": "BIRK", "iata": "RKV", "name": "Reykjavik ", "shortName": "Reykjavik", "municipalityName": "Reykjavik", "location": {"lat": 64.13, "lon": -21.9406}, "countryCode": "IS"}, "averageDailyFlights": 4.57, "operators": [{"name": "Icelandair", "iata": "FI", "icao": "ICE"}]}, {"destination": {"icao": "BIVO", "iata": "VPN", "name": "Vopnafj\u00f6r\u00f0ur ", "shortName": "Vopnafj\u00f6r\u00f0ur", "municipalityName": "Vopnafj\u00f6r\u00f0ur", "location": {"lat": 65.7206, "lon": -14.8506}, "countryCode": "IS"}, "averageDailyFlights": 0.57, "operators": [{"name": "Norlandair"}]}, {"destination": {"icao": "BIGR", "iata": "GRY", "name": "Gr\u00edmsey ", "shortName": "Gr\u00edmsey", "municipalityName": "Gr\u00edmsey", "location": {"lat": 66.5458, "lon": -18.0173}, "countryCode": "IS"}, "averageDailyFlights": 0.43, "operators": [{"name": "Norlandair"}]}, {"destination": {"icao": "LEBB", "iata": "BIO", "name": "Bilbao ", "shortName": "Bilbao", "municipalityName": "Bilbao", "location": {"lat": 43.3011, "lon": -2.910609}, "countryCode": "ES"}, "averageDailyFlights": 0.14, "operators": [{"name": "SmartWings", "iata": "QS", "icao": "TVS"}]}, {"destination": {"icao": "LJLJ", "iata": "LJU", "name": "Ljubljana Jo\u017ee Pu\u010dnik", "shortName": "Jo\u017ee Pu\u010dnik", "municipalityName": "Ljubljana", "location": {"lat": 46.2237, "lon": 14.457599}, "countryCode": "SI"}, "averageDailyFlights": 0.14, "operators": [{"name": "Trade Air", "iata": "C3", "icao": "TDR"}]}, {"destination": {"icao": "BGCO", "iata": "CNP", "name": "Neerlerit Inaat ", "shortName": "Neerlerit Inaat", "municipalityName": "Neerlerit Inaat", "location": {"lat": 70.7431, "lon": -22.6505}, "countryCode": "GL"}, "averageDailyFlights": 0.14, "operators": [{"name": "Norlandair"}]}, {"destination": {"icao": "GCTS", "iata": "TFS", "name": "Tenerife Island Tenerife South", "shortName": "Tenerife South", "municipalityName": "Tenerife Island", "location": {"lat": 28.0445, "lon": -16.5725}, "countryCode": "ES"}, "averageDailyFlights": 0.14, "operators": [{"name": "Neos", "iata": "NO", "icao": "NOS"}]}, {"destination": {"icao": "BITN", "iata": "THO", "name": "Thorshofn ", "shortName": "Thorshofn", "municipalityName": "Thorshofn", "location": {"lat": 66.2185, "lon": -15.335599}, "countryCode": "IS"}, "averageDailyFlights": 0.14, "operators": [{"name": "Norlandair"}]}]}