{"routes": [{"destination": {"icao": "LFPG", "iata": "CDG", "name": "Paris Charles de Gaulle", "shortName": "Charles de Gaulle", "municipalityName": "Paris", "location": {"lat": 49.0128, "lon": 2.549999}, "countryCode": "FR"}, "averageDailyFlights": 10.14, "operators": [{"name": "Air France", "iata": "AF", "icao": "AFR"}, {"name": "Air Algerie", "iata": "AH", "icao": "DAH"}, {"name": "ASL Airlines France", "iata": "5O", "icao": "FPO"}]}, {"destination": {"icao": "DAOO", "iata": "ORN", "name": "Oran Es Senia", "shortName": "Es Senia", "municipalityName": "Oran", "location": {"lat": 35.6239, "lon": -0.621182}, "countryCode": "DZ"}, "averageDailyFlights": 6.0, "operators": [{"name": "Air Algerie", "iata": "AH", "icao": "DAH"}, {"name": "Tassili Airlines", "iata": "SF", "icao": "DTH"}]}, {"destination": {"icao": "DABC", "iata": "CZL", "name": "Constantine Mohamed Boudiaf", "shortName": "Mohamed Boudiaf", "municipalityName": "Constantine", "location": {"lat": 36.276, "lon": 6.620389}, "countryCode": "DZ"}, "averageDailyFlights": 5.29, "operators": [{"name": "Air Algerie", "iata": "AH", "icao": "DAH"}, {"name": "Tassili Airlines", "iata": "SF", "icao": "DTH"}]}, {"destination": {"icao": "DABB", "iata": "AAE", "name": "Annabah Annaba", "shortName": "Annaba", "municipalityName": "Annabah", "location": {"lat": 36.8222, "lon": 7.809169}, "countryCode": "DZ"}, "averageDailyFlights": 4.29, "operators": [{"name": "Air Algerie", "iata": "AH", "icao": "DAH"}, {"name": "Tassili Airlines", "iata": "SF", "icao": "DTH"}]}, {"destination": {"icao": "LFML", "iata": "MRS", "name": "Marseille Provence", "shortName": "Provence", "municipalityName": "Marseille", "location": {"lat": 43.43927, "lon": 5.221424}, "countryCode": "FR"}, "averageDailyFlights": 4.29, "operators": [{"name": "Air Algerie", "iata": "AH", "icao": "DAH"}, {"name": "Vueling", "iata": "VY", "icao": "VLG"}, {"name": "Air France", "iata": "AF", "icao": "AFR"}]}, {"destination": {"icao": "LTFM", "iata": "IST", "name": "Istanbul ", "shortName": "Istanbul", "municipalityName": "Istanbul", "location": {"lat": 41.275276, "lon": 28.751944}, "countryCode": "TR"}, "averageDailyFlights": 4.14, "operators": [{"name": "Turkish Airlines", "iata": "TK", "icao": "THY"}, {"name": "Air Algerie", "iata": "AH", "icao": "DAH"}]}, {"destination": {"icao": "DTTA", "iata": "TUN", "name": "Tunis Carthage", "shortName": "Carthage", "municipalityName": "Tunis", "location": {"lat": 36.851, "lon": 10.227199}, "countryCode": "TN"}, "averageDailyFlights": 3.86, "operators": [{"name": "Air Algerie", "iata": "AH", "icao": "DAH"}, {"name": "Tunisair", "iata": "TU", "icao": "TAR"}]}, {"destination": {"icao": "LFLL", "iata": "LYS", "name": "Lyon Saint-Exup\u00e9ry", "shortName": "Saint-Exup\u00e9ry", "municipalityName": "Lyon", "location": {"lat": 45.7264, "lon": 5.090829}, "countryCode": "FR"}, "averageDailyFlights": 2.86, "operators": [{"name": "Air Algerie", "iata": "AH", "icao": "DAH"}, {"name": "ASL Airlines France", "iata": "5O", "icao": "FPO"}, {"name": "Transavia France", "iata": "TO", "icao": "TVF"}]}, {"destination": {"icao": "LFPO", "iata": "ORY", "name": "Paris -Orly", "shortName": "-Orly", "municipalityName": "Paris", "location": {"lat": 48.7253, "lon": 2.35944}, "countryCode": "FR"}, "averageDailyFlights": 2.57, "operators": [{"name": "Transavia France", "iata": "TO", "icao": "TVF"}]}, {"destination": {"icao": "OEJN", "iata": "JED", "name": "Jeddah King Abdulaziz", "shortName": "King Abdulaziz", "municipalityName": "Jeddah", "location": {"lat": 21.6796, "lon": 39.1565}, "countryCode": "SA"}, "averageDailyFlights": 2.43, "operators": [{"name": "Saudi Arabian Airlines", "iata": "SV", "icao": "SVA"}, {"name": "Air Algerie", "iata": "AH", "icao": "DAH"}]}, {"destination": {"icao": "LIRF", "iata": "FCO", "name": "Rome Leonardo da Vinci\u2013Fiumicino", "shortName": "Leonardo da Vinci\u2013Fiumicino", "municipalityName": "Rome", "location": {"lat": 41.8045, "lon": 12.2508}, "countryCode": "IT"}, "averageDailyFlights": 2.43, "operators": [{"name": "Air Algerie", "iata": "AH", "icao": "DAH"}, {"name": "ITA Airways", "iata": "AZ", "icao": "ITY"}]}, {"destination": {"icao": "DAAV", "iata": "GJL", "name": "Jijel Ferhat Abbas", "shortName": "Ferhat Abbas", "municipalityName": "Jijel", "location": {"lat": 36.7951, "lon": 5.87361}, "countryCode": "DZ"}, "averageDailyFlights": 2.29, "operators": [{"name": "Air Algerie", "iata": "AH", "icao": "DAH"}]}, {"destination": {"icao": "EDDF", "iata": "FRA", "name": "Frankfurt-am-Main ", "shortName": "Frankfurt-am-Main", "municipalityName": "Frankfurt-am-Main", "location": {"lat": 50.0264, "lon": 8.543129}, "countryCode": "DE"}, "averageDailyFlights": 2.0, "operators": [{"name": "Lufthansa", "iata": "LH", "icao": "DLH"}, {"name": "Air Algerie", "iata": "AH", "icao": "DAH"}]}, {"destination": {"icao": "OMDB", "iata": "DXB", "name": "Dubai ", "shortName": "Dubai", "municipalityName": "Dubai", "location": {"lat": 25.252798, "lon": 55.3644}, "countryCode": "AE"}, "averageDailyFlights": 1.86, "operators": [{"name": "Emirates", "iata": "EK", "icao": "UAE"}, {"name": "Air Algerie", "iata": "AH", "icao": "DAH"}]}, {"destination": {"icao": "DAUO", "iata": "ELU", "name": "Guemar ", "shortName": "Guemar", "municipalityName": "Guemar", "location": {"lat": 33.5114, "lon": 6.77679}, "countryCode": "DZ"}, "averageDailyFlights": 1.71, "operators": [{"name": "Air Algerie", "iata": "AH", "icao": "DAH"}, {"name": "Tassili Airlines", "iata": "SF", "icao": "DTH"}]}, {"destination": {"icao": "DAUH", "iata": "HME", "name": "Hassi Messaoud Oued Irara", "shortName": "Oued Irara", "municipalityName": "Hassi Messaoud", "location": {"lat": 31.673, "lon": 6.140439}, "countryCode": "DZ"}, "averageDailyFlights": 1.71, "operators": [{"name": "Air Algerie", "iata": "AH", "icao": "DAH"}]}, {"destination": {"icao": "EGLL", "iata": "LHR", "name": "London Heathrow", "shortName": "Heathrow", "municipalityName": "London", "location": {"lat": 51.4706, "lon": -0.461941}, "countryCode": "GB"}, "averageDailyFlights": 1.71, "operators": [{"name": "Air Algerie", "iata": "AH", "icao": "DAH"}, {"name": "British Airways", "iata": "BA", "icao": "BAW"}]}, {"destination": {"icao": "HECA", "iata": "CAI", "name": "Cairo ", "shortName": "Cairo", "municipalityName": "Cairo", "location": {"lat": 30.1219, "lon": 31.4056}, "countryCode": "EG"}, "averageDailyFlights": 1.57, "operators": [{"name": "EgyptAir", "iata": "MS", "icao": "MSR"}, {"name": "Air Algerie", "iata": "AH", "icao": "DAH"}]}, {"destination": {"icao": "LFBD", "iata": "BOD", "name": "Bordeaux/M\u00e9rignac Bordeaux-M\u00e9rignac", "shortName": "Bordeaux-M\u00e9rignac", "municipalityName": "Bordeaux/M\u00e9rignac", "location": {"lat": 44.8283, "lon": -0.715556}, "countryCode": "FR"}, "averageDailyFlights": 1.43, "operators": [{"name": "Volotea", "iata": "V7", "icao": "VOE"}, {"name": "Air Algerie", "iata": "AH", "icao": "DAH"}]}, {"destination": {"icao": "OTHH", "iata": "DOH", "name": "Doha Hamad", "shortName": "Hamad", "municipalityName": "Doha", "location": {"lat": 25.273056, "lon": 51.608055}, "countryCode": "QA"}, "averageDailyFlights": 1.43, "operators": [{"name": "Qatar Airways", "iata": "QR", "icao": "QTR"}, {"name": "Air Algerie", "iata": "AH", "icao": "DAH"}]}, {"destination": {"icao": "DAUU", "iata": "OGX", "name": "Ouargla Ain el Beida", "shortName": "Ain el Beida", "municipalityName": "Ouargla", "location": {"lat": 31.9172, "lon": 5.412779}, "countryCode": "DZ"}, "averageDailyFlights": 1.43, "operators": [{"name": "Air Algerie", "iata": "AH", "icao": "DAH"}]}, {"destination": {"icao": "LEBL", "iata": "BCN", "name": "Barcelona ", "shortName": "Barcelona", "municipalityName": "Barcelona", "location": {"lat": 41.2971, "lon": 2.078459}, "countryCode": "ES"}, "averageDailyFlights": 1.29, "operators": [{"name": "Air Algerie", "iata": "AH", "icao": "DAH"}, {"name": "Vueling", "iata": "VY", "icao": "VLG"}]}, {"destination": {"icao": "DAUG", "iata": "GHA", "name": "Gharda\u00efa Noum\u00e9rat - Moufdi Zakaria", "shortName": "Noum\u00e9rat - Moufdi Zakaria", "municipalityName": "Gharda\u00efa", "location": {"lat": 32.3841, "lon": 3.79411}, "countryCode": "DZ"}, "averageDailyFlights": 1.29, "operators": [{"name": "Air Algerie", "iata": "AH", "icao": "DAH"}]}, {"destination": {"icao": "DAUB", "iata": "BSK", "name": "Biskra ", "shortName": "Biskra", "municipalityName": "Biskra", "location": {"lat": 34.7933, "lon": 5.73823}, "countryCode": "DZ"}, "averageDailyFlights": 1.14, "operators": [{"name": "Air Algerie", "iata": "AH", "icao": "DAH"}]}, {"destination": {"icao": "LFQQ", "iata": "LIL", "name": "Lille/Lesquin Lille-Lesquin", "shortName": "Lille-Lesquin", "municipalityName": "Lille/Lesquin", "location": {"lat": 50.5619, "lon": 3.08944}, "countryCode": "FR"}, "averageDailyFlights": 1.14, "operators": [{"name": "Air Algerie", "iata": "AH", "icao": "DAH"}, {"name": "ASL Airlines France", "iata": "5O", "icao": "FPO"}]}, {"destination": {"icao": "DAAT", "iata": "TMR", "name": "Tamanghasset Aguenar \u2013 Hadj Bey Akhamok", "shortName": "Aguenar \u2013 Hadj Bey Akhamok", "municipalityName": "Tamanghasset", "location": {"lat": 22.8115, "lon": 5.451079}, "countryCode": "DZ"}, "averageDailyFlights": 1.02, "operators": [{"name": "Air Algerie", "iata": "AH", "icao": "DAH"}]}, {"destination": {"icao": "DAOR", "iata": "CBH", "name": "B\u00e9char Boudghene Ben Ali Lotfi", "shortName": "Boudghene Ben Ali Lotfi", "municipalityName": "B\u00e9char", "location": {"lat": 31.6457, "lon": -2.26986}, "countryCode": "DZ"}, "averageDailyFlights": 1.0, "operators": [{"name": "Air Algerie", "iata": "AH", "icao": "DAH"}]}, {"destination": {"icao": "DAAS", "iata": "QSF", "name": "S\u00e9tif Ain Arnat", "shortName": "Ain Arnat", "municipalityName": "S\u00e9tif", "location": {"lat": 36.1781, "lon": 5.32449}, "countryCode": "DZ"}, "averageDailyFlights": 1.0, "operators": [{"name": "Air Algerie", "iata": "AH", "icao": "DAH"}]}, {"destination": {"icao": "DABS", "iata": "TEE", "name": "T\u00e9bessi Cheikh Larbi", "shortName": "Cheikh Larbi", "municipalityName": "T\u00e9bessi", "location": {"lat": 35.4316, "lon": 8.120719}, "countryCode": "DZ"}, "averageDailyFlights": 1.0, "operators": [{"name": "Air Algerie", "iata": "AH", "icao": "DAH"}]}, {"destination": {"icao": "DAUT", "iata": "TMX", "name": "Timimoun ", "shortName": "Timimoun", "municipalityName": "Timimoun", "location": {"lat": 29.2371, "lon": 0.276033}, "countryCode": "DZ"}, "averageDailyFlights": 1.0, "operators": [{"name": "Air Algerie", "iata": "AH", "icao": "DAH"}]}, {"destination": {"icao": "LFBO", "iata": "TLS", "name": "Toulouse-Blagnac ", "shortName": "Toulouse-Blagnac", "municipalityName": "Toulouse-Blagnac", "location": {"lat": 43.6291, "lon": 1.363819}, "countryCode": "FR"}, "averageDailyFlights": 1.0, "operators": [{"name": "Air Algerie", "iata": "AH", "icao": "DAH"}, {"name": "Air France", "iata": "AF", "icao": "AFR"}]}, {"destination": {"icao": "DABT", "iata": "BLJ", "name": "Batna City Batna", "shortName": "Batna", "municipalityName": "Batna City", "location": {"lat": 35.7521, "lon": 6.308589}, "countryCode": "DZ"}, "averageDailyFlights": 0.86, "operators": [{"name": "Air Algerie", "iata": "AH", "icao": "DAH"}]}, {"destination": {"icao": "DAAE", "iata": "BJA", "name": "Bij\u0101ya Soummam", "shortName": "Soummam", "municipalityName": "Bij\u0101ya", "location": {"lat": 36.712, "lon": 5.06992}, "countryCode": "DZ"}, "averageDailyFlights": 0.86, "operators": [{"name": "Air Algerie", "iata": "AH", "icao": "DAH"}]}, {"destination": {"icao": "GOBD", "iata": "DSS", "name": "Dakar Blaise Diagne", "shortName": "Blaise Diagne", "municipalityName": "Dakar", "location": {"lat": 14.671111, "lon": -17.066944}, "countryCode": "SN"}, "averageDailyFlights": 0.86, "operators": [{"name": "Air Algerie", "iata": "AH", "icao": "DAH"}]}, {"destination": {"icao": "DAAJ", "iata": "DJG", "name": "Djanet Inedbirene", "shortName": "Inedbirene", "municipalityName": "Djanet", "location": {"lat": 24.2928, "lon": 9.45244}, "countryCode": "DZ"}, "averageDailyFlights": 0.86, "operators": [{"name": "Air Algerie", "iata": "AH", "icao": "DAH"}]}, {"destination": {"icao": "CYUL", "iata": "YUL", "name": "Montreal Trudeau", "shortName": "Trudeau", "municipalityName": "Montreal", "location": {"lat": 45.4706, "lon": -73.7408}, "countryCode": "CA"}, "averageDailyFlights": 0.86, "operators": [{"name": "Air Algerie", "iata": "AH", "icao": "DAH"}, {"name": "Air Canada", "iata": "AC", "icao": "ACA"}]}, {"destination": {"icao": "LFMN", "iata": "NCE", "name": "Nice -C\u00f4te d'Azur", "shortName": "-C\u00f4te d'Azur", "municipalityName": "Nice", "location": {"lat": 43.6584, "lon": 7.215869}, "countryCode": "FR"}, "averageDailyFlights": 0.86, "operators": [{"name": "Air Algerie", "iata": "AH", "icao": "DAH"}]}, {"destination": {"icao": "OJAI", "iata": "AMM", "name": "Amman Queen Alia", "shortName": "Queen Alia", "municipalityName": "Amman", "location": {"lat": 31.7226, "lon": 35.9932}, "countryCode": "JO"}, "averageDailyFlights": 0.71, "operators": [{"name": "Air Algerie", "iata": "AH", "icao": "DAH"}, {"name": "Royal Jordanian", "iata": "RJ", "icao": "RJA"}]}, {"destination": {"icao": "LSGG", "iata": "GVA", "name": "Geneva Cointrin", "shortName": "Cointrin", "municipalityName": "Geneva", "location": {"lat": 46.2381, "lon": 6.10895}, "countryCode": "CH"}, "averageDailyFlights": 0.71, "operators": [{"name": "Air Algerie", "iata": "AH", "icao": "DAH"}]}, {"destination": {"icao": "LFMT", "iata": "MPL", "name": "Montpellier/M\u00e9diterran\u00e9e Montpellier-M\u00e9diterran\u00e9e", "shortName": "Montpellier-M\u00e9diterran\u00e9e", "municipalityName": "Montpellier/M\u00e9diterran\u00e9e", "location": {"lat": 43.5762, "lon": 3.96301}, "countryCode": "FR"}, "averageDailyFlights": 0.71, "operators": [{"name": "Air Algerie", "iata": "AH", "icao": "DAH"}, {"name": "Transavia France", "iata": "TO", "icao": "TVF"}]}, {"destination": {"icao": "LFRS", "iata": "NTE", "name": "Nantes Atlantique", "shortName": "Atlantique", "municipalityName": "Nantes", "location": {"lat": 47.1532, "lon": -1.61073}, "countryCode": "FR"}, "averageDailyFlights": 0.71, "operators": [{"name": "Transavia France", "iata": "TO", "icao": "TVF"}, {"name": "Tassili Airlines", "iata": "SF", "icao": "DTH"}]}, {"destination": {"icao": "GABS", "iata": "BKO", "name": "Senou ", "shortName": "Senou", "municipalityName": "Senou", "location": {"lat": 12.533499, "lon": -7.94994}, "countryCode": "ML"}, "averageDailyFlights": 0.71, "operators": [{"name": "Air Algerie", "iata": "AH", "icao": "DAH"}]}, {"destination": {"icao": "DAOF", "iata": "TIN", "name": "Tindouf ", "shortName": "Tindouf", "municipalityName": "Tindouf", "location": {"lat": 27.7004, "lon": -8.167099}, "countryCode": "DZ"}, "averageDailyFlights": 0.71, "operators": [{"name": "Air Algerie", "iata": "AH", "icao": "DAH"}]}, {"destination": {"icao": "LFJL", "iata": "ETZ", "name": "Metz / Nancy Metz-Nancy-Lorraine", "shortName": "Metz-Nancy-Lorraine", "municipalityName": "Metz / Nancy", "location": {"lat": 48.9821, "lon": 6.251319}, "countryCode": "FR"}, "averageDailyFlights": 0.57, "operators": [{"name": "Air Algerie", "iata": "AH", "icao": "DAH"}]}, {"destination": {"icao": "UUEE", "iata": "SVO", "localCode": "\u0428\u0420\u041c", "name": "Moscow Sheremetyevo", "shortName": "Sheremetyevo", "municipalityName": "Moscow", "location": {"lat": 55.9726, "lon": 37.4146}, "countryCode": "RU"}, "averageDailyFlights": 0.57, "operators": [{"name": "Air Algerie", "iata": "AH", "icao": "DAH"}]}, {"destination": {"icao": "GQNN", "iata": "NKC", "name": "Nouakchott ", "shortName": "Nouakchott", "municipalityName": "Nouakchott", "location": {"lat": 18.0982, "lon": -15.948499}, "countryCode": "MR"}, "averageDailyFlights": 0.57, "operators": [{"name": "Air Algerie", "iata": "AH", "icao": "DAH"}]}, {"destination": {"icao": "ULLI", "iata": "LED", "localCode": "\u041f\u041b\u041a", "name": "Saint-Petersburg Pulkovo", "shortName": "Pulkovo", "municipalityName": "Saint-Petersburg", "location": {"lat": 59.8003, "lon": 30.2625}, "countryCode": "RU"}, "averageDailyFlights": 0.57, "operators": [{"name": "Air Algerie", "iata": "AH", "icao": "DAH"}]}, {"destination": {"icao": "DAON", "iata": "TLM", "name": "Tlemcen Zenata \u2013 Messali El Hadj", "shortName": "Zenata \u2013 Messali El Hadj", "municipalityName": "Tlemcen", "location": {"lat": 35.0167, "lon": -1.45}, "countryCode": "DZ"}, "averageDailyFlights": 0.57, "operators": [{"name": "Air Algerie", "iata": "AH", "icao": "DAH"}]}, {"destination": {"icao": "DAUK", "iata": "TGR", "name": "Touggourt Sidi Madhi", "shortName": "Sidi Madhi", "municipalityName": "Touggourt", "location": {"lat": 33.0678, "lon": 6.088669}, "countryCode": "DZ"}, "averageDailyFlights": 0.57, "operators": [{"name": "Air Algerie", "iata": "AH", "icao": "DAH"}]}, {"destination": {"icao": "OEMA", "iata": "MED", "name": "Medina Prince Mohammad Bin Abdulaziz", "shortName": "Prince Mohammad Bin Abdulaziz", "municipalityName": "Medina", "location": {"lat": 24.5534, "lon": 39.7051}, "countryCode": "SA"}, "averageDailyFlights": 0.46, "operators": [{"name": "Air Algerie", "iata": "AH", "icao": "DAH"}, {"name": "Saudi Arabian Airlines", "iata": "SV", "icao": "SVA"}]}, {"destination": {"icao": "DIAP", "iata": "ABJ", "name": "Abidjan Port Bouet", "shortName": "Port Bouet", "municipalityName": "Abidjan", "location": {"lat": 5.26139, "lon": -3.92629}, "countryCode": "CI"}, "averageDailyFlights": 0.43, "operators": [{"name": "Air Algerie", "iata": "AH", "icao": "DAH"}]}, {"destination": {"icao": "LFSB", "iata": "BSL", "name": "B\u00e2le/Mulhouse Euro Basel-Mulhouse-Freiburg", "shortName": "Euro Basel-Mulhouse-Freiburg", "municipalityName": "B\u00e2le/Mulhouse", "location": {"lat": 47.5896, "lon": 7.52991}, "countryCode": "FR"}, "averageDailyFlights": 0.43, "operators": [{"name": "Air Algerie", "iata": "AH", "icao": "DAH"}, {"name": "ASL Airlines France", "iata": "5O", "icao": "FPO"}]}, {"destination": {"icao": "EBBR", "iata": "BRU", "name": "Brussels ", "shortName": "Brussels", "municipalityName": "Brussels", "location": {"lat": 50.9014, "lon": 4.484439}, "countryCode": "BE"}, "averageDailyFlights": 0.43, "operators": [{"name": "Air Algerie", "iata": "AH", "icao": "DAH"}]}, {"destination": {"icao": "DAUL", "iata": "LOO", "name": "Laghouat ", "shortName": "Laghouat", "municipalityName": "Laghouat", "location": {"lat": 33.7644, "lon": 2.928339}, "countryCode": "DZ"}, "averageDailyFlights": 0.43, "operators": [{"name": "Air Algerie", "iata": "AH", "icao": "DAH"}]}, {"destination": {"icao": "LIMC", "iata": "MXP", "name": "Milan Malpensa", "shortName": "Malpensa", "municipalityName": "Milan", "location": {"lat": 45.6306, "lon": 8.72811}, "countryCode": "IT"}, "averageDailyFlights": 0.43, "operators": [{"name": "Air Algerie", "iata": "AH", "icao": "DAH"}]}, {"destination": {"icao": "LOWW", "iata": "VIE", "name": "Vienna Schwechat", "shortName": "Schwechat", "municipalityName": "Vienna", "location": {"lat": 48.1103, "lon": 16.5697}, "countryCode": "AT"}, "averageDailyFlights": 0.43, "operators": [{"name": "Air Algerie", "iata": "AH", "icao": "DAH"}]}, {"destination": {"icao": "DAUZ", "iata": "IAM", "name": "Am\u00e9nas In", "shortName": "In", "municipalityName": "Am\u00e9nas", "location": {"lat": 28.0515, "lon": 9.64291}, "countryCode": "DZ"}, "averageDailyFlights": 0.29, "operators": [{"name": "Air Algerie", "iata": "AH", "icao": "DAH"}]}, {"destination": {"icao": "ZBAA", "iata": "PEK", "name": "Beijing Capital", "shortName": "Capital", "municipalityName": "Beijing", "location": {"lat": 40.0801, "lon": 116.585}, "countryCode": "CN"}, "averageDailyFlights": 0.29, "operators": [{"name": "Air Algerie", "iata": "AH", "icao": "DAH"}]}, {"destination": {"icao": "EBCI", "iata": "CRL", "name": "Brussels South Charleroi", "shortName": "South Charleroi", "municipalityName": "Brussels", "location": {"lat": 50.4592, "lon": 4.45382}, "countryCode": "BE"}, "averageDailyFlights": 0.29, "operators": [{"name": "TUI Airlines Belgium", "iata": "TB", "icao": "JAF"}]}, {"destination": {"icao": "DAOY", "iata": "EBH", "name": "El Bayadh ", "shortName": "El Bayadh", "municipalityName": "El Bayadh", "location": {"lat": 33.721664, "lon": 1.0925}, "countryCode": "DZ"}, "averageDailyFlights": 0.29, "operators": [{"name": "Air Algerie", "iata": "AH", "icao": "DAH"}]}, {"destination": {"icao": "DAAP", "iata": "VVZ", "name": "Illizi Takhamalt", "shortName": "Takhamalt", "municipalityName": "Illizi", "location": {"lat": 26.7235, "lon": 8.62265}, "countryCode": "DZ"}, "averageDailyFlights": 0.29, "operators": [{"name": "Air Algerie", "iata": "AH", "icao": "DAH"}]}, {"destination": {"icao": "DAUI", "iata": "INZ", "name": "In Salah ", "shortName": "In Salah", "municipalityName": "In Salah", "location": {"lat": 27.251, "lon": 2.51202}, "countryCode": "DZ"}, "averageDailyFlights": 0.29, "operators": [{"name": "Air Algerie", "iata": "AH", "icao": "DAH"}]}, {"destination": {"icao": "FAOR", "iata": "JNB", "name": "Jo'anna OR Tambo", "shortName": "OR Tambo", "municipalityName": "Jo'anna", "location": {"lat": -26.1392, "lon": 28.246}, "countryCode": "ZA"}, "averageDailyFlights": 0.29, "operators": [{"name": "Air Algerie", "iata": "AH", "icao": "DAH"}]}, {"destination": {"icao": "LEMD", "iata": "MAD", "name": "Madrid Adolfo Su\u00e1rez \u2013Barajas", "shortName": "Adolfo Su\u00e1rez \u2013Barajas", "municipalityName": "Madrid", "location": {"lat": 40.4936, "lon": -3.56676}, "countryCode": "ES"}, "averageDailyFlights": 0.29, "operators": [{"name": "Iberia", "iata": "IB", "icao": "IBE"}]}, {"destination": {"icao": "LFST", "iata": "SXB", "name": "Strasbourg ", "shortName": "Strasbourg", "municipalityName": "Strasbourg", "location": {"lat": 48.5383, "lon": 7.62823}, "countryCode": "FR"}, "averageDailyFlights": 0.29, "operators": [{"name": "Tassili Airlines", "iata": "SF", "icao": "DTH"}]}, {"destination": {"icao": "DAOB", "iata": "TID", "name": "Tiaret Bou Chekif", "shortName": "Bou Chekif", "municipalityName": "Tiaret", "location": {"lat": 35.3411, "lon": 1.46315}, "countryCode": "DZ"}, "averageDailyFlights": 0.29, "operators": [{"name": "Air Algerie", "iata": "AH", "icao": "DAH"}]}, {"destination": {"icao": "LEAL", "iata": "ALC", "name": "Alicante ", "shortName": "Alicante", "municipalityName": "Alicante", "location": {"lat": 38.2822, "lon": -0.558156}, "countryCode": "ES"}, "averageDailyFlights": 0.14, "operators": [{"name": "Air Algerie", "iata": "AH", "icao": "DAH"}]}, {"destination": {"icao": "LPPT", "iata": "LIS", "name": "Lisbon Portela", "shortName": "Portela", "municipalityName": "Lisbon", "location": {"lat": 38.7813, "lon": -9.135919}, "countryCode": "PT"}, "averageDailyFlights": 0.14, "operators": [{"name": "Air Algerie", "iata": "AH", "icao": "DAH"}]}, {"destination": {"icao": "DAAY", "iata": "MZW", "name": "Mecheria ", "shortName": "Mecheria", "municipalityName": "Mecheria", "location": {"lat": 33.5359, "lon": -0.242353}, "countryCode": "DZ"}, "averageDailyFlights": 0.14, "operators": [{"name": "Air Algerie", "iata": "AH", "icao": "DAH"}]}, {"destination": {"icao": "DRRN", "iata": "NIM", "name": "Niamey Diori Hamani", "shortName": "Diori Hamani", "municipalityName": "Niamey", "location": {"lat": 13.481499, "lon": 2.183609}, "countryCode": "NE"}, "averageDailyFlights": 0.14, "operators": [{"name": "Air Algerie", "iata": "AH", "icao": "DAH"}]}, {"destination": {"icao": "DFFD", "iata": "OUA", "name": "Ouagadougou ", "shortName": "Ouagadougou", "municipalityName": "Ouagadougou", "location": {"lat": 12.353199, "lon": -1.51242}, "countryCode": "BF"}, "averageDailyFlights": 0.14, "operators": [{"name": "Air Algerie", "iata": "AH", "icao": "DAH"}]}]}