{"routes": [{"destination": {"icao": "LTAI", "iata": "AYT", "name": "Antalya ", "shortName": "Antalya", "municipalityName": "Antalya", "location": {"lat": 36.8987, "lon": 30.8005}, "countryCode": "TR"}, "averageDailyFlights": 10.29, "operators": [{"name": "Sun Express", "iata": "XQ", "icao": "SXS"}, {"name": "Pegasus", "iata": "PC", "icao": "PGT"}, {"name": "Air Stork", "iata": "2S", "icao": "MSB"}, {"name": "STW"}, {"name": "LATAM Argentina", "iata": "4M", "icao": "DSM"}, {"name": "Eurowings", "iata": "EW", "icao": "EWG"}, {"name": "Freebird Airlines", "iata": "FH", "icao": "FHY"}, {"name": "MGH"}, {"name": "Turkish Airlines", "iata": "TK", "icao": "THY"}, {"name": "Corendon Air", "iata": "XC", "icao": "CAI"}, {"name": "Tailwind", "iata": "TI", "icao": "TWI"}]}, {"destination": {"icao": "LEPA", "iata": "PMI", "name": "Palma De Mallorca ", "shortName": "Palma De Mallorca", "municipalityName": "Palma De Mallorca", "location": {"lat": 39.5517, "lon": 2.73881}, "countryCode": "ES"}, "averageDailyFlights": 8.57, "operators": [{"name": "Condor", "iata": "DE", "icao": "CFG"}, {"name": "Eurowings", "iata": "EW", "icao": "EWG"}, {"name": "TUIfly", "iata": "X3", "icao": "TUI"}]}, {"destination": {"icao": "EHAM", "iata": "AMS", "name": "Amsterdam Schiphol", "shortName": "Schiphol", "municipalityName": "Amsterdam", "location": {"lat": 52.3086, "lon": 4.763889}, "countryCode": "NL"}, "averageDailyFlights": 6.14, "operators": [{"name": "KLM", "iata": "KL", "icao": "KLM"}, {"name": "Eurowings", "iata": "EW", "icao": "EWG"}]}, {"destination": {"icao": "EDDB", "iata": "BER", "name": "Berlin Brandenburg", "shortName": "Brandenburg", "municipalityName": "Berlin", "location": {"lat": 52.35139, "lon": 13.493889}, "countryCode": "DE"}, "averageDailyFlights": 5.86, "operators": [{"name": "Eurowings", "iata": "EW", "icao": "EWG"}]}, {"destination": {"icao": "EGLL", "iata": "LHR", "name": "London Heathrow", "shortName": "Heathrow", "municipalityName": "London", "location": {"lat": 51.4706, "lon": -0.461941}, "countryCode": "GB"}, "averageDailyFlights": 5.29, "operators": [{"name": "British Airways", "iata": "BA", "icao": "BAW"}, {"name": "Eurowings", "iata": "EW", "icao": "EWG"}]}, {"destination": {"icao": "LOWW", "iata": "VIE", "name": "Vienna Schwechat", "shortName": "Schwechat", "municipalityName": "Vienna", "location": {"lat": 48.1103, "lon": 16.5697}, "countryCode": "AT"}, "averageDailyFlights": 5.29, "operators": [{"name": "Austrian", "iata": "OS", "icao": "AUA"}, {"name": "Eurowings", "iata": "EW", "icao": "EWG"}]}, {"destination": {"icao": "EDDF", "iata": "FRA", "name": "Frankfurt-am-Main ", "shortName": "Frankfurt-am-Main", "municipalityName": "Frankfurt-am-Main", "location": {"lat": 50.0264, "lon": 8.543129}, "countryCode": "DE"}, "averageDailyFlights": 4.86, "operators": [{"name": "Lufthansa", "iata": "LH", "icao": "DLH"}, {"name": "Sun Express", "iata": "XQ", "icao": "SXS"}]}, {"destination": {"icao": "LTFM", "iata": "IST", "name": "Istanbul ", "shortName": "Istanbul", "municipalityName": "Istanbul", "location": {"lat": 41.275276, "lon": 28.751944}, "countryCode": "TR"}, "averageDailyFlights": 4.71, "operators": [{"name": "Turkish Airlines", "iata": "TK", "icao": "THY"}]}, {"destination": {"icao": "EDDH", "iata": "HAM", "name": "Hamburg ", "shortName": "Hamburg", "municipalityName": "Hamburg", "location": {"lat": 53.6304, "lon": 9.988229}, "countryCode": "DE"}, "averageDailyFlights": 4.57, "operators": [{"name": "Eurowings", "iata": "EW", "icao": "EWG"}]}, {"destination": {"icao": "EDDM", "iata": "MUC", "name": "Munich ", "shortName": "Munich", "municipalityName": "Munich", "location": {"lat": 48.3538, "lon": 11.7861}, "countryCode": "DE"}, "averageDailyFlights": 4.14, "operators": [{"name": "Lufthansa", "iata": "LH", "icao": "DLH"}]}, {"destination": {"icao": "LEBL", "iata": "BCN", "name": "Barcelona ", "shortName": "Barcelona", "municipalityName": "Barcelona", "location": {"lat": 41.2971, "lon": 2.078459}, "countryCode": "ES"}, "averageDailyFlights": 3.86, "operators": [{"name": "Vueling", "iata": "VY", "icao": "VLG"}, {"name": "Eurowings", "iata": "EW", "icao": "EWG"}]}, {"destination": {"icao": "LGIR", "iata": "HER", "name": "Heraklion Nikos Kazantzakis", "shortName": "Nikos Kazantzakis", "municipalityName": "Heraklion", "location": {"lat": 35.3397, "lon": 25.1803}, "countryCode": "GR"}, "averageDailyFlights": 3.43, "operators": [{"name": "TUIfly", "iata": "X3", "icao": "TUI"}, {"name": "Condor", "iata": "DE", "icao": "CFG"}, {"name": "Eurowings", "iata": "EW", "icao": "EWG"}, {"name": "Aegean Airlines", "iata": "A3", "icao": "AEE"}, {"name": "marabu"}]}, {"destination": {"icao": "LSZH", "iata": "ZRH", "name": "Zurich Kloten", "shortName": "Kloten", "municipalityName": "Zurich", "location": {"lat": 47.4647, "lon": 8.549169}, "countryCode": "CH"}, "averageDailyFlights": 2.86, "operators": [{"name": "SWISS", "iata": "LX", "icao": "SWR"}, {"name": "Tailwind", "iata": "TI", "icao": "TWI"}]}, {"destination": {"icao": "BKPR", "iata": "PRN", "name": "Prishtina Pri\u0161tina", "shortName": "Pri\u0161tina", "municipalityName": "Prishtina", "location": {"lat": 42.5728, "lon": 21.0358}, "countryCode": "KS"}, "averageDailyFlights": 2.57, "operators": [{"name": "Eurowings", "iata": "EW", "icao": "EWG"}, {"name": "gp aviation"}, {"name": "Enter Air", "iata": "E4", "icao": "ENT"}, {"name": "GPX"}]}, {"destination": {"icao": "LGTS", "iata": "SKG", "name": "Thessaloniki Macedonia", "shortName": "Macedonia", "municipalityName": "Thessaloniki", "location": {"lat": 40.5197, "lon": 22.9709}, "countryCode": "GR"}, "averageDailyFlights": 2.57, "operators": [{"name": "Eurowings", "iata": "EW", "icao": "EWG"}, {"name": "Aegean Airlines", "iata": "A3", "icao": "AEE"}]}, {"destination": {"icao": "LTBJ", "iata": "ADB", "name": "\u0130zmir Adnan Menderes", "shortName": "Adnan Menderes", "municipalityName": "\u0130zmir", "location": {"lat": 38.2924, "lon": 27.157}, "countryCode": "TR"}, "averageDailyFlights": 2.43, "operators": [{"name": "Sun Express", "iata": "XQ", "icao": "SXS"}, {"name": "Pegasus", "iata": "PC", "icao": "PGT"}]}, {"destination": {"icao": "LFPG", "iata": "CDG", "name": "Paris Charles de Gaulle", "shortName": "Charles de Gaulle", "municipalityName": "Paris", "location": {"lat": 49.0128, "lon": 2.549999}, "countryCode": "FR"}, "averageDailyFlights": 2.43, "operators": [{"name": "Air France", "iata": "AF", "icao": "AFR"}, {"name": "ASL Airlines Belgium", "iata": "3V", "icao": "TAY"}]}, {"destination": {"icao": "LTFJ", "iata": "SAW", "name": "Istanbul Sabiha G\u00f6k\u00e7en", "shortName": "Sabiha G\u00f6k\u00e7en", "municipalityName": "Istanbul", "location": {"lat": 40.8986, "lon": 29.3092}, "countryCode": "TR"}, "averageDailyFlights": 2.29, "operators": [{"name": "Pegasus", "iata": "PC", "icao": "PGT"}]}, {"destination": {"icao": "HEGN", "iata": "HRG", "name": "Hurghada ", "shortName": "Hurghada", "municipalityName": "Hurghada", "location": {"lat": 27.1783, "lon": 33.7994}, "countryCode": "EG"}, "averageDailyFlights": 1.86, "operators": [{"name": "Eurowings", "iata": "EW", "icao": "EWG"}, {"name": "Air Cairo", "iata": "SM", "icao": "MSC"}, {"name": "Condor", "iata": "DE", "icao": "CFG"}, {"name": "TUIfly", "iata": "X3", "icao": "TUI"}, {"name": "Nesma Airlines", "iata": "NE", "icao": "NMA"}]}, {"destination": {"icao": "LIML", "iata": "LIN", "name": "Milan Linate", "shortName": "Linate", "municipalityName": "Milan", "location": {"lat": 45.4451, "lon": 9.27674}, "countryCode": "IT"}, "averageDailyFlights": 1.86, "operators": [{"name": "ITA Airways", "iata": "AZ", "icao": "ITY"}]}, {"destination": {"icao": "LGRP", "iata": "RHO", "name": "Rodes Island Diagoras", "shortName": "Diagoras", "municipalityName": "Rodes Island", "location": {"lat": 36.4054, "lon": 28.0862}, "countryCode": "GR"}, "averageDailyFlights": 1.71, "operators": [{"name": "Eurowings", "iata": "EW", "icao": "EWG"}, {"name": "TUIfly", "iata": "X3", "icao": "TUI"}, {"name": "Condor", "iata": "DE", "icao": "CFG"}, {"name": "Aegean Airlines", "iata": "A3", "icao": "AEE"}]}, {"destination": {"icao": "LHBP", "iata": "BUD", "name": "Budapest Ferenc Liszt", "shortName": "Ferenc Liszt", "municipalityName": "Budapest", "location": {"lat": 47.4369, "lon": 19.255598}, "countryCode": "HU"}, "averageDailyFlights": 1.57, "operators": [{"name": "Eurowings", "iata": "EW", "icao": "EWG"}]}, {"destination": {"icao": "LDSP", "iata": "SPU", "name": "Split ", "shortName": "Split", "municipalityName": "Split", "location": {"lat": 43.5389, "lon": 16.298}, "countryCode": "HR"}, "averageDailyFlights": 1.57, "operators": [{"name": "Eurowings", "iata": "EW", "icao": "EWG"}]}, {"destination": {"icao": "LYBE", "iata": "BEG", "name": "Belgrade Nikola Tesla", "shortName": "Nikola Tesla", "municipalityName": "Belgrade", "location": {"lat": 44.8184, "lon": 20.3091}, "countryCode": "RS"}, "averageDailyFlights": 1.43, "operators": [{"name": "Eurowings", "iata": "EW", "icao": "EWG"}, {"name": "JetSMART", "iata": "JA", "icao": "JAT"}, {"name": "Air Serbia", "iata": "JU", "icao": "ASL"}]}, {"destination": {"icao": "LICC", "iata": "CTA", "name": "Catania -Fontanarossa", "shortName": "-Fontanarossa", "municipalityName": "Catania", "location": {"lat": 37.4668, "lon": 15.066399}, "countryCode": "IT"}, "averageDailyFlights": 1.43, "operators": [{"name": "Eurowings", "iata": "EW", "icao": "EWG"}]}, {"destination": {"icao": "LGAV", "iata": "ATH", "name": "Athens Eleftherios Venizelos", "shortName": "Eleftherios Venizelos", "municipalityName": "Athens", "location": {"lat": 37.9364, "lon": 23.944498}, "countryCode": "GR"}, "averageDailyFlights": 1.29, "operators": [{"name": "Eurowings", "iata": "EW", "icao": "EWG"}, {"name": "Aegean Airlines", "iata": "A3", "icao": "AEE"}]}, {"destination": {"icao": "LEIB", "iata": "IBZ", "name": "Ibiza Town Ibiza", "shortName": "Ibiza", "municipalityName": "Ibiza Town", "location": {"lat": 38.8729, "lon": 1.373119}, "countryCode": "ES"}, "averageDailyFlights": 1.29, "operators": [{"name": "Eurowings", "iata": "EW", "icao": "EWG"}]}, {"destination": {"icao": "LGKR", "iata": "CFU", "name": "Kerkyra Island Ioannis Kapodistrias", "shortName": "Ioannis Kapodistrias", "municipalityName": "Kerkyra Island", "location": {"lat": 39.6019, "lon": 19.9117}, "countryCode": "GR"}, "averageDailyFlights": 1.29, "operators": [{"name": "Eurowings", "iata": "EW", "icao": "EWG"}, {"name": "Condor", "iata": "DE", "icao": "CFG"}, {"name": "TUIfly", "iata": "X3", "icao": "TUI"}]}, {"destination": {"icao": "LGKO", "iata": "KGS", "name": "Kos Island Kos", "shortName": "Kos", "municipalityName": "Kos Island", "location": {"lat": 36.7933, "lon": 27.0917}, "countryCode": "GR"}, "averageDailyFlights": 1.29, "operators": [{"name": "TUIfly", "iata": "X3", "icao": "TUI"}, {"name": "Eurowings", "iata": "EW", "icao": "EWG"}, {"name": "Condor", "iata": "DE", "icao": "CFG"}]}, {"destination": {"icao": "GCFV", "iata": "FUE", "name": "Fuerteventura Island Fuerteventura", "shortName": "Fuerteventura", "municipalityName": "Fuerteventura Island", "location": {"lat": 28.4527, "lon": -13.8638}, "countryCode": "ES"}, "averageDailyFlights": 1.14, "operators": [{"name": "Condor", "iata": "DE", "icao": "CFG"}, {"name": "TUIfly", "iata": "X3", "icao": "TUI"}]}, {"destination": {"icao": "LIRF", "iata": "FCO", "name": "Rome Leonardo da Vinci\u2013Fiumicino", "shortName": "Leonardo da Vinci\u2013Fiumicino", "municipalityName": "Rome", "location": {"lat": 41.8045, "lon": 12.2508}, "countryCode": "IT"}, "averageDailyFlights": 1.14, "operators": [{"name": "Eurowings", "iata": "EW", "icao": "EWG"}]}, {"destination": {"icao": "EPWA", "iata": "WAW", "name": "Warsaw Chopin", "shortName": "Chopin", "municipalityName": "Warsaw", "location": {"lat": 52.1657, "lon": 20.9671}, "countryCode": "PL"}, "averageDailyFlights": 1.14, "operators": [{"name": "LOT - Polish Airlines", "iata": "LO", "icao": "LOT"}]}, {"destination": {"icao": "EKCH", "iata": "CPH", "name": "Copenhagen Kastrup", "shortName": "Kastrup", "municipalityName": "Copenhagen", "location": {"lat": 55.6179, "lon": 12.656}, "countryCode": "DK"}, "averageDailyFlights": 1.0, "operators": [{"name": "SAS", "iata": "SK", "icao": "SAS"}]}, {"destination": {"icao": "LPFR", "iata": "FAO", "name": "Faro ", "shortName": "Faro", "municipalityName": "Faro", "location": {"lat": 37.0144, "lon": -7.965909}, "countryCode": "PT"}, "averageDailyFlights": 1.0, "operators": [{"name": "Eurowings", "iata": "EW", "icao": "EWG"}, {"name": "TUIfly", "iata": "X3", "icao": "TUI"}]}, {"destination": {"icao": "LIRN", "iata": "NAP", "name": "N\u00e1poli Naples", "shortName": "Naples", "municipalityName": "N\u00e1poli", "location": {"lat": 40.886, "lon": 14.2908}, "countryCode": "IT"}, "averageDailyFlights": 1.0, "operators": [{"name": "Eurowings", "iata": "EW", "icao": "EWG"}]}, {"destination": {"icao": "LIEO", "iata": "OLB", "name": "Olbia Costa Smeralda", "shortName": "Costa Smeralda", "municipalityName": "Olbia", "location": {"lat": 40.8987, "lon": 9.517629}, "countryCode": "IT"}, "averageDailyFlights": 1.0, "operators": [{"name": "Eurowings", "iata": "EW", "icao": "EWG"}]}, {"destination": {"icao": "LEMG", "iata": "AGP", "name": "M\u00e1laga ", "shortName": "M\u00e1laga", "municipalityName": "M\u00e1laga", "location": {"lat": 36.6749, "lon": -4.49911}, "countryCode": "ES"}, "averageDailyFlights": 0.86, "operators": [{"name": "Eurowings", "iata": "EW", "icao": "EWG"}]}, {"destination": {"icao": "LIMC", "iata": "MXP", "name": "Milan Malpensa", "shortName": "Malpensa", "municipalityName": "Milan", "location": {"lat": 45.6306, "lon": 8.72811}, "countryCode": "IT"}, "averageDailyFlights": 0.86, "operators": [{"name": "Eurowings", "iata": "EW", "icao": "EWG"}]}, {"destination": {"icao": "GCTS", "iata": "TFS", "name": "Tenerife Island Tenerife South", "shortName": "Tenerife South", "municipalityName": "Tenerife Island", "location": {"lat": 28.0445, "lon": -16.5725}, "countryCode": "ES"}, "averageDailyFlights": 0.86, "operators": [{"name": "TUIfly", "iata": "X3", "icao": "TUI"}, {"name": "Condor", "iata": "DE", "icao": "CFG"}]}, {"destination": {"icao": "LTAC", "iata": "ESB", "name": "Ankara Esenbo\u011fa", "shortName": "Esenbo\u011fa", "municipalityName": "Ankara", "location": {"lat": 40.1281, "lon": 32.9951}, "countryCode": "TR"}, "averageDailyFlights": 0.71, "operators": [{"name": "Turkish Airlines", "iata": "TK", "icao": "THY"}, {"name": "Sun Express", "iata": "XQ", "icao": "SXS"}, {"name": "Pegasus", "iata": "PC", "icao": "PGT"}]}, {"destination": {"icao": "KATL", "iata": "ATL", "name": "Atlanta Hartsfield Jackson", "shortName": "Hartsfield Jackson", "municipalityName": "Atlanta", "location": {"lat": 33.6367, "lon": -84.4281}, "countryCode": "US"}, "averageDailyFlights": 0.71, "operators": [{"name": "Delta Air Lines", "iata": "DL", "icao": "DAL"}]}, {"destination": {"icao": "GCLP", "iata": "LPA", "name": "Gran Canaria Island Gran Canaria", "shortName": "Gran Canaria", "municipalityName": "Gran Canaria Island", "location": {"lat": 27.9319, "lon": -15.386599}, "countryCode": "ES"}, "averageDailyFlights": 0.71, "operators": [{"name": "TUIfly", "iata": "X3", "icao": "TUI"}, {"name": "Condor", "iata": "DE", "icao": "CFG"}]}, {"destination": {"icao": "LPPT", "iata": "LIS", "name": "Lisbon Portela", "shortName": "Portela", "municipalityName": "Lisbon", "location": {"lat": 38.7813, "lon": -9.135919}, "countryCode": "PT"}, "averageDailyFlights": 0.71, "operators": [{"name": "Eurowings", "iata": "EW", "icao": "EWG"}]}, {"destination": {"icao": "LPPR", "iata": "OPO", "name": "Porto Francisco de S\u00e1 Carneiro", "shortName": "Francisco de S\u00e1 Carneiro", "municipalityName": "Porto", "location": {"lat": 41.2481, "lon": -8.681389}, "countryCode": "PT"}, "averageDailyFlights": 0.71, "operators": [{"name": "Eurowings", "iata": "EW", "icao": "EWG"}]}, {"destination": {"icao": "LEAL", "iata": "ALC", "name": "Alicante ", "shortName": "Alicante", "municipalityName": "Alicante", "location": {"lat": 38.2822, "lon": -0.558156}, "countryCode": "ES"}, "averageDailyFlights": 0.57, "operators": [{"name": "Eurowings", "iata": "EW", "icao": "EWG"}]}, {"destination": {"icao": "LIBD", "iata": "BRI", "name": "Bari Karol Wojty\u0142a", "shortName": "Karol Wojty\u0142a", "municipalityName": "Bari", "location": {"lat": 41.1389, "lon": 16.7606}, "countryCode": "IT"}, "averageDailyFlights": 0.57, "operators": [{"name": "Eurowings", "iata": "EW", "icao": "EWG"}]}, {"destination": {"icao": "EDDW", "iata": "BRE", "name": "Bremen ", "shortName": "Bremen", "municipalityName": "Bremen", "location": {"lat": 53.0475, "lon": 8.786669}, "countryCode": "DE"}, "averageDailyFlights": 0.57, "operators": [{"name": "Eurowings", "iata": "EW", "icao": "EWG"}]}, {"destination": {"icao": "LIEE", "iata": "CAG", "name": "Cagliari Elmas", "shortName": "Elmas", "municipalityName": "Cagliari", "location": {"lat": 39.2515, "lon": 9.05428}, "countryCode": "IT"}, "averageDailyFlights": 0.57, "operators": [{"name": "Eurowings", "iata": "EW", "icao": "EWG"}, {"name": "SmartWings", "iata": "QS", "icao": "TVS"}]}, {"destination": {"icao": "LTBS", "iata": "DLM", "name": "Dalaman ", "shortName": "Dalaman", "municipalityName": "Dalaman", "location": {"lat": 36.7131, "lon": 28.7925}, "countryCode": "TR"}, "averageDailyFlights": 0.57, "operators": [{"name": "Sun Express", "iata": "XQ", "icao": "SXS"}, {"name": "TUIfly", "iata": "X3", "icao": "TUI"}]}, {"destination": {"icao": "LGKV", "iata": "KVA", "name": "Kavala Alexander the Great", "shortName": "Alexander the Great", "municipalityName": "Kavala", "location": {"lat": 40.9133, "lon": 24.6192}, "countryCode": "GR"}, "averageDailyFlights": 0.57, "operators": [{"name": "Eurowings", "iata": "EW", "icao": "EWG"}]}, {"destination": {"icao": "DTMB", "iata": "MIR", "name": "Monastir Habib Bourguiba", "shortName": "Habib Bourguiba", "municipalityName": "Monastir", "location": {"lat": 35.7581, "lon": 10.754699}, "countryCode": "TN"}, "averageDailyFlights": 0.57, "operators": [{"name": "Nouvelair Tunisie", "iata": "BJ", "icao": "LBT"}, {"name": "Eurowings", "iata": "EW", "icao": "EWG"}]}, {"destination": {"icao": "EVRA", "iata": "RIX", "localCode": "\u0420\u0418\u0425", "name": "Riga ", "shortName": "Riga", "municipalityName": "Riga", "location": {"lat": 56.9236, "lon": 23.9711}, "countryCode": "LV"}, "averageDailyFlights": 0.57, "operators": [{"name": "airBaltic", "iata": "BT", "icao": "BTI"}]}, {"destination": {"icao": "ESSA", "iata": "ARN", "name": "Stockholm -Arlanda", "shortName": "-Arlanda", "municipalityName": "Stockholm", "location": {"lat": 59.6519, "lon": 17.9186}, "countryCode": "SE"}, "averageDailyFlights": 0.57, "operators": [{"name": "Eurowings", "iata": "EW", "icao": "EWG"}]}, {"destination": {"icao": "LEVC", "iata": "VLC", "name": "Valencia ", "shortName": "Valencia", "municipalityName": "Valencia", "location": {"lat": 39.4893, "lon": -0.481624}, "countryCode": "ES"}, "averageDailyFlights": 0.57, "operators": [{"name": "Eurowings", "iata": "EW", "icao": "EWG"}]}, {"destination": {"icao": "LIPZ", "iata": "VCE", "name": "Venice Marco Polo", "shortName": "Marco Polo", "municipalityName": "Venice", "location": {"lat": 45.5053, "lon": 12.3519}, "countryCode": "IT"}, "averageDailyFlights": 0.57, "operators": [{"name": "Eurowings", "iata": "EW", "icao": "EWG"}]}, {"destination": {"icao": "LDZA", "iata": "ZAG", "name": "Zagreb ", "shortName": "Zagreb", "municipalityName": "Zagreb", "location": {"lat": 45.7429, "lon": 16.068798}, "countryCode": "HR"}, "averageDailyFlights": 0.57, "operators": [{"name": "Eurowings", "iata": "EW", "icao": "EWG"}]}, {"destination": {"icao": "LTFE", "iata": "BJV", "name": "Bodrum Milas", "shortName": "Milas", "municipalityName": "Bodrum", "location": {"lat": 37.2506, "lon": 27.6643}, "countryCode": "TR"}, "averageDailyFlights": 0.43, "operators": [{"name": "Sun Express", "iata": "XQ", "icao": "SXS"}]}, {"destination": {"icao": "LIBR", "iata": "BDS", "name": "Brindisi \u2013 Salento", "shortName": "\u2013 Salento", "municipalityName": "Brindisi", "location": {"lat": 40.6576, "lon": 17.947}, "countryCode": "IT"}, "averageDailyFlights": 0.43, "operators": [{"name": "Eurowings", "iata": "EW", "icao": "EWG"}]}, {"destination": {"icao": "LROP", "iata": "OTP", "name": "Bucharest Henri Coand\u0103", "shortName": "Henri Coand\u0103", "municipalityName": "Bucharest", "location": {"lat": 44.5722, "lon": 26.1022}, "countryCode": "RO"}, "averageDailyFlights": 0.43, "operators": [{"name": "Eurowings", "iata": "EW", "icao": "EWG"}]}, {"destination": {"icao": "LTAU", "iata": "ASR", "name": "Kayseri Erkilet", "shortName": "Erkilet", "municipalityName": "Kayseri", "location": {"lat": 38.7704, "lon": 35.4954}, "countryCode": "TR"}, "averageDailyFlights": 0.43, "operators": [{"name": "Sun Express", "iata": "XQ", "icao": "SXS"}]}, {"destination": {"icao": "EPKK", "iata": "KRK", "name": "Krak\u00f3w John Paul II   -Balice", "shortName": "John Paul II   -Balice", "municipalityName": "Krak\u00f3w", "location": {"lat": 50.0777, "lon": 19.7848}, "countryCode": "PL"}, "averageDailyFlights": 0.43, "operators": [{"name": "Eurowings", "iata": "EW", "icao": "EWG"}]}, {"destination": {"icao": "LICA", "iata": "SUF", "name": "Lamezia Terme ", "shortName": "Lamezia Terme", "municipalityName": "Lamezia Terme", "location": {"lat": 38.9054, "lon": 16.2423}, "countryCode": "IT"}, "averageDailyFlights": 0.43, "operators": [{"name": "Eurowings", "iata": "EW", "icao": "EWG"}]}, {"destination": {"icao": "LCLK", "iata": "LCA", "name": "Larnarca Larnaca", "shortName": "Larnaca", "municipalityName": "Larnarca", "location": {"lat": 34.8751, "lon": 33.6249}, "countryCode": "CY"}, "averageDailyFlights": 0.43, "operators": [{"name": "Eurowings", "iata": "EW", "icao": "EWG"}]}, {"destination": {"icao": "EBLG", "iata": "LGG", "name": "Li\u00e8ge ", "shortName": "Li\u00e8ge", "municipalityName": "Li\u00e8ge", "location": {"lat": 50.6374, "lon": 5.44322}, "countryCode": "BE"}, "averageDailyFlights": 0.43, "operators": [{"name": "ABR"}]}, {"destination": {"icao": "LGPZ", "iata": "PVK", "name": "Preveza/Lefkada Aktion National", "shortName": "Aktion National", "municipalityName": "Preveza/Lefkada", "location": {"lat": 38.9255, "lon": 20.7653}, "countryCode": "GR"}, "averageDailyFlights": 0.43, "operators": [{"name": "Condor", "iata": "DE", "icao": "CFG"}]}, {"destination": {"icao": "LTFH", "iata": "SZF", "name": "Samsun \u00c7ar\u015famba", "shortName": "\u00c7ar\u015famba", "municipalityName": "Samsun", "location": {"lat": 41.2545, "lon": 36.5671}, "countryCode": "TR"}, "averageDailyFlights": 0.43, "operators": [{"name": "Sun Express", "iata": "XQ", "icao": "SXS"}]}, {"destination": {"icao": "LGSA", "iata": "CHQ", "name": "Souda Chania", "shortName": "Chania", "municipalityName": "Souda", "location": {"lat": 35.5317, "lon": 24.1497}, "countryCode": "GR"}, "averageDailyFlights": 0.43, "operators": [{"name": "Eurowings", "iata": "EW", "icao": "EWG"}]}, {"destination": {"icao": "EDXW", "iata": "GWT", "name": "Westerland Sylt", "shortName": "Sylt", "municipalityName": "Westerland", "location": {"lat": 54.9132, "lon": 8.34047}, "countryCode": "DE"}, "averageDailyFlights": 0.43, "operators": [{"name": "Eurowings", "iata": "EW", "icao": "EWG"}]}, {"destination": {"icao": "LFKB", "iata": "BIA", "name": "Bastia/Poretta Bastia-Poretta", "shortName": "Bastia-Poretta", "municipalityName": "Bastia/Poretta", "location": {"lat": 42.5527, "lon": 9.48373}, "countryCode": "FR"}, "averageDailyFlights": 0.29, "operators": [{"name": "Eurowings", "iata": "EW", "icao": "EWG"}]}, {"destination": {"icao": "LEBB", "iata": "BIO", "name": "Bilbao ", "shortName": "Bilbao", "municipalityName": "Bilbao", "location": {"lat": 43.3011, "lon": -2.910609}, "countryCode": "ES"}, "averageDailyFlights": 0.29, "operators": [{"name": "Eurowings", "iata": "EW", "icao": "EWG"}]}, {"destination": {"icao": "LFBD", "iata": "BOD", "name": "Bordeaux/M\u00e9rignac Bordeaux-M\u00e9rignac", "shortName": "Bordeaux-M\u00e9rignac", "municipalityName": "Bordeaux/M\u00e9rignac", "location": {"lat": 44.8283, "lon": -0.715556}, "countryCode": "FR"}, "averageDailyFlights": 0.29, "operators": [{"name": "Volotea", "iata": "V7", "icao": "VOE"}]}, {"destination": {"icao": "EDDV", "iata": "HAJ", "name": "Hanover Hannover", "shortName": "Hannover", "municipalityName": "Hanover", "location": {"lat": 52.4611, "lon": 9.685079}, "countryCode": "DE"}, "averageDailyFlights": 0.29, "operators": [{"name": "TUIfly", "iata": "X3", "icao": "TUI"}]}, {"destination": {"icao": "DTTJ", "iata": "DJE", "name": "Houmt El Souk Djerba Zarzis", "shortName": "Djerba Zarzis", "municipalityName": "Houmt El Souk", "location": {"lat": 33.875, "lon": 10.7755}, "countryCode": "TN"}, "averageDailyFlights": 0.29, "operators": [{"name": "TUIfly", "iata": "X3", "icao": "TUI"}, {"name": "Nouvelair Tunisie", "iata": "BJ", "icao": "LBT"}]}, {"destination": {"icao": "EDDP", "iata": "LEJ", "name": "Leipzig Halle", "shortName": "Halle", "municipalityName": "Leipzig", "location": {"lat": 51.4324, "lon": 12.2416}, "countryCode": "DE"}, "averageDailyFlights": 0.29, "operators": [{"name": "EAT Leipzig", "iata": "QY", "icao": "BCS"}]}, {"destination": {"icao": "LFMN", "iata": "NCE", "name": "Nice -C\u00f4te d'Azur", "shortName": "-C\u00f4te d'Azur", "municipalityName": "Nice", "location": {"lat": 43.6584, "lon": 7.215869}, "countryCode": "FR"}, "averageDailyFlights": 0.29, "operators": [{"name": "Eurowings", "iata": "EW", "icao": "EWG"}]}, {"destination": {"icao": "LICJ", "iata": "PMO", "name": "Palermo Falcone\u2013Borsellino", "shortName": "Falcone\u2013Borsellino", "municipalityName": "Palermo", "location": {"lat": 38.176, "lon": 13.090999}, "countryCode": "IT"}, "averageDailyFlights": 0.29, "operators": [{"name": "Eurowings", "iata": "EW", "icao": "EWG"}]}, {"destination": {"icao": "LGSR", "iata": "JTR", "name": "Santorini Island Santorini", "shortName": "Santorini", "municipalityName": "Santorini Island", "location": {"lat": 36.3992, "lon": 25.4793}, "countryCode": "GR"}, "averageDailyFlights": 0.29, "operators": [{"name": "Eurowings", "iata": "EW", "icao": "EWG"}]}, {"destination": {"icao": "LQSA", "iata": "SJJ", "name": "Sarajevo ", "shortName": "Sarajevo", "municipalityName": "Sarajevo", "location": {"lat": 43.8246, "lon": 18.3315}, "countryCode": "BA"}, "averageDailyFlights": 0.29, "operators": [{"name": "Eurowings", "iata": "EW", "icao": "EWG"}]}, {"destination": {"icao": "LATI", "iata": "TIA", "name": "Tirana Mother Teresa", "shortName": "Mother Teresa", "municipalityName": "Tirana", "location": {"lat": 41.4147, "lon": 19.7206}, "countryCode": "AL"}, "averageDailyFlights": 0.29, "operators": [{"name": "Eurowings", "iata": "EW", "icao": "EWG"}]}, {"destination": {"icao": "LDZD", "iata": "ZAD", "name": "Zadar Zemunik", "shortName": "Zemunik", "municipalityName": "Zadar", "location": {"lat": 44.1083, "lon": 15.346699}, "countryCode": "HR"}, "averageDailyFlights": 0.29, "operators": [{"name": "Eurowings", "iata": "EW", "icao": "EWG"}]}, {"destination": {"icao": "LGZA", "iata": "ZTH", "name": "Zakynthos Island Dionysios Solomos", "shortName": "Dionysios Solomos", "municipalityName": "Zakynthos Island", "location": {"lat": 37.7509, "lon": 20.8843}, "countryCode": "GR"}, "averageDailyFlights": 0.29, "operators": [{"name": "Eurowings", "iata": "EW", "icao": "EWG"}]}, {"destination": {"icao": "LTAF", "iata": "ADA", "name": "Adana ", "shortName": "Adana", "municipalityName": "Adana", "location": {"lat": 36.9822, "lon": 35.2804}, "countryCode": "TR"}, "averageDailyFlights": 0.14, "operators": [{"name": "Sun Express", "iata": "XQ", "icao": "SXS"}]}, {"destination": {"icao": "GMAD", "iata": "AGA", "name": "Agadir Al Massira", "shortName": "Al Massira", "municipalityName": "Agadir", "location": {"lat": 30.325, "lon": -9.413069}, "countryCode": "MA"}, "averageDailyFlights": 0.14, "operators": [{"name": "Eurowings", "iata": "EW", "icao": "EWG"}]}, {"destination": {"icao": "EDDK", "iata": "CGN", "name": "Cologne Bonn", "shortName": "Bonn", "municipalityName": "Cologne", "location": {"lat": 50.8659, "lon": 7.142739}, "countryCode": "DE"}, "averageDailyFlights": 0.14, "operators": [{"name": "EAT Leipzig", "iata": "QY", "icao": "BCS"}]}, {"destination": {"icao": "LDDU", "iata": "DBV", "name": "Dubrovnik ", "shortName": "Dubrovnik", "municipalityName": "Dubrovnik", "location": {"lat": 42.5614, "lon": 18.2682}, "countryCode": "HR"}, "averageDailyFlights": 0.14, "operators": [{"name": "SmartWings", "iata": "QS", "icao": "TVS"}]}, {"destination": {"icao": "LTCA", "iata": "EZS", "name": "Elaz\u0131\u011f ", "shortName": "Elaz\u0131\u011f", "municipalityName": "Elaz\u0131\u011f", "location": {"lat": 38.6069, "lon": 39.2914}, "countryCode": "TR"}, "averageDailyFlights": 0.14, "operators": [{"name": "Sun Express", "iata": "XQ", "icao": "SXS"}]}, {"destination": {"icao": "LPMA", "iata": "FNC", "name": "Funchal Madeira", "shortName": "Madeira", "municipalityName": "Funchal", "location": {"lat": 32.6979, "lon": -16.7745}, "countryCode": "PT"}, "averageDailyFlights": 0.14, "operators": [{"name": "TUIfly", "iata": "X3", "icao": "TUI"}]}, {"destination": {"icao": "LTAJ", "iata": "GZT", "name": "Gaziantep ", "shortName": "Gaziantep", "municipalityName": "Gaziantep", "location": {"lat": 36.9472, "lon": 37.4787}, "countryCode": "TR"}, "averageDailyFlights": 0.14, "operators": [{"name": "Sun Express", "iata": "XQ", "icao": "SXS"}]}, {"destination": {"icao": "LEJR", "iata": "XRY", "name": "Jerez de la Forntera Jerez", "shortName": "Jerez", "municipalityName": "Jerez de la Forntera", "location": {"lat": 36.7446, "lon": -6.06011}, "countryCode": "ES"}, "averageDailyFlights": 0.14, "operators": [{"name": "TUIfly", "iata": "X3", "icao": "TUI"}]}, {"destination": {"icao": "EDVK", "iata": "KSF", "name": "Kassel -Calden", "shortName": "-Calden", "municipalityName": "Kassel", "location": {"lat": 51.408333, "lon": 9.377499}, "countryCode": "DE"}, "averageDailyFlights": 0.14, "operators": [{"name": "Corendon Air", "iata": "XC", "icao": "CAI"}]}, {"destination": {"icao": "LTAN", "iata": "KYA", "name": "Konya ", "shortName": "Konya", "municipalityName": "Konya", "location": {"lat": 37.979, "lon": 32.5619}, "countryCode": "TR"}, "averageDailyFlights": 0.14, "operators": [{"name": "Sun Express", "iata": "XQ", "icao": "SXS"}]}, {"destination": {"icao": "GCRR", "iata": "ACE", "name": "Lanzarote Island Lanzarote", "shortName": "Lanzarote", "municipalityName": "Lanzarote Island", "location": {"lat": 28.9455, "lon": -13.605199}, "countryCode": "ES"}, "averageDailyFlights": 0.14, "operators": [{"name": "TUIfly", "iata": "X3", "icao": "TUI"}]}, {"destination": {"icao": "EGCC", "iata": "MAN", "name": "Manchester ", "shortName": "Manchester", "municipalityName": "Manchester", "location": {"lat": 53.3537, "lon": -2.27495}, "countryCode": "GB"}, "averageDailyFlights": 0.14, "operators": [{"name": "ATL"}]}, {"destination": {"icao": "HEMA", "iata": "RMF", "name": "Marsa Alam ", "shortName": "Marsa Alam", "municipalityName": "Marsa Alam", "location": {"lat": 25.5571, "lon": 34.5837}, "countryCode": "EG"}, "averageDailyFlights": 0.14, "operators": [{"name": "Air Cairo", "iata": "SM", "icao": "MSC"}]}, {"destination": {"icao": "LEMH", "iata": "MAH", "name": "Menorca Island Menorca", "shortName": "Menorca", "municipalityName": "Menorca Island", "location": {"lat": 39.8626, "lon": 4.218649}, "countryCode": "ES"}, "averageDailyFlights": 0.14, "operators": [{"name": "TUIfly", "iata": "X3", "icao": "TUI"}]}, {"destination": {"icao": "LGMK", "iata": "JMK", "name": "Mykonos Island Mikonos", "shortName": "Mikonos", "municipalityName": "Mykonos Island", "location": {"lat": 37.4351, "lon": 25.3481}, "countryCode": "GR"}, "averageDailyFlights": 0.14, "operators": [{"name": "Eurowings", "iata": "EW", "icao": "EWG"}]}, {"destination": {"icao": "EDDN", "iata": "NUE", "name": "Nuremberg ", "shortName": "Nuremberg", "municipalityName": "Nuremberg", "location": {"lat": 49.4987, "lon": 11.0669}, "countryCode": "DE"}, "averageDailyFlights": 0.14, "operators": [{"name": "Dan Air", "iata": "DN", "icao": "JOC"}]}, {"destination": {"icao": "LGRX", "iata": "GPA", "name": "P\u00e1trai Araxos", "shortName": "Araxos", "municipalityName": "P\u00e1trai", "location": {"lat": 38.1511, "lon": 21.4256}, "countryCode": "GR"}, "averageDailyFlights": 0.14, "operators": [{"name": "TUIfly", "iata": "X3", "icao": "TUI"}]}, {"destination": {"icao": "GVBA", "iata": "BVC", "name": "Rabil ", "shortName": "Rabil", "municipalityName": "Rabil", "location": {"lat": 16.1365, "lon": -22.8889}, "countryCode": "CV"}, "averageDailyFlights": 0.14, "operators": [{"name": "TUIfly", "iata": "X3", "icao": "TUI"}]}, {"destination": {"icao": "ETNL", "iata": "RLG", "name": "Rostock -Laage", "shortName": "-Laage", "municipalityName": "Rostock", "location": {"lat": 53.9182, "lon": 12.2783}, "countryCode": "DE"}, "averageDailyFlights": 0.14, "operators": [{"name": "Tailwind", "iata": "TI", "icao": "TWI"}]}, {"destination": {"icao": "LTCG", "iata": "TZX", "name": "Trabzon ", "shortName": "Trabzon", "municipalityName": "Trabzon", "location": {"lat": 40.9951, "lon": 39.7897}, "countryCode": "TR"}, "averageDailyFlights": 0.14, "operators": [{"name": "Sun Express", "iata": "XQ", "icao": "SXS"}]}]}