{"routes": [{"destination": {"icao": "EFHK", "iata": "HEL", "name": "Helsinki Vantaa", "shortName": "Vantaa", "municipalityName": "Helsinki", "location": {"lat": 60.3172, "lon": 24.9633}, "countryCode": "FI"}, "averageDailyFlights": 7.71, "operators": [{"name": "Finnair", "iata": "AY", "icao": "FIN"}, {"name": "AEG"}]}, {"destination": {"icao": "ESSA", "iata": "ARN", "name": "Stockholm -Arlanda", "shortName": "-Arlanda", "municipalityName": "Stockholm", "location": {"lat": 59.6519, "lon": 17.9186}, "countryCode": "SE"}, "averageDailyFlights": 4.71, "operators": [{"name": "SAS", "iata": "SK", "icao": "SAS"}, {"name": "Ryanair", "iata": "FR", "icao": "RYR"}]}, {"destination": {"icao": "EVRA", "iata": "RIX", "localCode": "\u0420\u0418\u0425", "name": "Riga ", "shortName": "Riga", "municipalityName": "Riga", "location": {"lat": 56.9236, "lon": 23.9711}, "countryCode": "LV"}, "averageDailyFlights": 4.43, "operators": [{"name": "airBaltic", "iata": "BT", "icao": "BTI"}]}, {"destination": {"icao": "EPWA", "iata": "WAW", "name": "Warsaw Chopin", "shortName": "Chopin", "municipalityName": "Warsaw", "location": {"lat": 52.1657, "lon": 20.9671}, "countryCode": "PL"}, "averageDailyFlights": 3.71, "operators": [{"name": "LOT - Polish Airlines", "iata": "LO", "icao": "LOT"}]}, {"destination": {"icao": "EEKE", "iata": "URE", "name": "Kuressaare ", "shortName": "Kuressaare", "municipalityName": "Kuressaare", "location": {"lat": 58.2299, "lon": 22.5095}, "countryCode": "EE"}, "averageDailyFlights": 3.29, "operators": [{"name": "FlexFlight", "iata": "W2", "icao": "FXT"}, {"name": "NYX"}]}, {"destination": {"icao": "EDDF", "iata": "FRA", "name": "Frankfurt-am-Main ", "shortName": "Frankfurt-am-Main", "municipalityName": "Frankfurt-am-Main", "location": {"lat": 50.0264, "lon": 8.543129}, "countryCode": "DE"}, "averageDailyFlights": 3.0, "operators": [{"name": "Lufthansa", "iata": "LH", "icao": "DLH"}]}, {"destination": {"icao": "LTAI", "iata": "AYT", "name": "Antalya ", "shortName": "Antalya", "municipalityName": "Antalya", "location": {"lat": 36.8987, "lon": 30.8005}, "countryCode": "TR"}, "averageDailyFlights": 2.0, "operators": [{"name": "Sun Express", "iata": "XQ", "icao": "SXS"}, {"name": "Turkish Airlines", "iata": "TK", "icao": "THY"}, {"name": "Pegasus", "iata": "PC", "icao": "PGT"}, {"name": "Corendon Air", "iata": "XC", "icao": "CAI"}, {"name": "Freebird Airlines", "iata": "FH", "icao": "FHY"}]}, {"destination": {"icao": "ENGM", "iata": "OSL", "name": "Oslo Gardermoen", "shortName": "Gardermoen", "municipalityName": "Oslo", "location": {"lat": 60.1939, "lon": 11.100399}, "countryCode": "NO"}, "averageDailyFlights": 1.43, "operators": [{"name": "Norwegian Air Shuttle", "iata": "DY", "icao": "NOZ"}, {"name": "airBaltic", "iata": "BT", "icao": "BTI"}, {"name": "SAS", "iata": "SK", "icao": "SAS"}]}, {"destination": {"icao": "EKCH", "iata": "CPH", "name": "Copenhagen Kastrup", "shortName": "Kastrup", "municipalityName": "Copenhagen", "location": {"lat": 55.6179, "lon": 12.656}, "countryCode": "DK"}, "averageDailyFlights": 1.29, "operators": [{"name": "airBaltic", "iata": "BT", "icao": "BTI"}, {"name": "SAS", "iata": "SK", "icao": "SAS"}]}, {"destination": {"icao": "EDDM", "iata": "MUC", "name": "Munich ", "shortName": "Munich", "municipalityName": "Munich", "location": {"lat": 48.3538, "lon": 11.7861}, "countryCode": "DE"}, "averageDailyFlights": 1.25, "operators": [{"name": "airBaltic", "iata": "BT", "icao": "BTI"}, {"name": "Lufthansa", "iata": "LH", "icao": "DLH"}, {"name": "Norwegian Air UK", "iata": "DI", "icao": "NRS"}]}, {"destination": {"icao": "EHAM", "iata": "AMS", "name": "Amsterdam Schiphol", "shortName": "Schiphol", "municipalityName": "Amsterdam", "location": {"lat": 52.3086, "lon": 4.763889}, "countryCode": "NL"}, "averageDailyFlights": 1.14, "operators": [{"name": "airBaltic", "iata": "BT", "icao": "BTI"}]}, {"destination": {"icao": "EDDB", "iata": "BER", "name": "Berlin Brandenburg", "shortName": "Brandenburg", "municipalityName": "Berlin", "location": {"lat": 52.35139, "lon": 13.493889}, "countryCode": "DE"}, "averageDailyFlights": 1.0, "operators": [{"name": "Ryanair", "iata": "FR", "icao": "RYR"}, {"name": "airBaltic", "iata": "BT", "icao": "BTI"}]}, {"destination": {"icao": "LTFM", "iata": "IST", "name": "Istanbul ", "shortName": "Istanbul", "municipalityName": "Istanbul", "location": {"lat": 41.275276, "lon": 28.751944}, "countryCode": "TR"}, "averageDailyFlights": 0.86, "operators": [{"name": "Turkish Airlines", "iata": "TK", "icao": "THY"}]}, {"destination": {"icao": "LOWW", "iata": "VIE", "name": "Vienna Schwechat", "shortName": "Schwechat", "municipalityName": "Vienna", "location": {"lat": 48.1103, "lon": 16.5697}, "countryCode": "AT"}, "averageDailyFlights": 0.86, "operators": [{"name": "Ryanair", "iata": "FR", "icao": "RYR"}]}, {"destination": {"icao": "EGKK", "iata": "LGW", "name": "London Gatwick", "shortName": "Gatwick", "municipalityName": "London", "location": {"lat": 51.1481, "lon": -0.190277}, "countryCode": "GB"}, "averageDailyFlights": 0.75, "operators": [{"name": "airBaltic", "iata": "BT", "icao": "BTI"}, {"name": "Wizz Air UK", "iata": "W9", "icao": "WUK"}]}, {"destination": {"icao": "EGSS", "iata": "STN", "name": "London Stansted", "shortName": "Stansted", "municipalityName": "London", "location": {"lat": 51.885, "lon": 0.234999}, "countryCode": "GB"}, "averageDailyFlights": 0.71, "operators": [{"name": "Ryanair", "iata": "FR", "icao": "RYR"}]}, {"destination": {"icao": "EYVI", "iata": "VNO", "localCode": "\u0412\u0418\u041b", "name": "Vilnius ", "shortName": "Vilnius", "municipalityName": "Vilnius", "location": {"lat": 54.6341, "lon": 25.2858}, "countryCode": "LT"}, "averageDailyFlights": 0.71, "operators": [{"name": "airBaltic", "iata": "BT", "icao": "BTI"}]}, {"destination": {"icao": "EBBR", "iata": "BRU", "name": "Brussels ", "shortName": "Brussels", "municipalityName": "Brussels", "location": {"lat": 50.9014, "lon": 4.484439}, "countryCode": "BE"}, "averageDailyFlights": 0.57, "operators": [{"name": "airBaltic", "iata": "BT", "icao": "BTI"}]}, {"destination": {"icao": "LGIR", "iata": "HER", "name": "Heraklion Nikos Kazantzakis", "shortName": "Nikos Kazantzakis", "municipalityName": "Heraklion", "location": {"lat": 35.3397, "lon": 25.1803}, "countryCode": "GR"}, "averageDailyFlights": 0.57, "operators": [{"name": "FlexFlight", "iata": "W2", "icao": "FXT"}, {"name": "airBaltic", "iata": "BT", "icao": "BTI"}]}, {"destination": {"icao": "LEMG", "iata": "AGP", "name": "M\u00e1laga ", "shortName": "M\u00e1laga", "municipalityName": "M\u00e1laga", "location": {"lat": 36.6749, "lon": -4.49911}, "countryCode": "ES"}, "averageDailyFlights": 0.57, "operators": [{"name": "airBaltic", "iata": "BT", "icao": "BTI"}]}, {"destination": {"icao": "LFPG", "iata": "CDG", "name": "Paris Charles de Gaulle", "shortName": "Charles de Gaulle", "municipalityName": "Paris", "location": {"lat": 49.0128, "lon": 2.549999}, "countryCode": "FR"}, "averageDailyFlights": 0.57, "operators": [{"name": "airBaltic", "iata": "BT", "icao": "BTI"}]}, {"destination": {"icao": "LSZH", "iata": "ZRH", "name": "Zurich Kloten", "shortName": "Kloten", "municipalityName": "Zurich", "location": {"lat": 47.4647, "lon": 8.549169}, "countryCode": "CH"}, "averageDailyFlights": 0.57, "operators": [{"name": "SWISS", "iata": "LX", "icao": "SWR"}]}, {"destination": {"icao": "LGAV", "iata": "ATH", "name": "Athens Eleftherios Venizelos", "shortName": "Eleftherios Venizelos", "municipalityName": "Athens", "location": {"lat": 37.9364, "lon": 23.944498}, "countryCode": "GR"}, "averageDailyFlights": 0.43, "operators": [{"name": "Aegean Airlines", "iata": "A3", "icao": "AEE"}]}, {"destination": {"icao": "EDDP", "iata": "LEJ", "name": "Leipzig Halle", "shortName": "Halle", "municipalityName": "Leipzig", "location": {"lat": 51.4324, "lon": 12.2416}, "countryCode": "DE"}, "averageDailyFlights": 0.43, "operators": [{"name": "EAT Leipzig", "iata": "QY", "icao": "BCS"}]}, {"destination": {"icao": "LFMN", "iata": "NCE", "name": "Nice -C\u00f4te d'Azur", "shortName": "-C\u00f4te d'Azur", "municipalityName": "Nice", "location": {"lat": 43.6584, "lon": 7.215869}, "countryCode": "FR"}, "averageDailyFlights": 0.43, "operators": [{"name": "airBaltic", "iata": "BT", "icao": "BTI"}]}, {"destination": {"icao": "LIRA", "iata": "CIA", "name": "Roma Ciampino\u2013G. B. Pastine", "shortName": "Ciampino\u2013G. B. Pastine", "municipalityName": "Roma", "location": {"lat": 41.7994, "lon": 12.5949}, "countryCode": "IT"}, "averageDailyFlights": 0.43, "operators": [{"name": "Ryanair", "iata": "FR", "icao": "RYR"}]}, {"destination": {"icao": "LEBL", "iata": "BCN", "name": "Barcelona ", "shortName": "Barcelona", "municipalityName": "Barcelona", "location": {"lat": 41.2971, "lon": 2.078459}, "countryCode": "ES"}, "averageDailyFlights": 0.29, "operators": [{"name": "Ryanair", "iata": "FR", "icao": "RYR"}]}, {"destination": {"icao": "LIME", "iata": "BGY", "name": "Bergamo Orio al Serio", "shortName": "Orio al Serio", "municipalityName": "Bergamo", "location": {"lat": 45.6739, "lon": 9.70417}, "countryCode": "IT"}, "averageDailyFlights": 0.29, "operators": [{"name": "Ryanair", "iata": "FR", "icao": "RYR"}]}, {"destination": {"icao": "LDDU", "iata": "DBV", "name": "Dubrovnik ", "shortName": "Dubrovnik", "municipalityName": "Dubrovnik", "location": {"lat": 42.5614, "lon": 18.2682}, "countryCode": "HR"}, "averageDailyFlights": 0.29, "operators": [{"name": "airBaltic", "iata": "BT", "icao": "BTI"}]}, {"destination": {"icao": "EEKA", "iata": "KDL", "name": "K\u00e4rdla ", "shortName": "K\u00e4rdla", "municipalityName": "K\u00e4rdla", "location": {"lat": 58.9908, "lon": 22.8307}, "countryCode": "EE"}, "averageDailyFlights": 0.29, "operators": [{"name": "DMS"}]}, {"destination": {"icao": "LIMC", "iata": "MXP", "name": "Milan Malpensa", "shortName": "Malpensa", "municipalityName": "Milan", "location": {"lat": 45.6306, "lon": 8.72811}, "countryCode": "IT"}, "averageDailyFlights": 0.29, "operators": [{"name": "Wizz Air Malta", "iata": "W4", "icao": "WMT"}]}, {"destination": {"icao": "LGRP", "iata": "RHO", "name": "Rodes Island Diagoras", "shortName": "Diagoras", "municipalityName": "Rodes Island", "location": {"lat": 36.4054, "lon": 28.0862}, "countryCode": "GR"}, "averageDailyFlights": 0.29, "operators": [{"name": "airBaltic", "iata": "BT", "icao": "BTI"}]}, {"destination": {"icao": "LDSP", "iata": "SPU", "name": "Split ", "shortName": "Split", "municipalityName": "Split", "location": {"lat": 43.5389, "lon": 16.298}, "countryCode": "HR"}, "averageDailyFlights": 0.29, "operators": [{"name": "airBaltic", "iata": "BT", "icao": "BTI"}]}, {"destination": {"icao": "LYTV", "iata": "TIV", "name": "Tivat ", "shortName": "Tivat", "municipalityName": "Tivat", "location": {"lat": 42.4047, "lon": 18.7233}, "countryCode": "ME"}, "averageDailyFlights": 0.29, "operators": [{"name": "MYX"}, {"name": "FlexFlight", "iata": "W2", "icao": "FXT"}]}, {"destination": {"icao": "LIPH", "iata": "TSF", "name": "Treviso -Sant'Angelo", "shortName": "-Sant'Angelo", "municipalityName": "Treviso", "location": {"lat": 45.6484, "lon": 12.194399}, "countryCode": "IT"}, "averageDailyFlights": 0.29, "operators": [{"name": "Ryanair", "iata": "FR", "icao": "RYR"}]}, {"destination": {"icao": "HEGN", "iata": "HRG", "name": "Hurghada ", "shortName": "Hurghada", "municipalityName": "Hurghada", "location": {"lat": 27.1783, "lon": 33.7994}, "countryCode": "EG"}, "averageDailyFlights": 0.14, "operators": [{"name": "Aura Airlines"}]}, {"destination": {"icao": "UGKO", "iata": "KUT", "name": "Kutaisi Kopitnari", "shortName": "Kopitnari", "municipalityName": "Kutaisi", "location": {"lat": 42.1767, "lon": 42.4826}, "countryCode": "GE"}, "averageDailyFlights": 0.14, "operators": [{"name": "Wizz Air"}]}, {"destination": {"icao": "HESH", "iata": "SSH", "name": "Sharm el Sheikh ", "shortName": "Sharm el Sheikh", "municipalityName": "Sharm el Sheikh", "location": {"lat": 27.9773, "lon": 34.395}, "countryCode": "EG"}, "averageDailyFlights": 0.14, "operators": [{"name": "Aura Airlines"}]}, {"destination": {"name": "Catania"}, "averageDailyFlights": 0.14, "operators": [{"name": "FlexFlight", "iata": "W2", "icao": "FXT"}]}, {"destination": {"name": "Faro"}, "averageDailyFlights": 0.14, "operators": [{"name": "FlexFlight", "iata": "W2", "icao": "FXT"}]}]}