{"routes": [{"destination": {"icao": "EPWA", "iata": "WAW", "name": "Warsaw Chopin", "shortName": "Chopin", "municipalityName": "Warsaw", "location": {"lat": 52.1657, "lon": 20.9671}, "countryCode": "PL"}, "averageDailyFlights": 6.71, "operators": [{"name": "LOT - Polish Airlines", "iata": "LO", "icao": "LOT"}]}, {"destination": {"icao": "EKCH", "iata": "CPH", "name": "Copenhagen Kastrup", "shortName": "Kastrup", "municipalityName": "Copenhagen", "location": {"lat": 55.6179, "lon": 12.656}, "countryCode": "DK"}, "averageDailyFlights": 3.86, "operators": [{"name": "SAS", "iata": "SK", "icao": "SAS"}, {"name": "Wizz Air"}, {"name": "Ryanair", "iata": "FR", "icao": "RYR"}]}, {"destination": {"icao": "EHAM", "iata": "AMS", "name": "Amsterdam Schiphol", "shortName": "Schiphol", "municipalityName": "Amsterdam", "location": {"lat": 52.3086, "lon": 4.763889}, "countryCode": "NL"}, "averageDailyFlights": 3.43, "operators": [{"name": "KLM", "iata": "KL", "icao": "KLM"}]}, {"destination": {"icao": "LTAI", "iata": "AYT", "name": "Antalya ", "shortName": "Antalya", "municipalityName": "Antalya", "location": {"lat": 36.8987, "lon": 30.8005}, "countryCode": "TR"}, "averageDailyFlights": 2.71, "operators": [{"name": "Pegasus", "iata": "PC", "icao": "PGT"}, {"name": "LOT - Polish Airlines", "iata": "LO", "icao": "LOT"}, {"name": "RR"}, {"name": "LATAM Argentina", "iata": "4M", "icao": "DSM"}, {"name": "MGH"}, {"name": "Smartwings Poland", "iata": "3Z", "icao": "TVP"}, {"name": "Corendon Air", "iata": "XC", "icao": "CAI"}, {"name": "Enter Air", "iata": "E4", "icao": "ENT"}]}, {"destination": {"icao": "EDDF", "iata": "FRA", "name": "Frankfurt-am-Main ", "shortName": "Frankfurt-am-Main", "municipalityName": "Frankfurt-am-Main", "location": {"lat": 50.0264, "lon": 8.543129}, "countryCode": "DE"}, "averageDailyFlights": 2.57, "operators": [{"name": "Lufthansa", "iata": "LH", "icao": "DLH"}]}, {"destination": {"icao": "EGSS", "iata": "STN", "name": "London Stansted", "shortName": "Stansted", "municipalityName": "London", "location": {"lat": 51.885, "lon": 0.234999}, "countryCode": "GB"}, "averageDailyFlights": 2.57, "operators": [{"name": "Ryanair", "iata": "FR", "icao": "RYR"}]}, {"destination": {"icao": "ENGM", "iata": "OSL", "name": "Oslo Gardermoen", "shortName": "Gardermoen", "municipalityName": "Oslo", "location": {"lat": 60.1939, "lon": 11.100399}, "countryCode": "NO"}, "averageDailyFlights": 2.57, "operators": [{"name": "Norwegian Air Shuttle", "iata": "DY", "icao": "NOZ"}, {"name": "Wizz Air", "iata": "W6", "icao": "WZZ"}]}, {"destination": {"icao": "EDDM", "iata": "MUC", "name": "Munich ", "shortName": "Munich", "municipalityName": "Munich", "location": {"lat": 48.3538, "lon": 11.7861}, "countryCode": "DE"}, "averageDailyFlights": 2.29, "operators": [{"name": "Lufthansa", "iata": "LH", "icao": "DLH"}]}, {"destination": {"icao": "ESSA", "iata": "ARN", "name": "Stockholm -Arlanda", "shortName": "-Arlanda", "municipalityName": "Stockholm", "location": {"lat": 59.6519, "lon": 17.9186}, "countryCode": "SE"}, "averageDailyFlights": 2.29, "operators": [{"name": "Ryanair", "iata": "FR", "icao": "RYR"}]}, {"destination": {"icao": "ENTO", "iata": "TRF", "name": "Torp ", "shortName": "Torp", "municipalityName": "Torp", "location": {"lat": 59.1867, "lon": 10.2586}, "countryCode": "NO"}, "averageDailyFlights": 2.29, "operators": [{"name": "Ryanair", "iata": "FR", "icao": "RYR"}, {"name": "Wizz Air", "iata": "W6", "icao": "WZZ"}]}, {"destination": {"icao": "EGGW", "iata": "LTN", "name": "London Luton", "shortName": "Luton", "municipalityName": "London", "location": {"lat": 51.8747, "lon": -0.368333}, "countryCode": "GB"}, "averageDailyFlights": 1.89, "operators": [{"name": "Wizz Air"}]}, {"destination": {"icao": "ESKN", "iata": "NYO", "name": "Stockholm / Nyk\u00f6ping Skavsta", "shortName": "Skavsta", "municipalityName": "Stockholm / Nyk\u00f6ping", "location": {"lat": 58.7886, "lon": 16.9122}, "countryCode": "SE"}, "averageDailyFlights": 1.88, "operators": [{"name": "Wizz Air"}, {"name": "Enter Air", "iata": "E4", "icao": "ENT"}]}, {"destination": {"icao": "ESGG", "iata": "GOT", "name": "Goteborg Gothenburg-Landvetter", "shortName": "Gothenburg-Landvetter", "municipalityName": "Goteborg", "location": {"lat": 57.6628, "lon": 12.2798}, "countryCode": "SE"}, "averageDailyFlights": 1.71, "operators": [{"name": "Ryanair", "iata": "FR", "icao": "RYR"}, {"name": "Wizz Air", "iata": "W6", "icao": "WZZ"}]}, {"destination": {"icao": "EDLW", "iata": "DTM", "name": "Dortmund ", "shortName": "Dortmund", "municipalityName": "Dortmund", "location": {"lat": 51.5183, "lon": 7.612239}, "countryCode": "DE"}, "averageDailyFlights": 1.57, "operators": [{"name": "Wizz Air"}]}, {"destination": {"icao": "ENBR", "iata": "BGO", "name": "Bergen Flesland", "shortName": "Flesland", "municipalityName": "Bergen", "location": {"lat": 60.2934, "lon": 5.21814}, "countryCode": "NO"}, "averageDailyFlights": 1.43, "operators": [{"name": "Wizz Air"}, {"name": "Norwegian Air Shuttle", "iata": "DY", "icao": "NOZ"}]}, {"destination": {"icao": "EDDH", "iata": "HAM", "name": "Hamburg ", "shortName": "Hamburg", "municipalityName": "Hamburg", "location": {"lat": 53.6304, "lon": 9.988229}, "countryCode": "DE"}, "averageDailyFlights": 1.43, "operators": [{"name": "Wizz Air", "iata": "W6", "icao": "WZZ"}, {"name": "Ryanair", "iata": "FR", "icao": "RYR"}]}, {"destination": {"icao": "LFOB", "iata": "BVA", "name": "Beauvais/Till\u00e9 Paris Beauvais Till\u00e9", "shortName": "Paris Beauvais Till\u00e9", "municipalityName": "Beauvais/Till\u00e9", "location": {"lat": 49.4544, "lon": 2.11278}, "countryCode": "FR"}, "averageDailyFlights": 1.15, "operators": [{"name": "Ryanair", "iata": "FR", "icao": "RYR"}, {"name": "Wizz Air", "iata": "W6", "icao": "WZZ"}]}, {"destination": {"icao": "EGPH", "iata": "EDI", "name": "Edinburgh ", "shortName": "Edinburgh", "municipalityName": "Edinburgh", "location": {"lat": 55.95, "lon": -3.372499}, "countryCode": "GB"}, "averageDailyFlights": 1.14, "operators": [{"name": "Ryanair", "iata": "FR", "icao": "RYR"}, {"name": "Wizz Air"}]}, {"destination": {"icao": "LEMG", "iata": "AGP", "name": "M\u00e1laga ", "shortName": "M\u00e1laga", "municipalityName": "M\u00e1laga", "location": {"lat": 36.6749, "lon": -4.49911}, "countryCode": "ES"}, "averageDailyFlights": 1.14, "operators": [{"name": "Ryanair", "iata": "FR", "icao": "RYR"}, {"name": "Wizz Air", "iata": "W6", "icao": "WZZ"}]}, {"destination": {"icao": "ENZV", "iata": "SVG", "name": "Stavanger Sola", "shortName": "Sola", "municipalityName": "Stavanger", "location": {"lat": 58.8767, "lon": 5.63778}, "countryCode": "NO"}, "averageDailyFlights": 1.14, "operators": [{"name": "Wizz Air"}]}, {"destination": {"icao": "LIME", "iata": "BGY", "name": "Bergamo Orio al Serio", "shortName": "Orio al Serio", "municipalityName": "Bergamo", "location": {"lat": 45.6739, "lon": 9.70417}, "countryCode": "IT"}, "averageDailyFlights": 1.0, "operators": [{"name": "Ryanair", "iata": "FR", "icao": "RYR"}]}, {"destination": {"icao": "EIDW", "iata": "DUB", "name": "Dublin ", "shortName": "Dublin", "municipalityName": "Dublin", "location": {"lat": 53.4213, "lon": -6.27007}, "countryCode": "IE"}, "averageDailyFlights": 1.0, "operators": [{"name": "Ryanair", "iata": "FR", "icao": "RYR"}]}, {"destination": {"icao": "EGNM", "iata": "LBA", "name": "Leeds Bradford", "shortName": "Bradford", "municipalityName": "Leeds", "location": {"lat": 53.8659, "lon": -1.66057}, "countryCode": "GB"}, "averageDailyFlights": 1.0, "operators": [{"name": "Wizz Air"}, {"name": "Ryanair", "iata": "FR", "icao": "RYR"}]}, {"destination": {"icao": "LEAL", "iata": "ALC", "name": "Alicante ", "shortName": "Alicante", "municipalityName": "Alicante", "location": {"lat": 38.2822, "lon": -0.558156}, "countryCode": "ES"}, "averageDailyFlights": 0.86, "operators": [{"name": "Ryanair", "iata": "FR", "icao": "RYR"}, {"name": "Wizz Air"}]}, {"destination": {"icao": "LEBL", "iata": "BCN", "name": "Barcelona ", "shortName": "Barcelona", "municipalityName": "Barcelona", "location": {"lat": 41.2971, "lon": 2.078459}, "countryCode": "ES"}, "averageDailyFlights": 0.86, "operators": [{"name": "Ryanair", "iata": "FR", "icao": "RYR"}, {"name": "Wizz Air", "iata": "W6", "icao": "WZZ"}]}, {"destination": {"icao": "EHEH", "iata": "EIN", "name": "Eindhoven ", "shortName": "Eindhoven", "municipalityName": "Eindhoven", "location": {"lat": 51.4501, "lon": 5.374529}, "countryCode": "NL"}, "averageDailyFlights": 0.86, "operators": [{"name": "Wizz Air"}]}, {"destination": {"icao": "EPKK", "iata": "KRK", "name": "Krak\u00f3w John Paul II   -Balice", "shortName": "John Paul II   -Balice", "municipalityName": "Krak\u00f3w", "location": {"lat": 50.0777, "lon": 19.7848}, "countryCode": "PL"}, "averageDailyFlights": 0.86, "operators": [{"name": "Ryanair", "iata": "FR", "icao": "RYR"}]}, {"destination": {"icao": "LGIR", "iata": "HER", "name": "Heraklion Nikos Kazantzakis", "shortName": "Nikos Kazantzakis", "municipalityName": "Heraklion", "location": {"lat": 35.3397, "lon": 25.1803}, "countryCode": "GR"}, "averageDailyFlights": 0.79, "operators": [{"name": "Sky Express", "iata": "GQ", "icao": "SEH"}, {"name": "Wizz Air", "iata": "W6", "icao": "WZZ"}, {"name": "Enter Air", "iata": "E4", "icao": "ENT"}]}, {"destination": {"icao": "EKBI", "iata": "BLL", "name": "Billund ", "shortName": "Billund", "municipalityName": "Billund", "location": {"lat": 55.7403, "lon": 9.15178}, "countryCode": "DK"}, "averageDailyFlights": 0.71, "operators": [{"name": "Ryanair", "iata": "FR", "icao": "RYR"}]}, {"destination": {"icao": "ENHD", "iata": "HAU", "name": "Karm\u00f8y Haugesund", "shortName": "Haugesund", "municipalityName": "Karm\u00f8y", "location": {"lat": 59.3453, "lon": 5.20836}, "countryCode": "NO"}, "averageDailyFlights": 0.71, "operators": [{"name": "Wizz Air"}]}, {"destination": {"icao": "UGKO", "iata": "KUT", "name": "Kutaisi Kopitnari", "shortName": "Kopitnari", "municipalityName": "Kutaisi", "location": {"lat": 42.1767, "lon": 42.4826}, "countryCode": "GE"}, "averageDailyFlights": 0.71, "operators": [{"name": "Wizz Air"}]}, {"destination": {"icao": "ESMS", "iata": "MMX", "name": "Malm\u00f6 Sturup", "shortName": "Sturup", "municipalityName": "Malm\u00f6", "location": {"lat": 55.536304, "lon": 13.376197}, "countryCode": "SE"}, "averageDailyFlights": 0.71, "operators": [{"name": "Wizz Air"}]}, {"destination": {"icao": "EFTU", "iata": "TKU", "name": "Turku ", "shortName": "Turku", "municipalityName": "Turku", "location": {"lat": 60.5141, "lon": 22.2628}, "countryCode": "FI"}, "averageDailyFlights": 0.71, "operators": [{"name": "Wizz Air", "iata": "W6", "icao": "WZZ"}]}, {"destination": {"icao": "EKAH", "iata": "AAR", "name": "Aarhus ", "shortName": "Aarhus", "municipalityName": "Aarhus", "location": {"lat": 56.3, "lon": 10.619}, "countryCode": "DK"}, "averageDailyFlights": 0.57, "operators": [{"name": "Ryanair", "iata": "FR", "icao": "RYR"}]}, {"destination": {"icao": "ENAL", "iata": "AES", "name": "\u00c5lesund ", "shortName": "\u00c5lesund", "municipalityName": "\u00c5lesund", "location": {"lat": 62.5625, "lon": 6.119699}, "countryCode": "NO"}, "averageDailyFlights": 0.57, "operators": [{"name": "Wizz Air"}]}, {"destination": {"icao": "EDDB", "iata": "BER", "name": "Berlin Brandenburg", "shortName": "Brandenburg", "municipalityName": "Berlin", "location": {"lat": 52.35139, "lon": 13.493889}, "countryCode": "DE"}, "averageDailyFlights": 0.57, "operators": [{"name": "Sprint Air", "iata": "P8", "icao": "SRN"}]}, {"destination": {"icao": "EGGD", "iata": "BRS", "name": "Bristol ", "shortName": "Bristol", "municipalityName": "Bristol", "location": {"lat": 51.3827, "lon": -2.719089}, "countryCode": "GB"}, "averageDailyFlights": 0.57, "operators": [{"name": "Ryanair", "iata": "FR", "icao": "RYR"}]}, {"destination": {"icao": "EDDN", "iata": "NUE", "name": "Nuremberg ", "shortName": "Nuremberg", "municipalityName": "Nuremberg", "location": {"lat": 49.4987, "lon": 11.0669}, "countryCode": "DE"}, "averageDailyFlights": 0.57, "operators": [{"name": "ASL Airlines Belgium", "iata": "3V", "icao": "TAY"}]}, {"destination": {"icao": "EVRA", "iata": "RIX", "localCode": "\u0420\u0418\u0425", "name": "Riga ", "shortName": "Riga", "municipalityName": "Riga", "location": {"lat": 56.9236, "lon": 23.9711}, "countryCode": "LV"}, "averageDailyFlights": 0.57, "operators": [{"name": "Ryanair", "iata": "FR", "icao": "RYR"}]}, {"destination": {"icao": "ENTC", "iata": "TOS", "name": "Troms\u00f8 ", "shortName": "Troms\u00f8", "municipalityName": "Troms\u00f8", "location": {"lat": 69.6833, "lon": 18.9189}, "countryCode": "NO"}, "averageDailyFlights": 0.57, "operators": [{"name": "Wizz Air"}]}, {"destination": {"icao": "EGNT", "iata": "NCL", "name": "Newcastle upon Tyne Newcastle", "shortName": "Newcastle", "municipalityName": "Newcastle upon Tyne", "location": {"lat": 55.0375, "lon": -1.691669}, "countryCode": "GB"}, "averageDailyFlights": 0.45, "operators": [{"name": "Ryanair", "iata": "FR", "icao": "RYR"}]}, {"destination": {"icao": "EGPD", "iata": "ABZ", "name": "Aberdeen Dyce", "shortName": "Dyce", "municipalityName": "Aberdeen", "location": {"lat": 57.2019, "lon": -2.197779}, "countryCode": "GB"}, "averageDailyFlights": 0.43, "operators": [{"name": "Wizz Air"}]}, {"destination": {"icao": "EDDP", "iata": "LEJ", "name": "Leipzig Halle", "shortName": "Halle", "municipalityName": "Leipzig", "location": {"lat": 51.4324, "lon": 12.2416}, "countryCode": "DE"}, "averageDailyFlights": 0.43, "operators": [{"name": "EAT Leipzig", "iata": "QY", "icao": "BCS"}]}, {"destination": {"icao": "EGGP", "iata": "LPL", "name": "Liverpool John Lennon", "shortName": "John Lennon", "municipalityName": "Liverpool", "location": {"lat": 53.3336, "lon": -2.84972}, "countryCode": "GB"}, "averageDailyFlights": 0.43, "operators": [{"name": "Wizz Air"}]}, {"destination": {"icao": "LMML", "iata": "MLA", "name": "Luqa Malta", "shortName": "Malta", "municipalityName": "Luqa", "location": {"lat": 35.8575, "lon": 14.4775}, "countryCode": "MT"}, "averageDailyFlights": 0.43, "operators": [{"name": "Ryanair", "iata": "FR", "icao": "RYR"}]}, {"destination": {"icao": "LIRP", "iata": "PSA", "name": "Pisa ", "shortName": "Pisa", "municipalityName": "Pisa", "location": {"lat": 43.6839, "lon": 10.3927}, "countryCode": "IT"}, "averageDailyFlights": 0.43, "operators": [{"name": "Ryanair", "iata": "FR", "icao": "RYR"}]}, {"destination": {"icao": "LKPR", "iata": "PRG", "name": "Prague Ruzyn\u011b", "shortName": "Ruzyn\u011b", "municipalityName": "Prague", "location": {"lat": 50.1008, "lon": 14.26}, "countryCode": "CZ"}, "averageDailyFlights": 0.43, "operators": [{"name": "Ryanair", "iata": "FR", "icao": "RYR"}]}, {"destination": {"icao": "BIKF", "iata": "KEF", "name": "Reykjavik Keflavik", "shortName": "Keflavik", "municipalityName": "Reykjavik", "location": {"lat": 63.985, "lon": -22.6056}, "countryCode": "IS"}, "averageDailyFlights": 0.43, "operators": [{"name": "Wizz Air", "iata": "W6", "icao": "WZZ"}]}, {"destination": {"icao": "ESMX", "iata": "VXO", "name": "V\u00e4xj\u00f6 Kronoberg", "shortName": "Kronoberg", "municipalityName": "V\u00e4xj\u00f6", "location": {"lat": 56.9291, "lon": 14.727999}, "countryCode": "SE"}, "averageDailyFlights": 0.43, "operators": [{"name": "Ryanair", "iata": "FR", "icao": "RYR"}]}, {"destination": {"icao": "LSZH", "iata": "ZRH", "name": "Zurich Kloten", "shortName": "Kloten", "municipalityName": "Zurich", "location": {"lat": 47.4647, "lon": 8.549169}, "countryCode": "CH"}, "averageDailyFlights": 0.43, "operators": [{"name": "SWISS", "iata": "LX", "icao": "SWR"}]}, {"destination": {"name": "Marsa Alam Intl"}, "averageDailyFlights": 0.43, "operators": [{"name": "Enter Air", "iata": "E4", "icao": "ENT"}]}, {"destination": {"icao": "HEGN", "iata": "HRG", "name": "Hurghada ", "shortName": "Hurghada", "municipalityName": "Hurghada", "location": {"lat": 27.1783, "lon": 33.7994}, "countryCode": "EG"}, "averageDailyFlights": 0.32, "operators": [{"name": "Air Cairo", "iata": "SM", "icao": "MSC"}, {"name": "Enter Air", "iata": "E4", "icao": "ENT"}]}, {"destination": {"icao": "EPZG", "iata": "IEG", "name": "Babimost Zielona G\u00f3ra-", "shortName": "Zielona G\u00f3ra-", "municipalityName": "Babimost", "location": {"lat": 52.1385, "lon": 15.7986}, "countryCode": "PL"}, "averageDailyFlights": 0.29, "operators": [{"name": "LOT - Polish Airlines", "iata": "LO", "icao": "LOT"}]}, {"destination": {"icao": "EGAA", "iata": "BFS", "name": "Belfast ", "shortName": "Belfast", "municipalityName": "Belfast", "location": {"lat": 54.6575, "lon": -6.215829}, "countryCode": "GB"}, "averageDailyFlights": 0.29, "operators": [{"name": "Ryanair UK", "iata": "RK", "icao": "RUK"}, {"name": "Ryanair", "iata": "FR", "icao": "RYR"}]}, {"destination": {"icao": "LTFE", "iata": "BJV", "name": "Bodrum Milas", "shortName": "Milas", "municipalityName": "Bodrum", "location": {"lat": 37.2506, "lon": 27.6643}, "countryCode": "TR"}, "averageDailyFlights": 0.29, "operators": [{"name": "Pegasus", "iata": "PC", "icao": "PGT"}]}, {"destination": {"icao": "EICK", "iata": "ORK", "name": "Cork ", "shortName": "Cork", "municipalityName": "Cork", "location": {"lat": 51.8413, "lon": -8.491109}, "countryCode": "IE"}, "averageDailyFlights": 0.29, "operators": [{"name": "Ryanair", "iata": "FR", "icao": "RYR"}]}, {"destination": {"icao": "EDDL", "iata": "DUS", "name": "Duesseldorf D\u00fcsseldorf", "shortName": "D\u00fcsseldorf", "municipalityName": "Duesseldorf", "location": {"lat": 51.2895, "lon": 6.766779}, "countryCode": "DE"}, "averageDailyFlights": 0.29, "operators": [{"name": "Eurowings", "iata": "EW", "icao": "EWG"}]}, {"destination": {"icao": "LGKR", "iata": "CFU", "name": "Kerkyra Island Ioannis Kapodistrias", "shortName": "Ioannis Kapodistrias", "municipalityName": "Kerkyra Island", "location": {"lat": 39.6019, "lon": 19.9117}, "countryCode": "GR"}, "averageDailyFlights": 0.29, "operators": [{"name": "RR"}, {"name": "Ryanair", "iata": "FR", "icao": "RYR"}]}, {"destination": {"icao": "LGKO", "iata": "KGS", "name": "Kos Island Kos", "shortName": "Kos", "municipalityName": "Kos Island", "location": {"lat": 36.7933, "lon": 27.0917}, "countryCode": "GR"}, "averageDailyFlights": 0.29, "operators": [{"name": "RR"}]}, {"destination": {"icao": "LCLK", "iata": "LCA", "name": "Larnarca Larnaca", "shortName": "Larnaca", "municipalityName": "Larnarca", "location": {"lat": 34.8751, "lon": 33.6249}, "countryCode": "CY"}, "averageDailyFlights": 0.29, "operators": [{"name": "Wizz Air"}]}, {"destination": {"icao": "EPLB", "iata": "LUZ", "name": "Lublin ", "shortName": "Lublin", "municipalityName": "Lublin", "location": {"lat": 51.240276, "lon": 22.713612}, "countryCode": "PL"}, "averageDailyFlights": 0.29, "operators": [{"name": "Ryanair", "iata": "FR", "icao": "RYR"}]}, {"destination": {"icao": "EGCC", "iata": "MAN", "name": "Manchester ", "shortName": "Manchester", "municipalityName": "Manchester", "location": {"lat": 53.3537, "lon": -2.27495}, "countryCode": "GB"}, "averageDailyFlights": 0.29, "operators": [{"name": "Ryanair", "iata": "FR", "icao": "RYR"}]}, {"destination": {"icao": "LIRN", "iata": "NAP", "name": "N\u00e1poli Naples", "shortName": "Naples", "municipalityName": "N\u00e1poli", "location": {"lat": 40.886, "lon": 14.2908}, "countryCode": "IT"}, "averageDailyFlights": 0.29, "operators": [{"name": "Ryanair", "iata": "FR", "icao": "RYR"}]}, {"destination": {"icao": "LEPA", "iata": "PMI", "name": "Palma De Mallorca ", "shortName": "Palma De Mallorca", "municipalityName": "Palma De Mallorca", "location": {"lat": 39.5517, "lon": 2.73881}, "countryCode": "ES"}, "averageDailyFlights": 0.29, "operators": [{"name": "Enter Air", "iata": "E4", "icao": "ENT"}]}, {"destination": {"icao": "LCPH", "iata": "PFO", "name": "Paphos ", "shortName": "Paphos", "municipalityName": "Paphos", "location": {"lat": 34.718, "lon": 32.4857}, "countryCode": "CY"}, "averageDailyFlights": 0.29, "operators": [{"name": "Ryanair", "iata": "FR", "icao": "RYR"}]}, {"destination": {"icao": "LYPG", "iata": "TGD", "name": "Podgorica ", "shortName": "Podgorica", "municipalityName": "Podgorica", "location": {"lat": 42.3594, "lon": 19.2519}, "countryCode": "ME"}, "averageDailyFlights": 0.29, "operators": [{"name": "Ryanair", "iata": "FR", "icao": "RYR"}]}, {"destination": {"icao": "LGSA", "iata": "CHQ", "name": "Souda Chania", "shortName": "Chania", "municipalityName": "Souda", "location": {"lat": 35.5317, "lon": 24.1497}, "countryCode": "GR"}, "averageDailyFlights": 0.29, "operators": [{"name": "Ryanair", "iata": "FR", "icao": "RYR"}]}, {"destination": {"icao": "LDSP", "iata": "SPU", "name": "Split ", "shortName": "Split", "municipalityName": "Split", "location": {"lat": 43.5389, "lon": 16.298}, "countryCode": "HR"}, "averageDailyFlights": 0.29, "operators": [{"name": "Wizz Air", "iata": "W6", "icao": "WZZ"}]}, {"destination": {"icao": "LATI", "iata": "TIA", "name": "Tirana Mother Teresa", "shortName": "Mother Teresa", "municipalityName": "Tirana", "location": {"lat": 41.4147, "lon": 19.7206}, "countryCode": "AL"}, "averageDailyFlights": 0.29, "operators": [{"name": "Wizz Air Malta", "iata": "W4", "icao": "WMT"}]}, {"destination": {"icao": "LIPH", "iata": "TSF", "name": "Treviso -Sant'Angelo", "shortName": "-Sant'Angelo", "municipalityName": "Treviso", "location": {"lat": 45.6484, "lon": 12.194399}, "countryCode": "IT"}, "averageDailyFlights": 0.29, "operators": [{"name": "Ryanair", "iata": "FR", "icao": "RYR"}]}, {"destination": {"icao": "ENVA", "iata": "TRD", "name": "Trondheim V\u00e6rnes", "shortName": "V\u00e6rnes", "municipalityName": "Trondheim", "location": {"lat": 63.4578, "lon": 10.923999}, "countryCode": "NO"}, "averageDailyFlights": 0.29, "operators": [{"name": "Wizz Air"}]}, {"destination": {"icao": "LDZD", "iata": "ZAD", "name": "Zadar Zemunik", "shortName": "Zemunik", "municipalityName": "Zadar", "location": {"lat": 44.1083, "lon": 15.346699}, "countryCode": "HR"}, "averageDailyFlights": 0.29, "operators": [{"name": "Ryanair", "iata": "FR", "icao": "RYR"}]}, {"destination": {"icao": "LGZA", "iata": "ZTH", "name": "Zakynthos Island Dionysios Solomos", "shortName": "Dionysios Solomos", "municipalityName": "Zakynthos Island", "location": {"lat": 37.7509, "lon": 20.8843}, "countryCode": "GR"}, "averageDailyFlights": 0.29, "operators": [{"name": "Sky Express", "iata": "GQ", "icao": "SEH"}]}, {"destination": {"name": "Rodos"}, "averageDailyFlights": 0.29, "operators": [{"name": "Enter Air", "iata": "E4", "icao": "ENT"}, {"name": "Smartwings Poland", "iata": "3Z", "icao": "TVP"}]}, {"destination": {"icao": "DTNH", "iata": "NBE", "name": "Enfidha - Hammamet", "shortName": "- Hammamet", "municipalityName": "Enfidha", "location": {"lat": 36.075832, "lon": 10.438611}, "countryCode": "TN"}, "averageDailyFlights": 0.14, "operators": [{"name": "Enter Air", "iata": "E4", "icao": "ENT"}]}, {"destination": {"icao": "EDDV", "iata": "HAJ", "name": "Hanover Hannover", "shortName": "Hannover", "municipalityName": "Hanover", "location": {"lat": 52.4611, "lon": 9.685079}, "countryCode": "DE"}, "averageDailyFlights": 0.14, "operators": [{"name": "Corendon Air", "iata": "XC", "icao": "CAI"}]}, {"destination": {"icao": "LTBJ", "iata": "ADB", "name": "\u0130zmir Adnan Menderes", "shortName": "Adnan Menderes", "municipalityName": "\u0130zmir", "location": {"lat": 38.2924, "lon": 27.157}, "countryCode": "TR"}, "averageDailyFlights": 0.14, "operators": [{"name": "Enter Air", "iata": "E4", "icao": "ENT"}]}, {"destination": {"icao": "DTMB", "iata": "MIR", "name": "Monastir Habib Bourguiba", "shortName": "Habib Bourguiba", "municipalityName": "Monastir", "location": {"lat": 35.7581, "lon": 10.754699}, "countryCode": "TN"}, "averageDailyFlights": 0.14, "operators": [{"name": "Nouvelair Tunisie", "iata": "BJ", "icao": "LBT"}]}, {"destination": {"name": "Malmo Sturup"}, "averageDailyFlights": 0.14, "operators": [{"name": "Wizz Air"}]}, {"destination": {"name": "Wroc\u0142aw"}, "averageDailyFlights": 0.14, "operators": [{"name": "Ryanair", "iata": "FR", "icao": "RYR"}]}]}