{"routes": [{"destination": {"icao": "EPWA", "iata": "WAW", "name": "Warsaw Chopin", "shortName": "Chopin", "municipalityName": "Warsaw", "location": {"lat": 52.1657, "lon": 20.9671}, "countryCode": "PL"}, "averageDailyFlights": 3.29, "operators": [{"name": "LOT - Polish Airlines", "iata": "LO", "icao": "LOT"}]}, {"destination": {"icao": "EDDF", "iata": "FRA", "name": "Frankfurt-am-Main ", "shortName": "Frankfurt-am-Main", "municipalityName": "Frankfurt-am-Main", "location": {"lat": 50.0264, "lon": 8.543129}, "countryCode": "DE"}, "averageDailyFlights": 3.0, "operators": [{"name": "Lufthansa", "iata": "LH", "icao": "DLH"}]}, {"destination": {"icao": "LTAI", "iata": "AYT", "name": "Antalya ", "shortName": "Antalya", "municipalityName": "Antalya", "location": {"lat": 36.8987, "lon": 30.8005}, "countryCode": "TR"}, "averageDailyFlights": 2.43, "operators": [{"name": "Buzz (Ryanair Sun)", "iata": "RR", "icao": "RYS"}, {"name": "Corendon Air", "iata": "XC", "icao": "CAI"}, {"name": "MGH"}, {"name": "Enter Air", "iata": "E4", "icao": "ENT"}, {"name": "AMQ"}, {"name": "Pegasus", "iata": "PC", "icao": "PGT"}]}, {"destination": {"icao": "EDDM", "iata": "MUC", "name": "Munich ", "shortName": "Munich", "municipalityName": "Munich", "location": {"lat": 48.3538, "lon": 11.7861}, "countryCode": "DE"}, "averageDailyFlights": 2.14, "operators": [{"name": "Lufthansa", "iata": "LH", "icao": "DLH"}]}, {"destination": {"icao": "EGSS", "iata": "STN", "name": "London Stansted", "shortName": "Stansted", "municipalityName": "London", "location": {"lat": 51.885, "lon": 0.234999}, "countryCode": "GB"}, "averageDailyFlights": 1.57, "operators": [{"name": "Ryanair", "iata": "FR", "icao": "RYR"}]}, {"destination": {"icao": "EHAM", "iata": "AMS", "name": "Amsterdam Schiphol", "shortName": "Schiphol", "municipalityName": "Amsterdam", "location": {"lat": 52.3086, "lon": 4.763889}, "countryCode": "NL"}, "averageDailyFlights": 1.14, "operators": [{"name": "KLM", "iata": "KL", "icao": "KLM"}]}, {"destination": {"icao": "EGGW", "iata": "LTN", "name": "London Luton", "shortName": "Luton", "municipalityName": "London", "location": {"lat": 51.8747, "lon": -0.368333}, "countryCode": "GB"}, "averageDailyFlights": 1.0, "operators": [{"name": "Wizz Air UK", "iata": "W9", "icao": "WUK"}]}, {"destination": {"icao": "LIME", "iata": "BGY", "name": "Bergamo Orio al Serio", "shortName": "Orio al Serio", "municipalityName": "Bergamo", "location": {"lat": 45.6739, "lon": 9.70417}, "countryCode": "IT"}, "averageDailyFlights": 0.71, "operators": [{"name": "Ryanair", "iata": "FR", "icao": "RYR"}]}, {"destination": {"icao": "LHBP", "iata": "BUD", "name": "Budapest Ferenc Liszt", "shortName": "Ferenc Liszt", "municipalityName": "Budapest", "location": {"lat": 47.4369, "lon": 19.255598}, "countryCode": "HU"}, "averageDailyFlights": 0.71, "operators": [{"name": "Ryanair", "iata": "FR", "icao": "RYR"}]}, {"destination": {"icao": "EKCH", "iata": "CPH", "name": "Copenhagen Kastrup", "shortName": "Kastrup", "municipalityName": "Copenhagen", "location": {"lat": 55.6179, "lon": 12.656}, "countryCode": "DK"}, "averageDailyFlights": 0.71, "operators": [{"name": "SAS", "iata": "SK", "icao": "SAS"}]}, {"destination": {"icao": "EIDW", "iata": "DUB", "name": "Dublin ", "shortName": "Dublin", "municipalityName": "Dublin", "location": {"lat": 53.4213, "lon": -6.27007}, "countryCode": "IE"}, "averageDailyFlights": 0.71, "operators": [{"name": "Ryanair", "iata": "FR", "icao": "RYR"}]}, {"destination": {"icao": "LEPA", "iata": "PMI", "name": "Palma De Mallorca ", "shortName": "Palma De Mallorca", "municipalityName": "Palma De Mallorca", "location": {"lat": 39.5517, "lon": 2.73881}, "countryCode": "ES"}, "averageDailyFlights": 0.71, "operators": [{"name": "Ryanair", "iata": "FR", "icao": "RYR"}, {"name": "Buzz (Ryanair Sun)", "iata": "RR", "icao": "RYS"}]}, {"destination": {"icao": "LDZD", "iata": "ZAD", "name": "Zadar Zemunik", "shortName": "Zemunik", "municipalityName": "Zadar", "location": {"lat": 44.1083, "lon": 15.346699}, "countryCode": "HR"}, "averageDailyFlights": 0.71, "operators": [{"name": "Ryanair", "iata": "FR", "icao": "RYR"}]}, {"destination": {"icao": "LEAL", "iata": "ALC", "name": "Alicante ", "shortName": "Alicante", "municipalityName": "Alicante", "location": {"lat": 38.2822, "lon": -0.558156}, "countryCode": "ES"}, "averageDailyFlights": 0.57, "operators": [{"name": "Ryanair", "iata": "FR", "icao": "RYR"}]}, {"destination": {"icao": "EKBI", "iata": "BLL", "name": "Billund ", "shortName": "Billund", "municipalityName": "Billund", "location": {"lat": 55.7403, "lon": 9.15178}, "countryCode": "DK"}, "averageDailyFlights": 0.57, "operators": [{"name": "Ryanair", "iata": "FR", "icao": "RYR"}]}, {"destination": {"icao": "LTFE", "iata": "BJV", "name": "Bodrum Milas", "shortName": "Milas", "municipalityName": "Bodrum", "location": {"lat": 37.2506, "lon": 27.6643}, "countryCode": "TR"}, "averageDailyFlights": 0.57, "operators": [{"name": "Enter Air", "iata": "E4", "icao": "ENT"}, {"name": "Smartwings Poland", "iata": "3Z", "icao": "TVP"}, {"name": "Buzz (Ryanair Sun)", "iata": "RR", "icao": "RYS"}, {"name": "LOT - Polish Airlines", "iata": "LO", "icao": "LOT"}]}, {"destination": {"icao": "EBCI", "iata": "CRL", "name": "Brussels South Charleroi", "shortName": "South Charleroi", "municipalityName": "Brussels", "location": {"lat": 50.4592, "lon": 4.45382}, "countryCode": "BE"}, "averageDailyFlights": 0.57, "operators": [{"name": "Ryanair", "iata": "FR", "icao": "RYR"}]}, {"destination": {"icao": "LGKO", "iata": "KGS", "name": "Kos Island Kos", "shortName": "Kos", "municipalityName": "Kos Island", "location": {"lat": 36.7933, "lon": 27.0917}, "countryCode": "GR"}, "averageDailyFlights": 0.57, "operators": [{"name": "Buzz (Ryanair Sun)", "iata": "RR", "icao": "RYS"}, {"name": "Sky Express", "iata": "GQ", "icao": "SEH"}]}, {"destination": {"icao": "EPKK", "iata": "KRK", "name": "Krak\u00f3w John Paul II   -Balice", "shortName": "John Paul II   -Balice", "municipalityName": "Krak\u00f3w", "location": {"lat": 50.0777, "lon": 19.7848}, "countryCode": "PL"}, "averageDailyFlights": 0.57, "operators": [{"name": "Ryanair", "iata": "FR", "icao": "RYR"}]}, {"destination": {"icao": "LCPH", "iata": "PFO", "name": "Paphos ", "shortName": "Paphos", "municipalityName": "Paphos", "location": {"lat": 34.718, "lon": 32.4857}, "countryCode": "CY"}, "averageDailyFlights": 0.57, "operators": [{"name": "Ryanair", "iata": "FR", "icao": "RYR"}, {"name": "Buzz (Ryanair Sun)", "iata": "RR", "icao": "RYS"}]}, {"destination": {"icao": "LIRA", "iata": "CIA", "name": "Roma Ciampino\u2013G. B. Pastine", "shortName": "Ciampino\u2013G. B. Pastine", "municipalityName": "Roma", "location": {"lat": 41.7994, "lon": 12.5949}, "countryCode": "IT"}, "averageDailyFlights": 0.57, "operators": [{"name": "Ryanair", "iata": "FR", "icao": "RYR"}]}, {"destination": {"icao": "ENTO", "iata": "TRF", "name": "Torp ", "shortName": "Torp", "municipalityName": "Torp", "location": {"lat": 59.1867, "lon": 10.2586}, "countryCode": "NO"}, "averageDailyFlights": 0.57, "operators": [{"name": "Ryanair", "iata": "FR", "icao": "RYR"}]}, {"destination": {"icao": "LIPH", "iata": "TSF", "name": "Treviso -Sant'Angelo", "shortName": "-Sant'Angelo", "municipalityName": "Treviso", "location": {"lat": 45.6484, "lon": 12.194399}, "countryCode": "IT"}, "averageDailyFlights": 0.57, "operators": [{"name": "Ryanair", "iata": "FR", "icao": "RYR"}]}, {"destination": {"icao": "EGBB", "iata": "BHX", "name": "Birmingham ", "shortName": "Birmingham", "municipalityName": "Birmingham", "location": {"lat": 52.4539, "lon": -1.748029}, "countryCode": "GB"}, "averageDailyFlights": 0.43, "operators": [{"name": "Ryanair", "iata": "FR", "icao": "RYR"}]}, {"destination": {"icao": "EGGD", "iata": "BRS", "name": "Bristol ", "shortName": "Bristol", "municipalityName": "Bristol", "location": {"lat": 51.3827, "lon": -2.719089}, "countryCode": "GB"}, "averageDailyFlights": 0.43, "operators": [{"name": "Ryanair", "iata": "FR", "icao": "RYR"}]}, {"destination": {"icao": "LIEE", "iata": "CAG", "name": "Cagliari Elmas", "shortName": "Elmas", "municipalityName": "Cagliari", "location": {"lat": 39.2515, "lon": 9.05428}, "countryCode": "IT"}, "averageDailyFlights": 0.43, "operators": [{"name": "Ryanair", "iata": "FR", "icao": "RYR"}]}, {"destination": {"icao": "EDDK", "iata": "CGN", "name": "Cologne Bonn", "shortName": "Bonn", "municipalityName": "Cologne", "location": {"lat": 50.8659, "lon": 7.142739}, "countryCode": "DE"}, "averageDailyFlights": 0.43, "operators": [{"name": "Sprint Air", "iata": "P8", "icao": "SRN"}]}, {"destination": {"icao": "LEGE", "iata": "GRO", "name": "Girona ", "shortName": "Girona", "municipalityName": "Girona", "location": {"lat": 41.901, "lon": 2.76055}, "countryCode": "ES"}, "averageDailyFlights": 0.43, "operators": [{"name": "Ryanair", "iata": "FR", "icao": "RYR"}]}, {"destination": {"icao": "UGKO", "iata": "KUT", "name": "Kutaisi Kopitnari", "shortName": "Kopitnari", "municipalityName": "Kutaisi", "location": {"lat": 42.1767, "lon": 42.4826}, "countryCode": "GE"}, "averageDailyFlights": 0.43, "operators": [{"name": "Wizz Air"}]}, {"destination": {"icao": "EGGP", "iata": "LPL", "name": "Liverpool John Lennon", "shortName": "John Lennon", "municipalityName": "Liverpool", "location": {"lat": 53.3336, "lon": -2.84972}, "countryCode": "GB"}, "averageDailyFlights": 0.43, "operators": [{"name": "Ryanair", "iata": "FR", "icao": "RYR"}]}, {"destination": {"icao": "LGRP", "iata": "RHO", "name": "Rodes Island Diagoras", "shortName": "Diagoras", "municipalityName": "Rodes Island", "location": {"lat": 36.4054, "lon": 28.0862}, "countryCode": "GR"}, "averageDailyFlights": 0.43, "operators": [{"name": "Buzz (Ryanair Sun)", "iata": "RR", "icao": "RYS"}, {"name": "Sky Express", "iata": "GQ", "icao": "SEH"}]}, {"destination": {"icao": "LGSA", "iata": "CHQ", "name": "Souda Chania", "shortName": "Chania", "municipalityName": "Souda", "location": {"lat": 35.5317, "lon": 24.1497}, "countryCode": "GR"}, "averageDailyFlights": 0.43, "operators": [{"name": "Buzz (Ryanair Sun)", "iata": "RR", "icao": "RYS"}, {"name": "Ryanair", "iata": "FR", "icao": "RYR"}]}, {"destination": {"icao": "LATI", "iata": "TIA", "name": "Tirana Mother Teresa", "shortName": "Mother Teresa", "municipalityName": "Tirana", "location": {"lat": 41.4147, "lon": 19.7206}, "countryCode": "AL"}, "averageDailyFlights": 0.43, "operators": [{"name": "Wizz Air Malta", "iata": "W4", "icao": "WMT"}]}, {"destination": {"icao": "LIBD", "iata": "BRI", "name": "Bari Karol Wojty\u0142a", "shortName": "Karol Wojty\u0142a", "municipalityName": "Bari", "location": {"lat": 41.1389, "lon": 16.7606}, "countryCode": "IT"}, "averageDailyFlights": 0.29, "operators": [{"name": "Ryanair", "iata": "FR", "icao": "RYR"}]}, {"destination": {"icao": "LFOB", "iata": "BVA", "name": "Beauvais/Till\u00e9 Paris Beauvais Till\u00e9", "shortName": "Paris Beauvais Till\u00e9", "municipalityName": "Beauvais/Till\u00e9", "location": {"lat": 49.4544, "lon": 2.11278}, "countryCode": "FR"}, "averageDailyFlights": 0.29, "operators": [{"name": "Ryanair", "iata": "FR", "icao": "RYR"}]}, {"destination": {"icao": "LBBG", "iata": "BOJ", "name": "Burgas ", "shortName": "Burgas", "municipalityName": "Burgas", "location": {"lat": 42.5696, "lon": 27.5152}, "countryCode": "BG"}, "averageDailyFlights": 0.29, "operators": [{"name": "Ryanair", "iata": "FR", "icao": "RYR"}]}, {"destination": {"icao": "EICK", "iata": "ORK", "name": "Cork ", "shortName": "Cork", "municipalityName": "Cork", "location": {"lat": 51.8413, "lon": -8.491109}, "countryCode": "IE"}, "averageDailyFlights": 0.29, "operators": [{"name": "Ryanair", "iata": "FR", "icao": "RYR"}]}, {"destination": {"icao": "EGPH", "iata": "EDI", "name": "Edinburgh ", "shortName": "Edinburgh", "municipalityName": "Edinburgh", "location": {"lat": 55.95, "lon": -3.372499}, "countryCode": "GB"}, "averageDailyFlights": 0.29, "operators": [{"name": "Ryanair", "iata": "FR", "icao": "RYR"}]}, {"destination": {"icao": "DTTJ", "iata": "DJE", "name": "Houmt El Souk Djerba Zarzis", "shortName": "Djerba Zarzis", "municipalityName": "Houmt El Souk", "location": {"lat": 33.875, "lon": 10.7755}, "countryCode": "TN"}, "averageDailyFlights": 0.29, "operators": [{"name": "Enter Air", "iata": "E4", "icao": "ENT"}, {"name": "Nouvelair Tunisie", "iata": "BJ", "icao": "LBT"}]}, {"destination": {"icao": "LCLK", "iata": "LCA", "name": "Larnarca Larnaca", "shortName": "Larnaca", "municipalityName": "Larnarca", "location": {"lat": 34.8751, "lon": 33.6249}, "countryCode": "CY"}, "averageDailyFlights": 0.29, "operators": [{"name": "Buzz (Ryanair Sun)", "iata": "RR", "icao": "RYS"}]}, {"destination": {"icao": "EGNM", "iata": "LBA", "name": "Leeds Bradford", "shortName": "Bradford", "municipalityName": "Leeds", "location": {"lat": 53.8659, "lon": -1.66057}, "countryCode": "GB"}, "averageDailyFlights": 0.29, "operators": [{"name": "Ryanair", "iata": "FR", "icao": "RYR"}]}, {"destination": {"icao": "LMML", "iata": "MLA", "name": "Luqa Malta", "shortName": "Malta", "municipalityName": "Luqa", "location": {"lat": 35.8575, "lon": 14.4775}, "countryCode": "MT"}, "averageDailyFlights": 0.29, "operators": [{"name": "Ryanair", "iata": "FR", "icao": "RYR"}]}, {"destination": {"icao": "EGCC", "iata": "MAN", "name": "Manchester ", "shortName": "Manchester", "municipalityName": "Manchester", "location": {"lat": 53.3537, "lon": -2.27495}, "countryCode": "GB"}, "averageDailyFlights": 0.29, "operators": [{"name": "Ryanair", "iata": "FR", "icao": "RYR"}]}, {"destination": {"icao": "LDSP", "iata": "SPU", "name": "Split ", "shortName": "Split", "municipalityName": "Split", "location": {"lat": 43.5389, "lon": 16.298}, "countryCode": "HR"}, "averageDailyFlights": 0.29, "operators": [{"name": "Wizz Air", "iata": "W6", "icao": "WZZ"}]}, {"destination": {"icao": "ESSA", "iata": "ARN", "name": "Stockholm -Arlanda", "shortName": "-Arlanda", "municipalityName": "Stockholm", "location": {"lat": 59.6519, "lon": 17.9186}, "countryCode": "SE"}, "averageDailyFlights": 0.29, "operators": [{"name": "Ryanair", "iata": "FR", "icao": "RYR"}]}, {"destination": {"icao": "OJAI", "iata": "AMM", "name": "Amman Queen Alia", "shortName": "Queen Alia", "municipalityName": "Amman", "location": {"lat": 31.7226, "lon": 35.9932}, "countryCode": "JO"}, "averageDailyFlights": 0.14, "operators": [{"name": "Ryanair", "iata": "FR", "icao": "RYR"}]}, {"destination": {"icao": "EDDB", "iata": "BER", "name": "Berlin Brandenburg", "shortName": "Brandenburg", "municipalityName": "Berlin", "location": {"lat": 52.35139, "lon": 13.493889}, "countryCode": "DE"}, "averageDailyFlights": 0.14, "operators": [{"name": "OKNGX"}]}, {"destination": {"icao": "DTNH", "iata": "NBE", "name": "Enfidha - Hammamet", "shortName": "- Hammamet", "municipalityName": "Enfidha", "location": {"lat": 36.075832, "lon": 10.438611}, "countryCode": "TN"}, "averageDailyFlights": 0.14, "operators": [{"name": "Enter Air", "iata": "E4", "icao": "ENT"}]}, {"destination": {"icao": "LGIR", "iata": "HER", "name": "Heraklion Nikos Kazantzakis", "shortName": "Nikos Kazantzakis", "municipalityName": "Heraklion", "location": {"lat": 35.3397, "lon": 25.1803}, "countryCode": "GR"}, "averageDailyFlights": 0.14, "operators": [{"name": "Buzz (Ryanair Sun)", "iata": "RR", "icao": "RYS"}]}, {"destination": {"icao": "LTBJ", "iata": "ADB", "name": "\u0130zmir Adnan Menderes", "shortName": "Adnan Menderes", "municipalityName": "\u0130zmir", "location": {"lat": 38.2924, "lon": 27.157}, "countryCode": "TR"}, "averageDailyFlights": 0.14, "operators": [{"name": "Enter Air", "iata": "E4", "icao": "ENT"}]}, {"destination": {"icao": "LGKV", "iata": "KVA", "name": "Kavala Alexander the Great", "shortName": "Alexander the Great", "municipalityName": "Kavala", "location": {"lat": 40.9133, "lon": 24.6192}, "countryCode": "GR"}, "averageDailyFlights": 0.14, "operators": [{"name": "Buzz (Ryanair Sun)", "iata": "RR", "icao": "RYS"}]}, {"destination": {"icao": "LGKR", "iata": "CFU", "name": "Kerkyra Island Ioannis Kapodistrias", "shortName": "Ioannis Kapodistrias", "municipalityName": "Kerkyra Island", "location": {"lat": 39.6019, "lon": 19.9117}, "countryCode": "GR"}, "averageDailyFlights": 0.14, "operators": [{"name": "Ryanair", "iata": "FR", "icao": "RYR"}]}, {"destination": {"icao": "LEMH", "iata": "MAH", "name": "Menorca Island Menorca", "shortName": "Menorca", "municipalityName": "Menorca Island", "location": {"lat": 39.8626, "lon": 4.218649}, "countryCode": "ES"}, "averageDailyFlights": 0.14, "operators": [{"name": "Buzz (Ryanair Sun)", "iata": "RR", "icao": "RYS"}]}, {"destination": {"icao": "DTMB", "iata": "MIR", "name": "Monastir Habib Bourguiba", "shortName": "Habib Bourguiba", "municipalityName": "Monastir", "location": {"lat": 35.7581, "lon": 10.754699}, "countryCode": "TN"}, "averageDailyFlights": 0.14, "operators": [{"name": "Nouvelair Tunisie", "iata": "BJ", "icao": "LBT"}]}, {"destination": {"icao": "LDPL", "iata": "PUY", "name": "Pula ", "shortName": "Pula", "municipalityName": "Pula", "location": {"lat": 44.8935, "lon": 13.9222}, "countryCode": "HR"}, "averageDailyFlights": 0.14, "operators": [{"name": "Ryanair", "iata": "FR", "icao": "RYR"}]}, {"destination": {"icao": "EPWR", "iata": "WRO", "name": "Wroc\u0142aw Copernicus", "shortName": "Copernicus", "municipalityName": "Wroc\u0142aw", "location": {"lat": 51.1027, "lon": 16.8858}, "countryCode": "PL"}, "averageDailyFlights": 0.14, "operators": [{"name": "FlyEgypt", "iata": "FT", "icao": "FEG"}]}]}