{"routes": [{"destination": {"icao": "FAOR", "iata": "JNB", "name": "Jo'anna OR Tambo", "shortName": "OR Tambo", "municipalityName": "Jo'anna", "location": {"lat": -26.1392, "lon": 28.246}, "countryCode": "ZA"}, "averageDailyFlights": 3.86, "operators": [{"name": "South African Airlink", "iata": "4Z", "icao": "LNK"}, {"name": "CemAir", "iata": "5Z", "icao": "KEM"}, {"name": "Air Botswana", "iata": "BP", "icao": "BOT"}]}, {"destination": {"icao": "FACT", "iata": "CPT", "name": "Cape Town ", "shortName": "Cape Town", "municipalityName": "Cape Town", "location": {"lat": -33.9648, "lon": 18.6017}, "countryCode": "ZA"}, "averageDailyFlights": 1.14, "operators": [{"name": "South African Airlink", "iata": "4Z", "icao": "LNK"}]}, {"destination": {"icao": "FBSK", "iata": "GBE", "name": "Gaborone Sir Seretse Khama", "shortName": "Sir Seretse Khama", "municipalityName": "Gaborone", "location": {"lat": -24.5552, "lon": 25.9182}, "countryCode": "BW"}, "averageDailyFlights": 1.0, "operators": [{"name": "Air Botswana", "iata": "BP", "icao": "BOT"}]}, {"destination": {"icao": "FBKE", "iata": "BBK", "name": "Kasane ", "shortName": "Kasane", "municipalityName": "Kasane", "location": {"lat": -17.8329, "lon": 25.1624}, "countryCode": "BW"}, "averageDailyFlights": 0.57, "operators": [{"name": "Air Botswana", "iata": "BP", "icao": "BOT"}]}, {"destination": {"icao": "FVFA", "iata": "VFA", "name": "Victoria Falls ", "shortName": "Victoria Falls", "municipalityName": "Victoria Falls", "location": {"lat": -18.0959, "lon": 25.839}, "countryCode": "ZW"}, "averageDailyFlights": 0.57, "operators": [{"name": "Fastjet Zimbabwe", "iata": "FN", "icao": "FJW"}]}]}