{"routes": [{"destination": {"icao": "GOBD", "iata": "DSS", "name": "Dakar Blaise Diagne", "shortName": "Blaise Diagne", "municipalityName": "Dakar", "location": {"lat": 14.671111, "lon": -17.066944}, "countryCode": "SN"}, "averageDailyFlights": 3.29, "operators": [{"name": "Brussels Airlines", "iata": "SN", "icao": "BEL"}, {"name": "Air Senegal", "iata": "HC", "icao": "SZN"}, {"name": "Emirates", "iata": "EK", "icao": "UAE"}, {"name": "Tunisair", "iata": "TU", "icao": "TAR"}, {"name": "Groupe Transair", "iata": "R2", "icao": "GTS"}, {"name": "Mauritania Airlines International", "iata": "L6", "icao": "MAI"}]}, {"destination": {"icao": "LFPG", "iata": "CDG", "name": "Paris Charles de Gaulle", "shortName": "Charles de Gaulle", "municipalityName": "Paris", "location": {"lat": 49.0128, "lon": 2.549999}, "countryCode": "FR"}, "averageDailyFlights": 1.57, "operators": [{"name": "Air France", "iata": "AF", "icao": "AFR"}]}, {"destination": {"icao": "DIAP", "iata": "ABJ", "name": "Abidjan Port Bouet", "shortName": "Port Bouet", "municipalityName": "Abidjan", "location": {"lat": 5.26139, "lon": -3.92629}, "countryCode": "CI"}, "averageDailyFlights": 1.14, "operators": [{"name": "Air Cote D'Ivoire", "iata": "HF", "icao": "VRE"}, {"name": "Ethiopian Airlines", "iata": "ET", "icao": "ETH"}]}, {"destination": {"icao": "GMMN", "iata": "CMN", "name": "Casablanca Mohammed V", "shortName": "Mohammed V", "municipalityName": "Casablanca", "location": {"lat": 33.3675, "lon": -7.58997}, "countryCode": "MA"}, "averageDailyFlights": 1.14, "operators": [{"name": "Royal Air Maroc", "iata": "AT", "icao": "RAM"}]}, {"destination": {"icao": "GABS", "iata": "BKO", "name": "Senou ", "shortName": "Senou", "municipalityName": "Senou", "location": {"lat": 12.533499, "lon": -7.94994}, "countryCode": "ML"}, "averageDailyFlights": 1.14, "operators": [{"name": "ASKY", "iata": "KP", "icao": "SKK"}]}, {"destination": {"icao": "DFFD", "iata": "OUA", "name": "Ouagadougou ", "shortName": "Ouagadougou", "municipalityName": "Ouagadougou", "location": {"lat": 12.353199, "lon": -1.51242}, "countryCode": "BF"}, "averageDailyFlights": 0.57, "operators": [{"name": "Ethiopian Airlines", "iata": "ET", "icao": "ETH"}, {"name": "Turkish Airlines", "iata": "TK", "icao": "THY"}]}, {"destination": {"icao": "GLRB", "iata": "ROB", "name": "Monrovia Roberts", "shortName": "Roberts", "municipalityName": "Monrovia", "location": {"lat": 6.233789, "lon": -10.362299}, "countryCode": "LR"}, "averageDailyFlights": 0.43, "operators": [{"name": "Air Cote D'Ivoire", "iata": "HF", "icao": "VRE"}]}, {"destination": {"icao": "DTTA", "iata": "TUN", "name": "Tunis Carthage", "shortName": "Carthage", "municipalityName": "Tunis", "location": {"lat": 36.851, "lon": 10.227199}, "countryCode": "TN"}, "averageDailyFlights": 0.43, "operators": [{"name": "Tunisair", "iata": "TU", "icao": "TAR"}]}, {"destination": {"icao": "GQNN", "iata": "NKC", "name": "Nouakchott ", "shortName": "Nouakchott", "municipalityName": "Nouakchott", "location": {"lat": 18.0982, "lon": -15.948499}, "countryCode": "MR"}, "averageDailyFlights": 0.29, "operators": [{"name": "Air France", "iata": "AF", "icao": "AFR"}]}, {"destination": {"icao": "GGOV", "iata": "OXB", "name": "Bissau Osvaldo Vieira", "shortName": "Osvaldo Vieira", "municipalityName": "Bissau", "location": {"lat": 11.8948, "lon": -15.653699}, "countryCode": "GW"}, "averageDailyFlights": 0.14, "operators": [{"name": "Air Cote D'Ivoire", "iata": "HF", "icao": "VRE"}]}]}