{"routes": [{"destination": {"icao": "HECA", "iata": "CAI", "name": "Cairo ", "shortName": "Cairo", "municipalityName": "Cairo", "location": {"lat": 30.1219, "lon": 31.4056}, "countryCode": "EG"}, "averageDailyFlights": 7.0, "operators": [{"name": "EgyptAir", "iata": "MS", "icao": "MSR"}, {"name": "Nesma Airlines", "iata": "NA", "icao": "NSS"}, {"name": "Air Cairo", "iata": "SM", "icao": "MSC"}]}, {"destination": {"name": "Moscow"}, "averageDailyFlights": 3.43, "operators": [{"name": "AZUR Air", "iata": "ZF", "icao": "KTK"}, {"name": "Aeroflot", "iata": "SU", "icao": "AFL"}, {"name": "AlMasria", "iata": "UJ", "icao": "LMU"}, {"name": "Pegas Fly", "iata": "EO", "icao": "KAR"}]}, {"destination": {"icao": "EDDL", "iata": "DUS", "name": "Duesseldorf D\u00fcsseldorf", "shortName": "D\u00fcsseldorf", "municipalityName": "Duesseldorf", "location": {"lat": 51.2895, "lon": 6.766779}, "countryCode": "DE"}, "averageDailyFlights": 3.14, "operators": [{"name": "Corendon Airlines Europe", "iata": "XR", "icao": "CXI"}, {"name": "Air Cairo", "iata": "SM", "icao": "MSC"}, {"name": "Eurowings", "iata": "EW", "icao": "EWG"}, {"name": "Condor", "iata": "DE", "icao": "CFG"}, {"name": "TUIfly", "iata": "X3", "icao": "TUI"}]}, {"destination": {"icao": "LSZH", "iata": "ZRH", "name": "Zurich Kloten", "shortName": "Kloten", "municipalityName": "Zurich", "location": {"lat": 47.4647, "lon": 8.549169}, "countryCode": "CH"}, "averageDailyFlights": 3.03, "operators": [{"name": "Edelweiss Air", "iata": "WK", "icao": "EDW"}, {"name": "Tri-MG Intra Asia Airlines", "iata": "GM", "icao": "TMG"}, {"name": "Air Cairo", "iata": "SM", "icao": "MSC"}, {"name": "FlexFlight", "iata": "W2", "icao": "FXT"}]}, {"destination": {"icao": "EDDM", "iata": "MUC", "name": "Munich ", "shortName": "Munich", "municipalityName": "Munich", "location": {"lat": 48.3538, "lon": 11.7861}, "countryCode": "DE"}, "averageDailyFlights": 2.89, "operators": [{"name": "Corendon Airlines Europe", "iata": "XR", "icao": "CXI"}, {"name": "Air Cairo", "iata": "SM", "icao": "MSC"}, {"name": "TUIfly", "iata": "X3", "icao": "TUI"}, {"name": "Condor", "iata": "DE", "icao": "CFG"}, {"name": "Norwegian Air UK", "iata": "DI", "icao": "NRS"}]}, {"destination": {"icao": "EDDF", "iata": "FRA", "name": "Frankfurt-am-Main ", "shortName": "Frankfurt-am-Main", "municipalityName": "Frankfurt-am-Main", "location": {"lat": 50.0264, "lon": 8.543129}, "countryCode": "DE"}, "averageDailyFlights": 2.29, "operators": [{"name": "Condor", "iata": "DE", "icao": "CFG"}, {"name": "Air Cairo", "iata": "SM", "icao": "MSC"}, {"name": "TUIfly", "iata": "X3", "icao": "TUI"}, {"name": "Aura Airlines"}]}, {"destination": {"icao": "EDDH", "iata": "HAM", "name": "Hamburg ", "shortName": "Hamburg", "municipalityName": "Hamburg", "location": {"lat": 53.6304, "lon": 9.988229}, "countryCode": "DE"}, "averageDailyFlights": 1.99, "operators": [{"name": "Air Cairo", "iata": "SM", "icao": "MSC"}, {"name": "Norwegian Air UK", "iata": "DI", "icao": "NRS"}, {"name": "Condor", "iata": "DE", "icao": "CFG"}]}, {"destination": {"icao": "EDDB", "iata": "BER", "name": "Berlin Brandenburg", "shortName": "Brandenburg", "municipalityName": "Berlin", "location": {"lat": 52.35139, "lon": 13.493889}, "countryCode": "DE"}, "averageDailyFlights": 1.86, "operators": [{"name": "Air Cairo", "iata": "SM", "icao": "MSC"}, {"name": "easyJet", "iata": "U2", "icao": "EZY"}, {"name": "SundAir", "iata": "SR", "icao": "SDR"}, {"name": "Corendon Airlines Europe", "iata": "XR", "icao": "CXI"}]}, {"destination": {"icao": "EDDP", "iata": "LEJ", "name": "Leipzig Halle", "shortName": "Halle", "municipalityName": "Leipzig", "location": {"lat": 51.4324, "lon": 12.2416}, "countryCode": "DE"}, "averageDailyFlights": 1.86, "operators": [{"name": "Air Cairo", "iata": "SM", "icao": "MSC"}, {"name": "Corendon Airlines Europe", "iata": "XR", "icao": "CXI"}, {"name": "Condor", "iata": "DE", "icao": "CFG"}]}, {"destination": {"icao": "EDDS", "iata": "STR", "name": "Stuttgart ", "shortName": "Stuttgart", "municipalityName": "Stuttgart", "location": {"lat": 48.6899, "lon": 9.22196}, "countryCode": "DE"}, "averageDailyFlights": 1.71, "operators": [{"name": "Air Cairo", "iata": "SM", "icao": "MSC"}, {"name": "Eurowings", "iata": "EW", "icao": "EWG"}, {"name": "Condor", "iata": "DE", "icao": "CFG"}, {"name": "TUIfly", "iata": "X3", "icao": "TUI"}]}, {"destination": {"icao": "EBBR", "iata": "BRU", "name": "Brussels ", "shortName": "Brussels", "municipalityName": "Brussels", "location": {"lat": 50.9014, "lon": 4.484439}, "countryCode": "BE"}, "averageDailyFlights": 1.57, "operators": [{"name": "Corendon Airlines Europe", "iata": "XR", "icao": "CXI"}, {"name": "Brussels Airlines", "iata": "SN", "icao": "BEL"}, {"name": "TUI Airlines Belgium", "iata": "TB", "icao": "JAF"}]}, {"destination": {"icao": "LTFM", "iata": "IST", "name": "Istanbul ", "shortName": "Istanbul", "municipalityName": "Istanbul", "location": {"lat": 41.275276, "lon": 28.751944}, "countryCode": "TR"}, "averageDailyFlights": 1.57, "operators": [{"name": "Turkish Airlines", "iata": "TK", "icao": "THY"}]}, {"destination": {"icao": "LTFJ", "iata": "SAW", "name": "Istanbul Sabiha G\u00f6k\u00e7en", "shortName": "Sabiha G\u00f6k\u00e7en", "municipalityName": "Istanbul", "location": {"lat": 40.8986, "lon": 29.3092}, "countryCode": "TR"}, "averageDailyFlights": 1.57, "operators": [{"name": "Pegasus", "iata": "PC", "icao": "PGT"}]}, {"destination": {"icao": "EDDK", "iata": "CGN", "name": "Cologne Bonn", "shortName": "Bonn", "municipalityName": "Cologne", "location": {"lat": 50.8659, "lon": 7.142739}, "countryCode": "DE"}, "averageDailyFlights": 1.43, "operators": [{"name": "Corendon Airlines Europe", "iata": "XR", "icao": "CXI"}, {"name": "Air Cairo", "iata": "SM", "icao": "MSC"}, {"name": "Eurowings", "iata": "EW", "icao": "EWG"}]}, {"destination": {"icao": "EDDV", "iata": "HAJ", "name": "Hanover Hannover", "shortName": "Hannover", "municipalityName": "Hanover", "location": {"lat": 52.4611, "lon": 9.685079}, "countryCode": "DE"}, "averageDailyFlights": 1.43, "operators": [{"name": "Corendon Airlines Europe", "iata": "XR", "icao": "CXI"}, {"name": "Air Cairo", "iata": "SM", "icao": "MSC"}, {"name": "TUIfly", "iata": "X3", "icao": "TUI"}]}, {"destination": {"icao": "LOWW", "iata": "VIE", "name": "Vienna Schwechat", "shortName": "Schwechat", "municipalityName": "Vienna", "location": {"lat": 48.1103, "lon": 16.5697}, "countryCode": "AT"}, "averageDailyFlights": 1.43, "operators": [{"name": "Corendon Airlines Europe", "iata": "XR", "icao": "CXI"}, {"name": "Air Cairo", "iata": "SM", "icao": "MSC"}, {"name": "Wizz Air", "iata": "W6", "icao": "WZZ"}]}, {"destination": {"icao": "EGKK", "iata": "LGW", "name": "London Gatwick", "shortName": "Gatwick", "municipalityName": "London", "location": {"lat": 51.1481, "lon": -0.190277}, "countryCode": "GB"}, "averageDailyFlights": 1.29, "operators": [{"name": "easyJet", "iata": "U2", "icao": "EZY"}, {"name": "Wizz Air UK", "iata": "W9", "icao": "WUK"}]}, {"destination": {"icao": "EHAM", "iata": "AMS", "name": "Amsterdam Schiphol", "shortName": "Schiphol", "municipalityName": "Amsterdam", "location": {"lat": 52.3086, "lon": 4.763889}, "countryCode": "NL"}, "averageDailyFlights": 1.28, "operators": [{"name": "TUI Airlines Nederland (Netherlands)", "iata": "OR", "icao": "TFL"}, {"name": "Corendon Dutch Airlines", "iata": "CD", "icao": "CND"}]}, {"destination": {"icao": "LFSB", "iata": "BSL", "name": "B\u00e2le/Mulhouse Euro Basel-Mulhouse-Freiburg", "shortName": "Euro Basel-Mulhouse-Freiburg", "municipalityName": "B\u00e2le/Mulhouse", "location": {"lat": 47.5896, "lon": 7.52991}, "countryCode": "FR"}, "averageDailyFlights": 1.0, "operators": [{"name": "Air Cairo", "iata": "SM", "icao": "MSC"}, {"name": "Corendon Airlines Europe", "iata": "XR", "icao": "CXI"}, {"name": "easyJet", "iata": "U2", "icao": "EZY"}]}, {"destination": {"icao": "EDDN", "iata": "NUE", "name": "Nuremberg ", "shortName": "Nuremberg", "municipalityName": "Nuremberg", "location": {"lat": 49.4987, "lon": 11.0669}, "countryCode": "DE"}, "averageDailyFlights": 1.0, "operators": [{"name": "Air Cairo", "iata": "SM", "icao": "MSC"}, {"name": "Corendon Airlines Europe", "iata": "XR", "icao": "CXI"}]}, {"destination": {"icao": "LKPR", "iata": "PRG", "name": "Prague Ruzyn\u011b", "shortName": "Ruzyn\u011b", "municipalityName": "Prague", "location": {"lat": 50.1008, "lon": 14.26}, "countryCode": "CZ"}, "averageDailyFlights": 1.0, "operators": [{"name": "Air Cairo", "iata": "SM", "icao": "MSC"}, {"name": "SmartWings", "iata": "QS", "icao": "TVS"}]}, {"destination": {"icao": "LYBE", "iata": "BEG", "name": "Belgrade Nikola Tesla", "shortName": "Nikola Tesla", "municipalityName": "Belgrade", "location": {"lat": 44.8184, "lon": 20.3091}, "countryCode": "RS"}, "averageDailyFlights": 0.86, "operators": [{"name": "Air Cairo", "iata": "SM", "icao": "MSC"}]}, {"destination": {"name": "Minsk"}, "averageDailyFlights": 0.86, "operators": [{"name": "Belavia", "iata": "B2", "icao": "BRU"}]}, {"destination": {"icao": "LHBP", "iata": "BUD", "name": "Budapest Ferenc Liszt", "shortName": "Ferenc Liszt", "municipalityName": "Budapest", "location": {"lat": 47.4369, "lon": 19.255598}, "countryCode": "HU"}, "averageDailyFlights": 0.71, "operators": [{"name": "Wizz Air", "iata": "W6", "icao": "WZZ"}, {"name": "Air Cairo", "iata": "SM", "icao": "MSC"}]}, {"destination": {"icao": "LSGG", "iata": "GVA", "name": "Geneva Cointrin", "shortName": "Cointrin", "municipalityName": "Geneva", "location": {"lat": 46.2381, "lon": 6.10895}, "countryCode": "CH"}, "averageDailyFlights": 0.71, "operators": [{"name": "easyJet", "iata": "U2", "icao": "EZY"}, {"name": "SWISS", "iata": "LX", "icao": "SWR"}]}, {"destination": {"icao": "EGCC", "iata": "MAN", "name": "Manchester ", "shortName": "Manchester", "municipalityName": "Manchester", "location": {"lat": 53.3537, "lon": -2.27495}, "countryCode": "GB"}, "averageDailyFlights": 0.71, "operators": [{"name": "easyJet", "iata": "U2", "icao": "EZY"}]}, {"destination": {"icao": "LIMC", "iata": "MXP", "name": "Milan Malpensa", "shortName": "Malpensa", "municipalityName": "Milan", "location": {"lat": 45.6306, "lon": 8.72811}, "countryCode": "IT"}, "averageDailyFlights": 0.71, "operators": [{"name": "Air Cairo", "iata": "SM", "icao": "MSC"}, {"name": "easyJet", "iata": "U2", "icao": "EZY"}]}, {"destination": {"icao": "URSS", "iata": "AER", "localCode": "\u0421\u041e\u0427", "name": "Sochi ", "shortName": "Sochi", "municipalityName": "Sochi", "location": {"lat": 43.4499, "lon": 39.9566}, "countryCode": "RU"}, "averageDailyFlights": 0.57, "operators": [{"name": "Red Wings", "iata": "WZ", "icao": "RWZ"}, {"name": "Rossiya Airlines", "iata": "FV", "icao": "SDM"}]}, {"destination": {"icao": "EGGD", "iata": "BRS", "name": "Bristol ", "shortName": "Bristol", "municipalityName": "Bristol", "location": {"lat": 51.3827, "lon": -2.719089}, "countryCode": "GB"}, "averageDailyFlights": 0.43, "operators": [{"name": "easyJet", "iata": "U2", "icao": "EZY"}]}, {"destination": {"icao": "ELLX", "iata": "LUX", "name": "Luxembourg -Findel", "shortName": "-Findel", "municipalityName": "Luxembourg", "location": {"lat": 49.6266, "lon": 6.21152}, "countryCode": "LU"}, "averageDailyFlights": 0.43, "operators": [{"name": "Luxair", "iata": "LG", "icao": "LGL"}]}, {"destination": {"icao": "EDDG", "iata": "FMO", "name": "M\u00fcnster Osnabr\u00fcck", "shortName": "Osnabr\u00fcck", "municipalityName": "M\u00fcnster", "location": {"lat": 52.1346, "lon": 7.68483}, "countryCode": "DE"}, "averageDailyFlights": 0.43, "operators": [{"name": "Air Cairo", "iata": "SM", "icao": "MSC"}]}, {"destination": {"icao": "LFPO", "iata": "ORY", "name": "Paris -Orly", "shortName": "-Orly", "municipalityName": "Paris", "location": {"lat": 48.7253, "lon": 2.35944}, "countryCode": "FR"}, "averageDailyFlights": 0.43, "operators": [{"name": "Transavia France", "iata": "TO", "icao": "TVF"}]}, {"destination": {"icao": "HESH", "iata": "SSH", "name": "Sharm el Sheikh ", "shortName": "Sharm el Sheikh", "municipalityName": "Sharm el Sheikh", "location": {"lat": 27.9773, "lon": 34.395}, "countryCode": "EG"}, "averageDailyFlights": 0.43, "operators": [{"name": "Air Cairo", "iata": "SM", "icao": "MSC"}, {"name": "TUI Airlines Nederland (Netherlands)", "iata": "OR", "icao": "TFL"}]}, {"destination": {"name": "Saint-Petersburg"}, "averageDailyFlights": 0.43, "operators": [{"name": "AlMasria", "iata": "UJ", "icao": "LMU"}, {"name": "Red Wings", "iata": "WZ", "icao": "RWZ"}]}, {"destination": {"icao": "HEBA", "iata": "HBE", "name": "Alexandria Borg El Arab", "shortName": "Borg El Arab", "municipalityName": "Alexandria", "location": {"lat": 30.9177, "lon": 29.6964}, "countryCode": "EG"}, "averageDailyFlights": 0.29, "operators": [{"name": "EgyptAir", "iata": "MS", "icao": "MSR"}]}, {"destination": {"icao": "OJAI", "iata": "AMM", "name": "Amman Queen Alia", "shortName": "Queen Alia", "municipalityName": "Amman", "location": {"lat": 31.7226, "lon": 35.9932}, "countryCode": "JO"}, "averageDailyFlights": 0.29, "operators": [{"name": "Air Cairo", "iata": "SM", "icao": "MSC"}]}, {"destination": {"icao": "LZIB", "iata": "BTS", "name": "Bratislava M. R. \u0160tef\u00e1nik", "shortName": "M. R. \u0160tef\u00e1nik", "municipalityName": "Bratislava", "location": {"lat": 48.1702, "lon": 17.2127}, "countryCode": "SK"}, "averageDailyFlights": 0.29, "operators": [{"name": "Air Cairo", "iata": "SM", "icao": "MSC"}]}, {"destination": {"icao": "EDDC", "iata": "DRS", "name": "Dresden ", "shortName": "Dresden", "municipalityName": "Dresden", "location": {"lat": 51.1328, "lon": 13.7672}, "countryCode": "DE"}, "averageDailyFlights": 0.29, "operators": [{"name": "SundAir", "iata": "SR", "icao": "SDR"}]}, {"destination": {"icao": "USSS", "iata": "SVX", "localCode": "\u041a\u041b\u0426", "name": "Ekaterinburg Koltsovo", "shortName": "Koltsovo", "municipalityName": "Ekaterinburg", "location": {"lat": 56.7431, "lon": 60.8027}, "countryCode": "RU"}, "averageDailyFlights": 0.29, "operators": [{"name": "AZUR Air", "iata": "ZF", "icao": "KTK"}, {"name": "Red Wings", "iata": "WZ", "icao": "RWZ"}]}, {"destination": {"icao": "LOWG", "iata": "GRZ", "name": "Graz ", "shortName": "Graz", "municipalityName": "Graz", "location": {"lat": 46.9911, "lon": 15.439599}, "countryCode": "AT"}, "averageDailyFlights": 0.29, "operators": [{"name": "Eurowings", "iata": "EW", "icao": "EWG"}]}, {"destination": {"icao": "LFLL", "iata": "LYS", "name": "Lyon Saint-Exup\u00e9ry", "shortName": "Saint-Exup\u00e9ry", "municipalityName": "Lyon", "location": {"lat": 45.7264, "lon": 5.090829}, "countryCode": "FR"}, "averageDailyFlights": 0.29, "operators": [{"name": "Air Cairo", "iata": "SM", "icao": "MSC"}, {"name": "Transavia France", "iata": "TO", "icao": "TVF"}]}, {"destination": {"icao": "UNNT", "iata": "OVB", "localCode": "\u0422\u041b\u0427", "name": "Novosibirsk Tolmachevo", "shortName": "Tolmachevo", "municipalityName": "Novosibirsk", "location": {"lat": 55.0126, "lon": 82.6507}, "countryCode": "RU"}, "averageDailyFlights": 0.29, "operators": [{"name": "AZUR Air", "iata": "ZF", "icao": "KTK"}]}, {"destination": {"icao": "EDLP", "iata": "PAD", "name": "Paderborn Lippstadt", "shortName": "Lippstadt", "municipalityName": "Paderborn", "location": {"lat": 51.6141, "lon": 8.616319}, "countryCode": "DE"}, "averageDailyFlights": 0.29, "operators": [{"name": "Air Cairo", "iata": "SM", "icao": "MSC"}]}, {"destination": {"icao": "LFPG", "iata": "CDG", "name": "Paris Charles de Gaulle", "shortName": "Charles de Gaulle", "municipalityName": "Paris", "location": {"lat": 49.0128, "lon": 2.549999}, "countryCode": "FR"}, "averageDailyFlights": 0.29, "operators": [{"name": "Air Cairo", "iata": "SM", "icao": "MSC"}]}, {"destination": {"icao": "LOWS", "iata": "SZG", "name": "Salzburg ", "shortName": "Salzburg", "municipalityName": "Salzburg", "location": {"lat": 47.7933, "lon": 13.0043}, "countryCode": "AT"}, "averageDailyFlights": 0.29, "operators": [{"name": "Eurowings", "iata": "EW", "icao": "EWG"}]}, {"destination": {"icao": "LBSF", "iata": "SOF", "name": "Sofia ", "shortName": "Sofia", "municipalityName": "Sofia", "location": {"lat": 42.696693, "lon": 23.411436}, "countryCode": "BG"}, "averageDailyFlights": 0.29, "operators": [{"name": "Bulgaria Air", "iata": "FB", "icao": "LZB"}]}, {"destination": {"name": "Zhukovsky"}, "averageDailyFlights": 0.29, "operators": [{"name": "Red Wings", "iata": "WZ", "icao": "RWZ"}]}, {"destination": {"icao": "EKAH", "iata": "AAR", "name": "Aarhus ", "shortName": "Aarhus", "municipalityName": "Aarhus", "location": {"lat": 56.3, "lon": 10.619}, "countryCode": "DK"}, "averageDailyFlights": 0.14, "operators": [{"name": "Air Cairo", "iata": "SM", "icao": "MSC"}]}, {"destination": {"icao": "LQBK", "iata": "BNX", "name": "Banja Luka ", "shortName": "Banja Luka", "municipalityName": "Banja Luka", "location": {"lat": 44.9414, "lon": 17.2975}, "countryCode": "BA"}, "averageDailyFlights": 0.14, "operators": [{"name": "Air Cairo", "iata": "SM", "icao": "MSC"}]}, {"destination": {"icao": "EDDE", "iata": "ERF", "name": "Erfurt ", "shortName": "Erfurt", "municipalityName": "Erfurt", "location": {"lat": 50.9798, "lon": 10.9581}, "countryCode": "DE"}, "averageDailyFlights": 0.14, "operators": [{"name": "Corendon Airlines Europe", "iata": "XR", "icao": "CXI"}]}, {"destination": {"icao": "EDNY", "iata": "FDH", "name": "Friedrichshafen ", "shortName": "Friedrichshafen", "municipalityName": "Friedrichshafen", "location": {"lat": 47.6713, "lon": 9.511489}, "countryCode": "DE"}, "averageDailyFlights": 0.14, "operators": [{"name": "Corendon Airlines Europe", "iata": "XR", "icao": "CXI"}]}, {"destination": {"icao": "EDVK", "iata": "KSF", "name": "Kassel -Calden", "shortName": "-Calden", "municipalityName": "Kassel", "location": {"lat": 51.408333, "lon": 9.377499}, "countryCode": "DE"}, "averageDailyFlights": 0.14, "operators": [{"name": "SundAir", "iata": "SR", "icao": "SDR"}]}, {"destination": {"icao": "UWKD", "iata": "KZN", "name": "Kazan ", "shortName": "Kazan", "municipalityName": "Kazan", "location": {"lat": 55.6062, "lon": 49.2787}, "countryCode": "RU"}, "averageDailyFlights": 0.14, "operators": [{"name": "Red Wings", "iata": "WZ", "icao": "RWZ"}]}, {"destination": {"icao": "UWGG", "iata": "GOJ", "localCode": "\u041d\u0416\u0421", "name": "Nizhniy Novgorod Strigino", "shortName": "Strigino", "municipalityName": "Nizhniy Novgorod", "location": {"lat": 56.2301, "lon": 43.784}, "countryCode": "RU"}, "averageDailyFlights": 0.14, "operators": [{"name": "AZUR Air", "iata": "ZF", "icao": "KTK"}]}, {"destination": {"icao": "LKMT", "iata": "OSR", "name": "Ostrava Leos Jan\u00e1\u010dek", "shortName": "Leos Jan\u00e1\u010dek", "municipalityName": "Ostrava", "location": {"lat": 49.6963, "lon": 18.1111}, "countryCode": "CZ"}, "averageDailyFlights": 0.14, "operators": [{"name": "SmartWings", "iata": "QS", "icao": "TVS"}]}, {"destination": {"icao": "USPP", "iata": "PEE", "localCode": "\u041f\u0420\u042c", "name": "Perm Bolshoye Savino", "shortName": "Bolshoye Savino", "municipalityName": "Perm", "location": {"lat": 57.9145, "lon": 56.0212}, "countryCode": "RU"}, "averageDailyFlights": 0.14, "operators": [{"name": "AZUR Air", "iata": "ZF", "icao": "KTK"}]}, {"destination": {"icao": "OERK", "iata": "RUH", "name": "Riyadh King Khaled", "shortName": "King Khaled", "municipalityName": "Riyadh", "location": {"lat": 24.9576, "lon": 46.6988}, "countryCode": "SA"}, "averageDailyFlights": 0.14, "operators": [{"name": "flynas", "iata": "XY", "icao": "KNE"}]}, {"destination": {"icao": "UWWW", "iata": "KUF", "localCode": "\u0421\u041a\u0427", "name": "Samara Kurumoch", "shortName": "Kurumoch", "municipalityName": "Samara", "location": {"lat": 53.5049, "lon": 50.1643}, "countryCode": "RU"}, "averageDailyFlights": 0.14, "operators": [{"name": "AZUR Air", "iata": "ZF", "icao": "KTK"}]}, {"destination": {"icao": "LQSA", "iata": "SJJ", "name": "Sarajevo ", "shortName": "Sarajevo", "municipalityName": "Sarajevo", "location": {"lat": 43.8246, "lon": 18.3315}, "countryCode": "BA"}, "averageDailyFlights": 0.14, "operators": [{"name": "Air Cairo", "iata": "SM", "icao": "MSC"}]}, {"destination": {"icao": "EETN", "iata": "TLL", "localCode": "TLL", "name": "Tallinn Lennart Meri", "shortName": "Lennart Meri", "municipalityName": "Tallinn", "location": {"lat": 59.4133, "lon": 24.8328}, "countryCode": "EE"}, "averageDailyFlights": 0.14, "operators": [{"name": "Aura Airlines"}]}, {"destination": {"icao": "EYVI", "iata": "VNO", "localCode": "\u0412\u0418\u041b", "name": "Vilnius ", "shortName": "Vilnius", "municipalityName": "Vilnius", "location": {"lat": 54.6341, "lon": 25.2858}, "countryCode": "LT"}, "averageDailyFlights": 0.14, "operators": [{"name": "Aura Airlines"}]}, {"destination": {"name": "Brno"}, "averageDailyFlights": 0.14, "operators": [{"name": "SmartWings", "iata": "QS", "icao": "TVS"}]}, {"destination": {"name": "Bucharest"}, "averageDailyFlights": 0.14, "operators": [{"name": "Aura Airlines"}]}, {"destination": {"name": "Keln"}, "averageDailyFlights": 0.14, "operators": [{"name": "Corendon Airlines Europe", "iata": "XR", "icao": "CXI"}]}, {"destination": {"name": "Ufa"}, "averageDailyFlights": 0.14, "operators": [{"name": "AZUR Air", "iata": "ZF", "icao": "KTK"}]}]}