{"routes": [{"destination": {"icao": "KMSP", "iata": "MSP", "name": "Minneapolis Wold-Chamberlain", "shortName": "Wold-Chamberlain", "municipalityName": "Minneapolis", "location": {"lat": 44.882, "lon": -93.2218}, "countryCode": "US"}, "averageDailyFlights": 2.43, "operators": [{"name": "Delta Air Lines", "iata": "DL", "icao": "DAL"}, {"name": "LXJ"}]}, {"destination": {"icao": "KFSD", "iata": "FSD", "name": "Sioux Falls Joe Foss Field", "shortName": "Joe Foss Field", "municipalityName": "Sioux Falls", "location": {"lat": 43.582, "lon": -96.7419}, "countryCode": "US"}, "averageDailyFlights": 2.0, "operators": [{"name": "Libyan Airlines", "iata": "LN", "icao": "LAA"}, {"name": "Alpine Air Express", "iata": "5A", "icao": "AIP"}, {"name": "IRO"}]}, {"destination": {"icao": "KCPR", "iata": "CPR", "name": "Casper -Natrona County", "shortName": "-Natrona County", "municipalityName": "Casper", "location": {"lat": 42.908, "lon": -106.464}, "countryCode": "US"}, "averageDailyFlights": 0.29, "operators": [{"name": "CBC"}]}, {"destination": {"icao": "KBLI", "iata": "BLI", "name": "Bellingham ", "shortName": "Bellingham", "municipalityName": "Bellingham", "location": {"lat": 48.7928, "lon": -122.538}, "countryCode": "US"}, "averageDailyFlights": 0.14, "operators": [{"name": "Jet Linx Aviation", "iata": "JL", "icao": "JTL"}]}, {"destination": {"icao": "KBIL", "iata": "BIL", "name": "Billings Metropolitan Area Billings Logan", "shortName": "Billings Logan", "municipalityName": "Billings Metropolitan Area", "location": {"lat": 45.8077, "lon": -108.543}, "countryCode": "US"}, "averageDailyFlights": 0.14, "operators": [{"name": "LXJ"}]}]}