{"routes": [{"destination": {"icao": "KDFW", "iata": "DFW", "name": "Dallas-Fort Worth ", "shortName": "Dallas-Fort Worth", "municipalityName": "Dallas-Fort Worth", "location": {"lat": 32.8968, "lon": -97.038}, "countryCode": "US"}, "averageDailyFlights": 2.29, "operators": [{"name": "American Airlines", "iata": "AA", "icao": "AAL"}, {"name": "SkyWest Airlines", "iata": "OO", "icao": "SKW"}]}, {"destination": {"icao": "KDAL", "iata": "DAL", "name": "Dallas Love Field", "shortName": "Love Field", "municipalityName": "Dallas", "location": {"lat": 32.8471, "lon": -96.8518}, "countryCode": "US"}, "averageDailyFlights": 0.71, "operators": [{"name": "JKA"}]}, {"destination": {"icao": "KTXK", "iata": "TXK", "name": "Texarkana Regional Webb Field", "shortName": "Regional Webb Field", "municipalityName": "Texarkana", "location": {"lat": 33.4537, "lon": -93.991}, "countryCode": "US"}, "averageDailyFlights": 0.43, "operators": [{"name": "JKA"}]}, {"destination": {"icao": "KRVS", "iata": "RVS", "name": "Tulsa Richard Lloyd Jones Jr", "shortName": "Richard Lloyd Jones Jr", "municipalityName": "Tulsa", "location": {"lat": 36.0396, "lon": -95.9846}, "countryCode": "US"}, "averageDailyFlights": 0.29, "operators": [{"name": "SCU"}, {"name": "LXJ"}]}, {"destination": {"icao": "KCGI", "iata": "CGI", "name": "Cape Girardeau Regional", "shortName": "Regional", "municipalityName": "Cape Girardeau", "location": {"lat": 37.2253, "lon": -89.5708}, "countryCode": "US"}, "averageDailyFlights": 0.14, "operators": [{"name": "ARF"}]}, {"destination": {"icao": "KSNS", "iata": "SNS", "name": "Salinas Municipal", "shortName": "Municipal", "municipalityName": "Salinas", "location": {"lat": 36.6628, "lon": -121.606}, "countryCode": "US"}, "averageDailyFlights": 0.14, "operators": [{"name": "Kabo Air", "iata": "N9", "icao": "QNK"}]}, {"destination": {"icao": "KSGU", "iata": "SGU", "name": "St. George St George Municipal", "shortName": "St George Municipal", "municipalityName": "St. George", "location": {"lat": 37.03639, "lon": -113.51031}, "countryCode": "US"}, "averageDailyFlights": 0.14, "operators": [{"name": "Allegiant Air", "iata": "G4", "icao": "AAY"}]}]}