{"routes": [{"destination": {"icao": "KDEN", "iata": "DEN", "name": "Denver ", "shortName": "Denver", "municipalityName": "Denver", "location": {"lat": 39.8617, "lon": -104.673}, "countryCode": "US"}, "averageDailyFlights": 2.14, "operators": [{"name": "Denver Air Connection", "iata": "KG", "icao": "LYM"}, {"name": "Bemidji Aviation", "iata": "CH", "icao": "BMJ"}]}, {"destination": {"icao": "KGLD", "iata": "GLD", "name": "Goodland Renner Field- Municipal", "shortName": "Renner Field- Municipal", "municipalityName": "Goodland", "location": {"lat": 39.3706, "lon": -101.699}, "countryCode": "US"}, "averageDailyFlights": 0.71, "operators": [{"name": "Bemidji Aviation", "iata": "CH", "icao": "BMJ"}]}, {"destination": {"icao": "KOMA", "iata": "OMA", "name": "Omaha Eppley Airfield", "shortName": "Eppley Airfield", "municipalityName": "Omaha", "location": {"lat": 41.3032, "lon": -95.8941}, "countryCode": "US"}, "averageDailyFlights": 0.57, "operators": [{"name": "BVN"}]}, {"destination": {"icao": "KCOS", "iata": "COS", "name": "Colorado Springs City of  Municipal", "shortName": "City of  Municipal", "municipalityName": "Colorado Springs", "location": {"lat": 38.8058, "lon": -104.701}, "countryCode": "US"}, "averageDailyFlights": 0.14, "operators": [{"name": "CXK"}]}, {"destination": {"icao": "KEAR", "iata": "EAR", "name": "Kearney Regional", "shortName": "Regional", "municipalityName": "Kearney", "location": {"lat": 40.727, "lon": -99.0068}, "countryCode": "US"}, "averageDailyFlights": 0.14, "operators": [{"name": "BVN"}]}, {"destination": {"icao": "KLNK", "iata": "LNK", "name": "Lincoln ", "shortName": "Lincoln", "municipalityName": "Lincoln", "location": {"lat": 40.851, "lon": -96.7592}, "countryCode": "US"}, "averageDailyFlights": 0.14, "operators": [{"name": "SLH"}]}]}