{"routes": [{"destination": {"icao": "KDFW", "iata": "DFW", "name": "Dallas-Fort Worth ", "shortName": "Dallas-Fort Worth", "municipalityName": "Dallas-Fort Worth", "location": {"lat": 32.8968, "lon": -97.038}, "countryCode": "US"}, "averageDailyFlights": 3.29, "operators": [{"name": "Envoy Air", "iata": "MQ", "icao": "ENY"}]}, {"destination": {"icao": "KATL", "iata": "ATL", "name": "Atlanta Hartsfield Jackson", "shortName": "Hartsfield Jackson", "municipalityName": "Atlanta", "location": {"lat": 33.6367, "lon": -84.4281}, "countryCode": "US"}, "averageDailyFlights": 2.29, "operators": [{"name": "Delta Air Lines", "iata": "DL", "icao": "DAL"}]}, {"destination": {"icao": "KBTR", "iata": "BTR", "name": "Baton Rouge Ryan Field", "shortName": "Ryan Field", "municipalityName": "Baton Rouge", "location": {"lat": 30.5332, "lon": -91.1496}, "countryCode": "US"}, "averageDailyFlights": 0.86, "operators": [{"name": "SKQ"}, {"name": "Kabo Air", "iata": "N9", "icao": "QNK"}]}, {"destination": {"icao": "KCXO", "iata": "CXO", "name": "Houston Lone Star Executive", "shortName": "Lone Star Executive", "municipalityName": "Houston", "location": {"lat": 30.3518, "lon": -95.4145}, "countryCode": "US"}, "averageDailyFlights": 0.43, "operators": [{"name": "CXK"}, {"name": "JTZ"}]}, {"destination": {"icao": "KPIB", "iata": "PIB", "name": "Hattiesburg/Laurel Hattiesburg Laurel Regional", "shortName": "Hattiesburg Laurel Regional", "municipalityName": "Hattiesburg/Laurel", "location": {"lat": 31.4671, "lon": -89.3371}, "countryCode": "US"}, "averageDailyFlights": 0.29, "operators": [{"name": "DCM"}]}, {"destination": {"icao": "KHOU", "iata": "HOU", "name": "Houston William P Hobby", "shortName": "William P Hobby", "municipalityName": "Houston", "location": {"lat": 29.6454, "lon": -95.2789}, "countryCode": "US"}, "averageDailyFlights": 0.29, "operators": [{"name": "Sun Country Airlines", "iata": "SY", "icao": "SCX"}, {"name": "SCM"}]}, {"destination": {"icao": "KBWG", "iata": "BWG", "name": "Bowling Green Warren County Regional", "shortName": "Warren County Regional", "municipalityName": "Bowling Green", "location": {"lat": 36.9645, "lon": -86.4197}, "countryCode": "US"}, "averageDailyFlights": 0.14, "operators": [{"name": "Allegiant Air", "iata": "G4", "icao": "AAY"}]}, {"destination": {"icao": "KELP", "iata": "ELP", "name": "El Paso ", "shortName": "El Paso", "municipalityName": "El Paso", "location": {"lat": 31.8072, "lon": -106.378}, "countryCode": "US"}, "averageDailyFlights": 0.14, "operators": [{"name": "PKW"}]}, {"destination": {"icao": "KFTW", "iata": "FTW", "name": "Fort Worth Meacham", "shortName": "Meacham", "municipalityName": "Fort Worth", "location": {"lat": 32.8198, "lon": -97.3624}, "countryCode": "US"}, "averageDailyFlights": 0.14, "operators": [{"name": "Jet Linx Aviation", "iata": "JL", "icao": "JTL"}]}, {"destination": {"icao": "KHKY", "iata": "HKY", "name": "Hickory Regional", "shortName": "Regional", "municipalityName": "Hickory", "location": {"lat": 35.7411, "lon": -81.3895}, "countryCode": "US"}, "averageDailyFlights": 0.14, "operators": [{"name": "Allegiant Air", "iata": "G4", "icao": "AAY"}]}, {"destination": {"icao": "KLIT", "iata": "LIT", "name": "Little Rock Adams Field", "shortName": "Adams Field", "municipalityName": "Little Rock", "location": {"lat": 34.7294, "lon": -92.2243}, "countryCode": "US"}, "averageDailyFlights": 0.14, "operators": [{"name": "CXK"}]}, {"destination": {"icao": "KMEM", "iata": "MEM", "name": "Memphis ", "shortName": "Memphis", "municipalityName": "Memphis", "location": {"lat": 35.0424, "lon": -89.9767}, "countryCode": "US"}, "averageDailyFlights": 0.14, "operators": [{"name": "My Jet Xpress Airlines", "iata": "N7", "icao": "NEP"}]}, {"destination": {"icao": "KRSN", "iata": "RSN", "name": "Ruston Regional", "shortName": "Regional", "municipalityName": "Ruston", "location": {"lat": 32.5144, "lon": -92.5917}, "countryCode": "US"}, "averageDailyFlights": 0.14, "operators": [{"name": "JTZ"}]}]}