{"routes": [{"destination": {"icao": "KATL", "iata": "ATL", "name": "Atlanta Hartsfield Jackson", "shortName": "Hartsfield Jackson", "municipalityName": "Atlanta", "location": {"lat": 33.6367, "lon": -84.4281}, "countryCode": "US"}, "averageDailyFlights": 7.29, "operators": [{"name": "Delta Air Lines", "iata": "DL", "icao": "DAL"}]}, {"destination": {"icao": "KCLT", "iata": "CLT", "name": "Charlotte Douglas", "shortName": "Douglas", "municipalityName": "Charlotte", "location": {"lat": 35.214, "lon": -80.9431}, "countryCode": "US"}, "averageDailyFlights": 5.86, "operators": [{"name": "American Airlines", "iata": "AA", "icao": "AAL"}]}, {"destination": {"icao": "KIAH", "iata": "IAH", "name": "Houston George Bush", "shortName": "George Bush", "municipalityName": "Houston", "location": {"lat": 29.9844, "lon": -95.3414}, "countryCode": "US"}, "averageDailyFlights": 5.71, "operators": [{"name": "United Airlines", "iata": "UA", "icao": "UAL"}]}, {"destination": {"icao": "KDFW", "iata": "DFW", "name": "Dallas-Fort Worth ", "shortName": "Dallas-Fort Worth", "municipalityName": "Dallas-Fort Worth", "location": {"lat": 32.8968, "lon": -97.038}, "countryCode": "US"}, "averageDailyFlights": 4.57, "operators": [{"name": "American Airlines", "iata": "AA", "icao": "AAL"}, {"name": "Envoy Air", "iata": "MQ", "icao": "ENY"}]}, {"destination": {"icao": "KMCO", "iata": "MCO", "name": "Orlando ", "shortName": "Orlando", "municipalityName": "Orlando", "location": {"lat": 28.4294, "lon": -81.309}, "countryCode": "US"}, "averageDailyFlights": 4.0, "operators": [{"name": "Silver Airways", "iata": "3M", "icao": "SIL"}, {"name": "Spirit Airlines", "iata": "NK", "icao": "NKS"}]}, {"destination": {"icao": "KBNA", "iata": "BNA", "name": "Nashville ", "shortName": "Nashville", "municipalityName": "Nashville", "location": {"lat": 36.1245, "lon": -86.6782}, "countryCode": "US"}, "averageDailyFlights": 2.86, "operators": [{"name": "Southwest Airlines", "iata": "WN", "icao": "SWA"}, {"name": "JRE"}]}, {"destination": {"icao": "KDCA", "iata": "DCA", "name": "District of Columbia Ronald Reagan Washington National", "shortName": "Ronald Reagan Washington National", "municipalityName": "District of Columbia", "location": {"lat": 38.8521, "lon": -77.0377}, "countryCode": "US"}, "averageDailyFlights": 2.29, "operators": [{"name": "American Airlines", "iata": "AA", "icao": "AAL"}]}, {"destination": {"icao": "KMIA", "iata": "MIA", "name": "Miami ", "shortName": "Miami", "municipalityName": "Miami", "location": {"lat": 25.7932, "lon": -80.2906}, "countryCode": "US"}, "averageDailyFlights": 2.29, "operators": [{"name": "Envoy Air", "iata": "MQ", "icao": "ENY"}]}, {"destination": {"icao": "KTPA", "iata": "TPA", "name": "Tampa ", "shortName": "Tampa", "municipalityName": "Tampa", "location": {"lat": 27.9755, "lon": -82.5332}, "countryCode": "US"}, "averageDailyFlights": 1.86, "operators": [{"name": "Silver Airways", "iata": "3M", "icao": "SIL"}, {"name": "KPO"}]}, {"destination": {"icao": "KDAL", "iata": "DAL", "name": "Dallas Love Field", "shortName": "Love Field", "municipalityName": "Dallas", "location": {"lat": 32.8471, "lon": -96.8518}, "countryCode": "US"}, "averageDailyFlights": 1.57, "operators": [{"name": "Southwest Airlines", "iata": "WN", "icao": "SWA"}]}, {"destination": {"icao": "KORD", "iata": "ORD", "name": "Chicago O'Hare", "shortName": "O'Hare", "municipalityName": "Chicago", "location": {"lat": 41.9786, "lon": -87.9048}, "countryCode": "US"}, "averageDailyFlights": 1.29, "operators": [{"name": "Envoy Air", "iata": "MQ", "icao": "ENY"}, {"name": "United Airlines", "iata": "UA", "icao": "UAL"}]}, {"destination": {"icao": "KHOU", "iata": "HOU", "name": "Houston William P Hobby", "shortName": "William P Hobby", "municipalityName": "Houston", "location": {"lat": 29.6454, "lon": -95.2789}, "countryCode": "US"}, "averageDailyFlights": 1.29, "operators": [{"name": "Southwest Airlines", "iata": "WN", "icao": "SWA"}]}, {"destination": {"icao": "KFLL", "iata": "FLL", "name": "Fort Lauderdale Hollywood", "shortName": "Hollywood", "municipalityName": "Fort Lauderdale", "location": {"lat": 26.0726, "lon": -80.1527}, "countryCode": "US"}, "averageDailyFlights": 1.14, "operators": [{"name": "Spirit Airlines", "iata": "NK", "icao": "NKS"}]}, {"destination": {"icao": "KPHL", "iata": "PHL", "name": "Philadelphia ", "shortName": "Philadelphia", "municipalityName": "Philadelphia", "location": {"lat": 39.8719, "lon": -75.2411}, "countryCode": "US"}, "averageDailyFlights": 1.14, "operators": [{"name": "American Airlines", "iata": "AA", "icao": "AAL"}]}, {"destination": {"icao": "KTLH", "iata": "TLH", "name": "Tallahassee Regional", "shortName": "Regional", "municipalityName": "Tallahassee", "location": {"lat": 30.3965, "lon": -84.3503}, "countryCode": "US"}, "averageDailyFlights": 1.0, "operators": [{"name": "LBQ"}, {"name": "CXK"}]}, {"destination": {"icao": "KDEN", "iata": "DEN", "name": "Denver ", "shortName": "Denver", "municipalityName": "Denver", "location": {"lat": 39.8617, "lon": -104.673}, "countryCode": "US"}, "averageDailyFlights": 0.86, "operators": [{"name": "Frontier Airlines", "iata": "F9", "icao": "FFT"}]}, {"destination": {"icao": "KBFM", "iata": "BFM", "name": "Mobile Downtown", "shortName": "Downtown", "municipalityName": "Mobile", "location": {"lat": 30.6268, "lon": -88.0681}, "countryCode": "US"}, "averageDailyFlights": 0.86, "operators": [{"name": "LBQ"}]}, {"destination": {"icao": "KSTL", "iata": "STL", "name": "Saint Louis Lambert St Louis", "shortName": "Lambert St Louis", "municipalityName": "Saint Louis", "location": {"lat": 38.7487, "lon": -90.37}, "countryCode": "US"}, "averageDailyFlights": 0.57, "operators": [{"name": "Southwest Airlines", "iata": "WN", "icao": "SWA"}]}, {"destination": {"icao": "KVQQ", "iata": "VQQ", "name": "Jacksonville Cecil Field", "shortName": "Cecil Field", "municipalityName": "Jacksonville", "location": {"lat": 30.2187, "lon": -81.8767}, "countryCode": "US"}, "averageDailyFlights": 0.29, "operators": [{"name": "N2"}]}, {"destination": {"icao": "KLMS", "iata": "LMS", "name": "Louisville Winston County", "shortName": "Winston County", "municipalityName": "Louisville", "location": {"lat": 33.1462, "lon": -89.0625}, "countryCode": "US"}, "averageDailyFlights": 0.29, "operators": [{"name": "JTZ"}]}, {"destination": {"icao": "KMQY", "iata": "MQY", "name": "Smyrna ", "shortName": "Smyrna", "municipalityName": "Smyrna", "location": {"lat": 36.009, "lon": -86.5201}, "countryCode": "US"}, "averageDailyFlights": 0.29, "operators": [{"name": "CXK"}]}, {"destination": {"icao": "KAVL", "iata": "AVL", "name": "Asheville Regional", "shortName": "Regional", "municipalityName": "Asheville", "location": {"lat": 35.4362, "lon": -82.5418}, "countryCode": "US"}, "averageDailyFlights": 0.14, "operators": [{"name": "JTZ"}]}, {"destination": {"icao": "KPDK", "iata": "PDK", "name": "Atlanta DeKalb Peachtree", "shortName": "DeKalb Peachtree", "municipalityName": "Atlanta", "location": {"lat": 33.8756, "lon": -84.302}, "countryCode": "US"}, "averageDailyFlights": 0.14, "operators": [{"name": "NetJets Aviation", "iata": "1I", "icao": "EJA"}]}, {"destination": {"icao": "KAUO", "iata": "AUO", "name": "Auburn Opelika Robert G. Pitts", "shortName": "Opelika Robert G. Pitts", "municipalityName": "Auburn", "location": {"lat": 32.6151, "lon": -85.434}, "countryCode": "US"}, "averageDailyFlights": 0.14, "operators": [{"name": "NetJets Aviation", "iata": "1I", "icao": "EJA"}]}, {"destination": {"icao": "KBTR", "iata": "BTR", "name": "Baton Rouge Ryan Field", "shortName": "Ryan Field", "municipalityName": "Baton Rouge", "location": {"lat": 30.5332, "lon": -91.1496}, "countryCode": "US"}, "averageDailyFlights": 0.14, "operators": [{"name": "CXK"}]}, {"destination": {"icao": "KBCT", "iata": "BCT", "name": "Boca Raton ", "shortName": "Boca Raton", "municipalityName": "Boca Raton", "location": {"lat": 26.378498, "lon": -80.1077}, "countryCode": "US"}, "averageDailyFlights": 0.14, "operators": [{"name": "LXJ"}]}, {"destination": {"icao": "KDTS", "iata": "DSI", "name": "Destin Fort Walton Beach", "shortName": "Fort Walton Beach", "municipalityName": "Destin", "location": {"lat": 30.4001, "lon": -86.4715}, "countryCode": "US"}, "averageDailyFlights": 0.14, "operators": [{"name": "GAJ"}]}, {"destination": {"icao": "KJAX", "iata": "JAX", "name": "Jacksonville ", "shortName": "Jacksonville", "municipalityName": "Jacksonville", "location": {"lat": 30.4941, "lon": -81.6879}, "countryCode": "US"}, "averageDailyFlights": 0.14, "operators": [{"name": "GAJ"}]}, {"destination": {"icao": "KMEM", "iata": "MEM", "name": "Memphis ", "shortName": "Memphis", "municipalityName": "Memphis", "location": {"lat": 35.0424, "lon": -89.9767}, "countryCode": "US"}, "averageDailyFlights": 0.14, "operators": [{"name": "DPJ"}]}, {"destination": {"icao": "KJFK", "iata": "JFK", "name": "New York John F Kennedy", "shortName": "John F Kennedy", "municipalityName": "New York", "location": {"lat": 40.6398, "lon": -73.7789}, "countryCode": "US"}, "averageDailyFlights": 0.14, "operators": [{"name": "LXJ"}]}, {"destination": {"icao": "KSHR", "iata": "SHR", "name": "Sheridan County", "shortName": "County", "municipalityName": "Sheridan", "location": {"lat": 44.7692, "lon": -106.98}, "countryCode": "US"}, "averageDailyFlights": 0.14, "operators": [{"name": "HER"}]}, {"destination": {"icao": "KSGF", "iata": "SGF", "name": "Springfield Branson National", "shortName": "Branson National", "municipalityName": "Springfield", "location": {"lat": 37.2457, "lon": -93.3886}, "countryCode": "US"}, "averageDailyFlights": 0.14, "operators": [{"name": "WWI"}]}]}