{"routes": [{"destination": {"icao": "KMCO", "iata": "MCO", "name": "Orlando ", "shortName": "Orlando", "municipalityName": "Orlando", "location": {"lat": 28.4294, "lon": -81.309}, "countryCode": "US"}, "averageDailyFlights": 2.14, "operators": [{"name": "Frontier Airlines", "iata": "F9", "icao": "FFT"}]}, {"destination": {"icao": "KATL", "iata": "ATL", "name": "Atlanta Hartsfield Jackson", "shortName": "Hartsfield Jackson", "municipalityName": "Atlanta", "location": {"lat": 33.6367, "lon": -84.4281}, "countryCode": "US"}, "averageDailyFlights": 1.71, "operators": [{"name": "Frontier Airlines", "iata": "F9", "icao": "FFT"}]}, {"destination": {"icao": "KTEB", "iata": "TEB", "name": "Teterboro ", "shortName": "Teterboro", "municipalityName": "Teterboro", "location": {"lat": 40.8501, "lon": -74.0608}, "countryCode": "US"}, "averageDailyFlights": 1.57, "operators": [{"name": "NetJets Aviation", "iata": "1I", "icao": "EJA"}, {"name": "GJE"}, {"name": "Ultimate Air Shuttle", "iata": "UE", "icao": "UJC"}, {"name": "LEX"}, {"name": "EJM"}, {"name": "LXJ"}, {"name": "Vuela El Salvador", "iata": "N3", "icao": "VOS"}]}, {"destination": {"icao": "KTPA", "iata": "TPA", "name": "Tampa ", "shortName": "Tampa", "municipalityName": "Tampa", "location": {"lat": 27.9755, "lon": -82.5332}, "countryCode": "US"}, "averageDailyFlights": 1.43, "operators": [{"name": "Frontier Airlines", "iata": "F9", "icao": "FFT"}, {"name": "VJT"}]}, {"destination": {"icao": "KACY", "iata": "ACY", "name": "Atlantic City ", "shortName": "Atlantic City", "municipalityName": "Atlantic City", "location": {"lat": 39.4576, "lon": -74.5772}, "countryCode": "US"}, "averageDailyFlights": 1.29, "operators": [{"name": "Nolinor", "iata": "N5", "icao": "NRL"}, {"name": "CXK"}, {"name": "EJM"}, {"name": "Kabo Air", "iata": "N9", "icao": "QNK"}, {"name": "N2"}, {"name": "GAJ"}, {"name": "National Airlines", "iata": "N8", "icao": "NCR"}]}, {"destination": {"icao": "KBOS", "iata": "BOS", "name": "Boston General Edward Lawrence Logan", "shortName": "General Edward Lawrence Logan", "municipalityName": "Boston", "location": {"lat": 42.3643, "lon": -71.0052}, "countryCode": "US"}, "averageDailyFlights": 1.0, "operators": [{"name": "NetJets Aviation", "iata": "1I", "icao": "EJA"}, {"name": "EJM"}, {"name": "Libyan Airlines", "iata": "LN", "icao": "LAA"}, {"name": "LXJ"}, {"name": "DPJ"}]}, {"destination": {"icao": "KABE", "iata": "ABE", "name": "Allentown Lehigh Valley", "shortName": "Lehigh Valley", "municipalityName": "Allentown", "location": {"lat": 40.6521, "lon": -75.4408}, "countryCode": "US"}, "averageDailyFlights": 0.86, "operators": [{"name": "Kabo Air", "iata": "N9", "icao": "QNK"}, {"name": "WAM"}]}, {"destination": {"icao": "KBED", "iata": "BED", "name": "Bedford Laurence G Hanscom Field", "shortName": "Laurence G Hanscom Field", "municipalityName": "Bedford", "location": {"lat": 42.47, "lon": -71.289}, "countryCode": "US"}, "averageDailyFlights": 0.86, "operators": [{"name": "JAS"}, {"name": "GAJ"}, {"name": "NetJets Aviation", "iata": "1I", "icao": "EJA"}, {"name": "TWY"}]}, {"destination": {"icao": "KIAD", "iata": "IAD", "name": "District of Columbia Washington Dulles", "shortName": "Washington Dulles", "municipalityName": "District of Columbia", "location": {"lat": 38.9445, "lon": -77.4558}, "countryCode": "US"}, "averageDailyFlights": 0.71, "operators": [{"name": "NetJets Aviation", "iata": "1I", "icao": "EJA"}, {"name": "EJM"}, {"name": "LXJ"}, {"name": "KPO"}]}, {"destination": {"icao": "KPBI", "iata": "PBI", "name": "West Palm Beach Palm Beach", "shortName": "Palm Beach", "municipalityName": "West Palm Beach", "location": {"lat": 26.6832, "lon": -80.0956}, "countryCode": "US"}, "averageDailyFlights": 0.71, "operators": [{"name": "Frontier Airlines", "iata": "F9", "icao": "FFT"}, {"name": "MVP"}]}, {"destination": {"icao": "KRDU", "iata": "RDU", "name": "Raleigh/Durham Raleigh Durham", "shortName": "Raleigh Durham", "municipalityName": "Raleigh/Durham", "location": {"lat": 35.8776, "lon": -78.7875}, "countryCode": "US"}, "averageDailyFlights": 0.57, "operators": [{"name": "Frontier Airlines", "iata": "F9", "icao": "FFT"}]}, {"destination": {"icao": "KCLT", "iata": "CLT", "name": "Charlotte Douglas", "shortName": "Douglas", "municipalityName": "Charlotte", "location": {"lat": 35.214, "lon": -80.9431}, "countryCode": "US"}, "averageDailyFlights": 0.43, "operators": [{"name": "Frontier Airlines", "iata": "F9", "icao": "FFT"}]}, {"destination": {"icao": "KRSW", "iata": "RSW", "name": "Fort Myers Southwest Florida", "shortName": "Southwest Florida", "municipalityName": "Fort Myers", "location": {"lat": 26.5362, "lon": -81.7552}, "countryCode": "US"}, "averageDailyFlights": 0.43, "operators": [{"name": "Frontier Airlines", "iata": "F9", "icao": "FFT"}]}, {"destination": {"icao": "KFOK", "iata": "FOK", "name": "Westhampton Beach Francis S Gabreski", "shortName": "Francis S Gabreski", "municipalityName": "Westhampton Beach", "location": {"lat": 40.8437, "lon": -72.6318}, "countryCode": "US"}, "averageDailyFlights": 0.43, "operators": [{"name": "National Airlines", "iata": "N8", "icao": "NCR"}, {"name": "JRE"}, {"name": "NetJets Aviation", "iata": "1I", "icao": "EJA"}]}, {"destination": {"icao": "KPDK", "iata": "PDK", "name": "Atlanta DeKalb Peachtree", "shortName": "DeKalb Peachtree", "municipalityName": "Atlanta", "location": {"lat": 33.8756, "lon": -84.302}, "countryCode": "US"}, "averageDailyFlights": 0.29, "operators": [{"name": "TCA", "iata": "N6", "icao": "TZS"}, {"name": "GAJ"}]}, {"destination": {"icao": "KGAI", "iata": "GAI", "name": "Gaithersburg Montgomery County Airpark", "shortName": "Montgomery County Airpark", "municipalityName": "Gaithersburg", "location": {"lat": 39.1683, "lon": -77.166}, "countryCode": "US"}, "averageDailyFlights": 0.29, "operators": [{"name": "Nolinor", "iata": "N5", "icao": "NRL"}]}, {"destination": {"icao": "KMDT", "iata": "MDT", "name": "Harrisburg ", "shortName": "Harrisburg", "municipalityName": "Harrisburg", "location": {"lat": 40.1935, "lon": -76.7634}, "countryCode": "US"}, "averageDailyFlights": 0.29, "operators": [{"name": "GAJ"}, {"name": "CXK"}]}, {"destination": {"icao": "KISP", "iata": "ISP", "name": "Islip Long Island Mac Arthur", "shortName": "Long Island Mac Arthur", "municipalityName": "Islip", "location": {"lat": 40.7952, "lon": -73.1002}, "countryCode": "US"}, "averageDailyFlights": 0.29, "operators": [{"name": "FTH"}, {"name": "CXK"}]}, {"destination": {"icao": "KLNS", "iata": "LNS", "name": "Lancaster ", "shortName": "Lancaster", "municipalityName": "Lancaster", "location": {"lat": 40.1217, "lon": -76.2961}, "countryCode": "US"}, "averageDailyFlights": 0.29, "operators": [{"name": "Nordwind Airlines", "iata": "N4", "icao": "NWS"}, {"name": "CXK"}]}, {"destination": {"icao": "KMVY", "iata": "MVY", "name": "Martha's Vineyard ", "shortName": "Martha's Vineyard", "municipalityName": "Martha's Vineyard", "location": {"lat": 41.3931, "lon": -70.6143}, "countryCode": "US"}, "averageDailyFlights": 0.29, "operators": [{"name": "National Airlines", "iata": "N8", "icao": "NCR"}]}, {"destination": {"icao": "KAPF", "iata": "APF", "name": "Naples Municipal", "shortName": "Municipal", "municipalityName": "Naples", "location": {"lat": 26.1526, "lon": -81.7753}, "countryCode": "US"}, "averageDailyFlights": 0.29, "operators": [{"name": "NetJets Aviation", "iata": "1I", "icao": "EJA"}, {"name": "GAJ"}]}, {"destination": {"icao": "KOXB", "iata": "OCE", "name": "Ocean City Municipal", "shortName": "Municipal", "municipalityName": "Ocean City", "location": {"lat": 38.3104, "lon": -75.124}, "countryCode": "US"}, "averageDailyFlights": 0.29, "operators": [{"name": "N2"}, {"name": "Kabo Air", "iata": "N9", "icao": "QNK"}]}, {"destination": {"icao": "KPHL", "iata": "PHL", "name": "Philadelphia ", "shortName": "Philadelphia", "municipalityName": "Philadelphia", "location": {"lat": 39.8719, "lon": -75.2411}, "countryCode": "US"}, "averageDailyFlights": 0.29, "operators": [{"name": "GAJ"}, {"name": "EJM"}]}, {"destination": {"icao": "KRDG", "iata": "RDG", "name": "Reading Regional Carl A Spaatz Field", "shortName": "Regional Carl A Spaatz Field", "municipalityName": "Reading", "location": {"lat": 40.3785, "lon": -75.9652}, "countryCode": "US"}, "averageDailyFlights": 0.29, "operators": [{"name": "TCA", "iata": "N6", "icao": "TZS"}, {"name": "CXK"}]}, {"destination": {"icao": "KFOE", "iata": "FOE", "name": "Topeka Regional  - Forbes Field", "shortName": "Regional  - Forbes Field", "municipalityName": "Topeka", "location": {"lat": 38.9509, "lon": -95.6636}, "countryCode": "US"}, "averageDailyFlights": 0.29, "operators": [{"name": "IFG"}]}, {"destination": {"icao": "KIPT", "iata": "IPT", "name": "Williamsport Regional", "shortName": "Regional", "municipalityName": "Williamsport", "location": {"lat": 41.2418, "lon": -76.9211}, "countryCode": "US"}, "averageDailyFlights": 0.29, "operators": [{"name": "N2"}]}, {"destination": {"icao": "KAKR", "iata": "AKC", "name": "Akron Fulton", "shortName": "Fulton", "municipalityName": "Akron", "location": {"lat": 41.0375, "lon": -81.4669}, "countryCode": "US"}, "averageDailyFlights": 0.14, "operators": [{"name": "NetJets Aviation", "iata": "1I", "icao": "EJA"}]}, {"destination": {"icao": "KAVL", "iata": "AVL", "name": "Asheville Regional", "shortName": "Regional", "municipalityName": "Asheville", "location": {"lat": 35.4362, "lon": -82.5418}, "countryCode": "US"}, "averageDailyFlights": 0.14, "operators": [{"name": "NetJets Aviation", "iata": "1I", "icao": "EJA"}]}, {"destination": {"icao": "KBWI", "iata": "BWI", "name": "Baltimore Washington  Thurgood Marshall", "shortName": "Washington  Thurgood Marshall", "municipalityName": "Baltimore", "location": {"lat": 39.1754, "lon": -76.6683}, "countryCode": "US"}, "averageDailyFlights": 0.14, "operators": [{"name": "NEW"}]}, {"destination": {"icao": "KBCT", "iata": "BCT", "name": "Boca Raton ", "shortName": "Boca Raton", "municipalityName": "Boca Raton", "location": {"lat": 26.378498, "lon": -80.1077}, "countryCode": "US"}, "averageDailyFlights": 0.14, "operators": [{"name": "KOW"}]}, {"destination": {"icao": "KCHS", "iata": "CHS", "name": "Charleston Air Force Base-", "shortName": "Air Force Base-", "municipalityName": "Charleston", "location": {"lat": 32.8986, "lon": -80.0405}, "countryCode": "US"}, "averageDailyFlights": 0.14, "operators": [{"name": "My Jet Xpress Airlines", "iata": "N7", "icao": "NEP"}]}, {"destination": {"icao": "KLOT", "iata": "LOT", "name": "Chicago/Romeoville Lewis University", "shortName": "Lewis University", "municipalityName": "Chicago/Romeoville", "location": {"lat": 41.6073, "lon": -88.0962}, "countryCode": "US"}, "averageDailyFlights": 0.14, "operators": [{"name": "LKF"}]}, {"destination": {"icao": "KCGF", "iata": "CGF", "name": "Cleveland Cuyahoga County", "shortName": "Cuyahoga County", "municipalityName": "Cleveland", "location": {"lat": 41.5651, "lon": -81.4864}, "countryCode": "US"}, "averageDailyFlights": 0.14, "operators": [{"name": "NetJets Aviation", "iata": "1I", "icao": "EJA"}]}, {"destination": {"icao": "KCOS", "iata": "COS", "name": "Colorado Springs City of  Municipal", "shortName": "City of  Municipal", "municipalityName": "Colorado Springs", "location": {"lat": 38.8058, "lon": -104.701}, "countryCode": "US"}, "averageDailyFlights": 0.14, "operators": [{"name": "NetJets Aviation", "iata": "1I", "icao": "EJA"}]}, {"destination": {"icao": "KDAL", "iata": "DAL", "name": "Dallas Love Field", "shortName": "Love Field", "municipalityName": "Dallas", "location": {"lat": 32.8471, "lon": -96.8518}, "countryCode": "US"}, "averageDailyFlights": 0.14, "operators": [{"name": "NetJets Aviation", "iata": "1I", "icao": "EJA"}]}, {"destination": {"icao": "KGON", "iata": "GON", "name": "Groton (New London) Groton New London", "shortName": "Groton New London", "municipalityName": "Groton (New London)", "location": {"lat": 41.3301, "lon": -72.0451}, "countryCode": "US"}, "averageDailyFlights": 0.14, "operators": [{"name": "JRE"}]}, {"destination": {"icao": "KLCI", "iata": "LCI", "name": "Laconia Municipal", "shortName": "Municipal", "municipalityName": "Laconia", "location": {"lat": 43.5727, "lon": -71.4189}, "countryCode": "US"}, "averageDailyFlights": 0.14, "operators": [{"name": "CNS"}]}, {"destination": {"icao": "KSDF", "iata": "SDF", "name": "Louisville Standiford Field", "shortName": "Standiford Field", "municipalityName": "Louisville", "location": {"lat": 38.1744, "lon": -85.736}, "countryCode": "US"}, "averageDailyFlights": 0.14, "operators": [{"name": "NetJets Aviation", "iata": "1I", "icao": "EJA"}]}, {"destination": {"icao": "KMIA", "iata": "MIA", "name": "Miami ", "shortName": "Miami", "municipalityName": "Miami", "location": {"lat": 25.7932, "lon": -80.2906}, "countryCode": "US"}, "averageDailyFlights": 0.14, "operators": [{"name": "NetJets Aviation", "iata": "1I", "icao": "EJA"}]}, {"destination": {"icao": "KMKE", "iata": "MKE", "name": "Milwaukee General Mitchell", "shortName": "General Mitchell", "municipalityName": "Milwaukee", "location": {"lat": 42.9472, "lon": -87.8966}, "countryCode": "US"}, "averageDailyFlights": 0.14, "operators": [{"name": "SCW"}]}, {"destination": {"icao": "KMYR", "iata": "MYR", "name": "Myrtle Beach ", "shortName": "Myrtle Beach", "municipalityName": "Myrtle Beach", "location": {"lat": 33.6797, "lon": -78.9283}, "countryCode": "US"}, "averageDailyFlights": 0.14, "operators": [{"name": "SDU"}]}, {"destination": {"icao": "KBNA", "iata": "BNA", "name": "Nashville ", "shortName": "Nashville", "municipalityName": "Nashville", "location": {"lat": 36.1245, "lon": -86.6782}, "countryCode": "US"}, "averageDailyFlights": 0.14, "operators": [{"name": "National Airlines", "iata": "N8", "icao": "NCR"}]}, {"destination": {"icao": "KHVN", "iata": "HVN", "name": "New Haven Tweed", "shortName": "Tweed", "municipalityName": "New Haven", "location": {"lat": 41.2637, "lon": -72.8868}, "countryCode": "US"}, "averageDailyFlights": 0.14, "operators": [{"name": "NetJets Aviation", "iata": "1I", "icao": "EJA"}]}, {"destination": {"icao": "KOJC", "iata": "OJC", "name": "Olathe Johnson County Executive", "shortName": "Johnson County Executive", "municipalityName": "Olathe", "location": {"lat": 38.8476, "lon": -94.7376}, "countryCode": "US"}, "averageDailyFlights": 0.14, "operators": [{"name": "NetJets Aviation", "iata": "1I", "icao": "EJA"}]}, {"destination": {"icao": "KLOM", "iata": "BBX", "name": "Philadelphia Wings Field", "shortName": "Wings Field", "municipalityName": "Philadelphia", "location": {"lat": 40.1375, "lon": -75.2651}, "countryCode": "US"}, "averageDailyFlights": 0.14, "operators": [{"name": "NetJets Aviation", "iata": "1I", "icao": "EJA"}]}, {"destination": {"icao": "KPSM", "iata": "PSM", "name": "Portsmouth at Pease", "shortName": "at Pease", "municipalityName": "Portsmouth", "location": {"lat": 43.0779, "lon": -70.8233}, "countryCode": "US"}, "averageDailyFlights": 0.14, "operators": [{"name": "Nordwind Airlines", "iata": "N4", "icao": "NWS"}]}, {"destination": {"icao": "KPQI", "iata": "PQI", "name": "Presque Isle Northern Maine Regional  at", "shortName": "Northern Maine Regional  at", "municipalityName": "Presque Isle", "location": {"lat": 46.689, "lon": -68.0448}, "countryCode": "US"}, "averageDailyFlights": 0.14, "operators": [{"name": "LXJ"}]}, {"destination": {"icao": "KPVD", "iata": "PVD", "name": "Providence Theodore Francis Green State", "shortName": "Theodore Francis Green State", "municipalityName": "Providence", "location": {"lat": 41.7326, "lon": -71.4204}, "countryCode": "US"}, "averageDailyFlights": 0.14, "operators": [{"name": "EJM"}]}, {"destination": {"icao": "KRST", "iata": "RST", "name": "Rochester ", "shortName": "Rochester", "municipalityName": "Rochester", "location": {"lat": 43.9083, "lon": -92.5}, "countryCode": "US"}, "averageDailyFlights": 0.14, "operators": [{"name": "EJM"}]}, {"destination": {"icao": "KSBY", "iata": "SBY", "name": "Salisbury Ocean City Wicomico Regional", "shortName": "Ocean City Wicomico Regional", "municipalityName": "Salisbury", "location": {"lat": 38.3405, "lon": -75.5103}, "countryCode": "US"}, "averageDailyFlights": 0.14, "operators": [{"name": "N2"}]}, {"destination": {"icao": "KSAN", "iata": "SAN", "name": "San Diego ", "shortName": "San Diego", "municipalityName": "San Diego", "location": {"lat": 32.7336, "lon": -117.19}, "countryCode": "US"}, "averageDailyFlights": 0.14, "operators": [{"name": "NetJets Aviation", "iata": "1I", "icao": "EJA"}]}, {"destination": {"icao": "KSRQ", "iata": "SRQ", "name": "Sarasota/Bradenton Sarasota Bradenton", "shortName": "Sarasota Bradenton", "municipalityName": "Sarasota/Bradenton", "location": {"lat": 27.3954, "lon": -82.5544}, "countryCode": "US"}, "averageDailyFlights": 0.14, "operators": [{"name": "LXJ"}]}, {"destination": {"icao": "KWST", "iata": "WST", "name": "Westerly State", "shortName": "State", "municipalityName": "Westerly", "location": {"lat": 41.3496, "lon": -71.8034}, "countryCode": "US"}, "averageDailyFlights": 0.14, "operators": [{"name": "AXQ"}]}, {"destination": {"icao": "KHPN", "iata": "HPN", "name": "White Plains Westchester County", "shortName": "Westchester County", "municipalityName": "White Plains", "location": {"lat": 41.067, "lon": -73.7076}, "countryCode": "US"}, "averageDailyFlights": 0.14, "operators": [{"name": "CNS"}]}, {"destination": {"icao": "KAVP", "iata": "AVP", "name": "Wilkes-Barre/Scranton Wilkes Barre Scranton", "shortName": "Wilkes Barre Scranton", "municipalityName": "Wilkes-Barre/Scranton", "location": {"lat": 41.3385, "lon": -75.7234}, "countryCode": "US"}, "averageDailyFlights": 0.14, "operators": [{"name": "Nordwind Airlines", "iata": "N4", "icao": "NWS"}]}]}