{"routes": [{"destination": {"icao": "EDDL", "iata": "DUS", "name": "Duesseldorf D\u00fcsseldorf", "shortName": "D\u00fcsseldorf", "municipalityName": "Duesseldorf", "location": {"lat": 51.2895, "lon": 6.766779}, "countryCode": "DE"}, "averageDailyFlights": 19.43, "operators": [{"name": "Sun Express", "iata": "XQ", "icao": "SXS"}, {"name": "Freebird Airlines", "iata": "FH", "icao": "FHY"}, {"name": "Corendon Air", "iata": "XC", "icao": "CAI"}, {"name": "Pegasus", "iata": "PC", "icao": "PGT"}, {"name": "Turkish Airlines", "iata": "TK", "icao": "THY"}, {"name": "Air Stork", "iata": "2S", "icao": "MSB"}, {"name": "Condor", "iata": "DE", "icao": "CFG"}, {"name": "Tailwind", "iata": "TI", "icao": "TWI"}, {"name": "Eurowings", "iata": "EW", "icao": "EWG"}]}, {"destination": {"icao": "LTFM", "iata": "IST", "name": "Istanbul ", "shortName": "Istanbul", "municipalityName": "Istanbul", "location": {"lat": 41.275276, "lon": 28.751944}, "countryCode": "TR"}, "averageDailyFlights": 17.29, "operators": [{"name": "Turkish Airlines", "iata": "TK", "icao": "THY"}]}, {"destination": {"icao": "LLBG", "iata": "TLV", "name": "Tel Aviv Yafo Ben Gurion", "shortName": "Ben Gurion", "municipalityName": "Tel Aviv Yafo", "location": {"lat": 32.0114, "lon": 34.8867}, "countryCode": "IL"}, "averageDailyFlights": 14.26, "operators": [{"name": "Corendon Air", "iata": "XC", "icao": "CAI"}, {"name": "Pegasus", "iata": "PC", "icao": "PGT"}, {"name": "Turkish Airlines"}, {"name": "Air Stork", "iata": "2S", "icao": "MSB"}, {"name": "Tailwind", "iata": "TI", "icao": "TWI"}, {"name": "Sun Express", "iata": "XQ", "icao": "SXS"}, {"name": "Freebird Airlines", "iata": "FH", "icao": "FHY"}]}, {"destination": {"icao": "EDDB", "iata": "BER", "name": "Berlin Brandenburg", "shortName": "Brandenburg", "municipalityName": "Berlin", "location": {"lat": 52.35139, "lon": 13.493889}, "countryCode": "DE"}, "averageDailyFlights": 12.43, "operators": [{"name": "Pegasus", "iata": "PC", "icao": "PGT"}, {"name": "Sun Express", "iata": "XQ", "icao": "SXS"}, {"name": "Freebird Airlines", "iata": "FH", "icao": "FHY"}, {"name": "Turkish Airlines", "iata": "TK", "icao": "THY"}, {"name": "Eurowings", "iata": "EW", "icao": "EWG"}, {"name": "Tailwind", "iata": "TI", "icao": "TWI"}, {"name": "LATAM Argentina", "iata": "4M", "icao": "DSM"}, {"name": "Corendon Air", "iata": "XC", "icao": "CAI"}, {"name": "Air Stork", "iata": "2S", "icao": "MSB"}]}, {"destination": {"icao": "LTFJ", "iata": "SAW", "name": "Istanbul Sabiha G\u00f6k\u00e7en", "shortName": "Sabiha G\u00f6k\u00e7en", "municipalityName": "Istanbul", "location": {"lat": 40.8986, "lon": 29.3092}, "countryCode": "TR"}, "averageDailyFlights": 12.29, "operators": [{"name": "Pegasus", "iata": "PC", "icao": "PGT"}]}, {"destination": {"name": "Vnukovo"}, "averageDailyFlights": 12.14, "operators": [{"name": "Turkish Airlines", "iata": "TK", "icao": "THY"}, {"name": "AZUR Air", "iata": "ZF", "icao": "KTK"}, {"name": "Pobeda", "iata": "DP", "icao": "PBD"}, {"name": "Pegasus", "iata": "PC", "icao": "PGT"}]}, {"destination": {"icao": "EDDK", "iata": "CGN", "name": "Cologne Bonn", "shortName": "Bonn", "municipalityName": "Cologne", "location": {"lat": 50.8659, "lon": 7.142739}, "countryCode": "DE"}, "averageDailyFlights": 11.72, "operators": [{"name": "Pegasus", "iata": "PC", "icao": "PGT"}, {"name": "Freebird Airlines", "iata": "FH", "icao": "FHY"}, {"name": "Sun Express", "iata": "XQ", "icao": "SXS"}, {"name": "Eurowings", "iata": "EW", "icao": "EWG"}, {"name": "SundAir", "iata": "SR", "icao": "SDR"}, {"name": "Corendon Air", "iata": "XC", "icao": "CAI"}, {"name": "Turkish Airlines", "iata": "TK", "icao": "THY"}, {"name": "Tailwind", "iata": "TI", "icao": "TWI"}, {"name": "LATAM Argentina", "iata": "4M", "icao": "DSM"}, {"name": "Air Stork", "iata": "2S", "icao": "MSB"}]}, {"destination": {"icao": "EDDS", "iata": "STR", "name": "Stuttgart ", "shortName": "Stuttgart", "municipalityName": "Stuttgart", "location": {"lat": 48.6899, "lon": 9.22196}, "countryCode": "DE"}, "averageDailyFlights": 10.43, "operators": [{"name": "Air Stork", "iata": "2S", "icao": "MSB"}, {"name": "Pegasus", "iata": "PC", "icao": "PGT"}, {"name": "Sun Express", "iata": "XQ", "icao": "SXS"}, {"name": "Tailwind", "iata": "TI", "icao": "TWI"}, {"name": "LATAM Argentina", "iata": "4M", "icao": "DSM"}, {"name": "Freebird Airlines", "iata": "FH", "icao": "FHY"}, {"name": "Corendon Air", "iata": "XC", "icao": "CAI"}, {"name": "Turkish Airlines", "iata": "TK", "icao": "THY"}, {"name": "Eurowings", "iata": "EW", "icao": "EWG"}]}, {"destination": {"icao": "EDDV", "iata": "HAJ", "name": "Hanover Hannover", "shortName": "Hannover", "municipalityName": "Hanover", "location": {"lat": 52.4611, "lon": 9.685079}, "countryCode": "DE"}, "averageDailyFlights": 10.29, "operators": [{"name": "Sun Express", "iata": "XQ", "icao": "SXS"}, {"name": "Turkish Airlines", "iata": "TK", "icao": "THY"}, {"name": "Pegasus", "iata": "PC", "icao": "PGT"}, {"name": "Corendon Air", "iata": "XC", "icao": "CAI"}, {"name": "Freebird Airlines", "iata": "FH", "icao": "FHY"}, {"name": "Air Stork", "iata": "2S", "icao": "MSB"}, {"name": "Tailwind", "iata": "TI", "icao": "TWI"}, {"name": "LATAM Argentina", "iata": "4M", "icao": "DSM"}]}, {"destination": {"icao": "EDDF", "iata": "FRA", "name": "Frankfurt-am-Main ", "shortName": "Frankfurt-am-Main", "municipalityName": "Frankfurt-am-Main", "location": {"lat": 50.0264, "lon": 8.543129}, "countryCode": "DE"}, "averageDailyFlights": 9.96, "operators": [{"name": "Lufthansa", "iata": "LH", "icao": "DLH"}, {"name": "Pegasus", "iata": "PC", "icao": "PGT"}, {"name": "Sun Express", "iata": "XQ", "icao": "SXS"}, {"name": "Turkish Airlines", "iata": "TK", "icao": "THY"}, {"name": "Condor", "iata": "DE", "icao": "CFG"}, {"name": "Freebird Airlines", "iata": "FH", "icao": "FHY"}, {"name": "Eurowings Discover", "iata": "4Y", "icao": "OCN"}, {"name": "Corendon Air", "iata": "XC", "icao": "CAI"}, {"name": "LATAM Argentina", "iata": "4M", "icao": "DSM"}]}, {"destination": {"icao": "LSZH", "iata": "ZRH", "name": "Zurich Kloten", "shortName": "Kloten", "municipalityName": "Zurich", "location": {"lat": 47.4647, "lon": 8.549169}, "countryCode": "CH"}, "averageDailyFlights": 8.86, "operators": [{"name": "Turkish Airlines", "iata": "TK", "icao": "THY"}, {"name": "Tailwind", "iata": "TI", "icao": "TWI"}, {"name": "Sun Express", "iata": "XQ", "icao": "SXS"}, {"name": "Pegasus", "iata": "PC", "icao": "PGT"}, {"name": "SWISS", "iata": "LX", "icao": "SWR"}, {"name": "Helvetic Airways", "iata": "2L", "icao": "OAW"}, {"name": "Corendon Air", "iata": "XC", "icao": "CAI"}, {"name": "Air Stork", "iata": "2S", "icao": "MSB"}]}, {"destination": {"icao": "EDDP", "iata": "LEJ", "name": "Leipzig Halle", "shortName": "Halle", "municipalityName": "Leipzig", "location": {"lat": 51.4324, "lon": 12.2416}, "countryCode": "DE"}, "averageDailyFlights": 8.68, "operators": [{"name": "Sun Express", "iata": "XQ", "icao": "SXS"}, {"name": "Corendon Air", "iata": "XC", "icao": "CAI"}, {"name": "Condor", "iata": "DE", "icao": "CFG"}, {"name": "Pegasus", "iata": "PC", "icao": "PGT"}, {"name": "Freebird Airlines", "iata": "FH", "icao": "FHY"}, {"name": "Air Stork", "iata": "2S", "icao": "MSB"}, {"name": "Tailwind", "iata": "TI", "icao": "TWI"}, {"name": "Turkish Airlines", "iata": "TK", "icao": "THY"}, {"name": "LATAM Argentina", "iata": "4M", "icao": "DSM"}]}, {"destination": {"icao": "EDDH", "iata": "HAM", "name": "Hamburg ", "shortName": "Hamburg", "municipalityName": "Hamburg", "location": {"lat": 53.6304, "lon": 9.988229}, "countryCode": "DE"}, "averageDailyFlights": 8.57, "operators": [{"name": "Sun Express", "iata": "XQ", "icao": "SXS"}, {"name": "Tailwind", "iata": "TI", "icao": "TWI"}, {"name": "Pegasus", "iata": "PC", "icao": "PGT"}, {"name": "Condor", "iata": "DE", "icao": "CFG"}, {"name": "Corendon Air", "iata": "XC", "icao": "CAI"}, {"name": "Air Stork", "iata": "2S", "icao": "MSB"}, {"name": "Freebird Airlines", "iata": "FH", "icao": "FHY"}, {"name": "LATAM Argentina", "iata": "4M", "icao": "DSM"}, {"name": "SundAir", "iata": "SR", "icao": "SDR"}]}, {"destination": {"icao": "EGCC", "iata": "MAN", "name": "Manchester ", "shortName": "Manchester", "municipalityName": "Manchester", "location": {"lat": 53.3537, "lon": -2.27495}, "countryCode": "GB"}, "averageDailyFlights": 8.57, "operators": [{"name": "TUI Airways", "iata": "BY", "icao": "TOM"}, {"name": "Pegasus", "iata": "PC", "icao": "PGT"}, {"name": "Sun Express", "iata": "XQ", "icao": "SXS"}, {"name": "easyJet", "iata": "U2", "icao": "EZY"}, {"name": "Jet2", "iata": "LS", "icao": "EXS"}, {"name": "Corendon Air", "iata": "XC", "icao": "CAI"}]}, {"destination": {"icao": "LTAC", "iata": "ESB", "name": "Ankara Esenbo\u011fa", "shortName": "Esenbo\u011fa", "municipalityName": "Ankara", "location": {"lat": 40.1281, "lon": 32.9951}, "countryCode": "TR"}, "averageDailyFlights": 8.29, "operators": [{"name": "Turkish Airlines", "iata": "TK", "icao": "THY"}, {"name": "Pegasus", "iata": "PC", "icao": "PGT"}]}, {"destination": {"icao": "EPWA", "iata": "WAW", "name": "Warsaw Chopin", "shortName": "Chopin", "municipalityName": "Warsaw", "location": {"lat": 52.1657, "lon": 20.9671}, "countryCode": "PL"}, "averageDailyFlights": 8.0, "operators": [{"name": "Tailwind", "iata": "TI", "icao": "TWI"}, {"name": "Sun Express", "iata": "XQ", "icao": "SXS"}, {"name": "Freebird Airlines", "iata": "FH", "icao": "FHY"}, {"name": "Corendon Air", "iata": "XC", "icao": "CAI"}, {"name": "Royal Air Force", "iata": "RR", "icao": "RFR"}, {"name": "LATAM Argentina", "iata": "4M", "icao": "DSM"}, {"name": "LOT - Polish Airlines", "iata": "LO", "icao": "LOT"}, {"name": "Enter Air"}, {"name": "Smartwings Poland", "iata": "3Z", "icao": "TVP"}]}, {"destination": {"name": "Domodedovo"}, "averageDailyFlights": 7.71, "operators": [{"name": "S7 Airlines", "iata": "S7", "icao": "SBI"}, {"name": "Turkish Airlines", "iata": "TK", "icao": "THY"}, {"name": "Yamal Airlines", "iata": "YC", "icao": "LLM"}, {"name": "Corendon Air", "iata": "XC", "icao": "CAI"}, {"name": "IrAero", "iata": "IO", "icao": "IAE"}, {"name": "Red Wings", "iata": "WZ", "icao": "RWZ"}]}, {"destination": {"name": "Sheremetyevo"}, "averageDailyFlights": 7.71, "operators": [{"name": "Aeroflot", "iata": "SU", "icao": "AFL"}, {"name": "Air Stork", "iata": "2S", "icao": "MSB"}, {"name": "Corendon Air", "iata": "XC", "icao": "CAI"}]}, {"destination": {"icao": "EPKT", "iata": "KTW", "name": "Katowice ", "shortName": "Katowice", "municipalityName": "Katowice", "location": {"lat": 50.4743, "lon": 19.08}, "countryCode": "PL"}, "averageDailyFlights": 7.56, "operators": [{"name": "Corendon Air", "iata": "XC", "icao": "CAI"}, {"name": "Amc Aviation"}, {"name": "Royal Air Force", "iata": "RR", "icao": "RFR"}, {"name": "LOT - Polish Airlines", "iata": "LO", "icao": "LOT"}, {"name": "Tailwind", "iata": "TI", "icao": "TWI"}, {"name": "Enter Air"}, {"name": "LATAM Argentina", "iata": "4M", "icao": "DSM"}, {"name": "Pegasus", "iata": "PC", "icao": "PGT"}, {"name": "Smartwings Poland", "iata": "3Z", "icao": "TVP"}, {"name": "Freebird Airlines", "iata": "FH", "icao": "FHY"}]}, {"destination": {"icao": "EGKK", "iata": "LGW", "name": "London Gatwick", "shortName": "Gatwick", "municipalityName": "London", "location": {"lat": 51.1481, "lon": -0.190277}, "countryCode": "GB"}, "averageDailyFlights": 7.0, "operators": [{"name": "Sun Express", "iata": "XQ", "icao": "SXS"}, {"name": "Corendon Air", "iata": "XC", "icao": "CAI"}, {"name": "easyJet", "iata": "U2", "icao": "EZY"}, {"name": "Freebird Airlines", "iata": "FH", "icao": "FHY"}, {"name": "Wizz Air UK", "iata": "W9", "icao": "WUK"}]}, {"destination": {"icao": "LKPR", "iata": "PRG", "name": "Prague Ruzyn\u011b", "shortName": "Ruzyn\u011b", "municipalityName": "Prague", "location": {"lat": 50.1008, "lon": 14.26}, "countryCode": "CZ"}, "averageDailyFlights": 6.86, "operators": [{"name": "Sun Express", "iata": "XQ", "icao": "SXS"}, {"name": "CSA", "iata": "OK", "icao": "CSA"}, {"name": "SmartWings", "iata": "QS", "icao": "TVS"}, {"name": "Tailwind", "iata": "TI", "icao": "TWI"}, {"name": "Freebird Airlines", "iata": "FH", "icao": "FHY"}, {"name": "Corendon Air", "iata": "XC", "icao": "CAI"}]}, {"destination": {"name": "Chisinau"}, "averageDailyFlights": 6.86, "operators": [{"name": "Tailwind", "iata": "TI", "icao": "TWI"}, {"name": "Fly One", "iata": "5F", "icao": "FIA"}, {"name": "Freebird Airlines", "iata": "FH", "icao": "FHY"}, {"name": "Hisky Srl Moldova"}, {"name": "Turkish Airlines", "iata": "TK", "icao": "THY"}]}, {"destination": {"icao": "EDDN", "iata": "NUE", "name": "Nuremberg ", "shortName": "Nuremberg", "municipalityName": "Nuremberg", "location": {"lat": 49.4987, "lon": 11.0669}, "countryCode": "DE"}, "averageDailyFlights": 6.78, "operators": [{"name": "Pegasus", "iata": "PC", "icao": "PGT"}, {"name": "Sun Express", "iata": "XQ", "icao": "SXS"}, {"name": "Corendon Air", "iata": "XC", "icao": "CAI"}, {"name": "Freebird Airlines", "iata": "FH", "icao": "FHY"}, {"name": "Air Stork", "iata": "2S", "icao": "MSB"}, {"name": "Tailwind", "iata": "TI", "icao": "TWI"}, {"name": "LATAM Argentina", "iata": "4M", "icao": "DSM"}]}, {"destination": {"icao": "URSS", "iata": "AER", "localCode": "\u0421\u041e\u0427", "name": "Sochi ", "shortName": "Sochi", "municipalityName": "Sochi", "location": {"lat": 43.4499, "lon": 39.9566}, "countryCode": "RU"}, "averageDailyFlights": 6.71, "operators": [{"name": "Azimuth Airlines", "iata": "A4", "icao": "AZO"}, {"name": "Red Wings", "iata": "WZ", "icao": "RWZ"}, {"name": "IrAero", "iata": "IO", "icao": "IAE"}, {"name": "Rossiya Airlines", "iata": "FV", "icao": "SDM"}]}, {"destination": {"icao": "EDDM", "iata": "MUC", "name": "Munich ", "shortName": "Munich", "municipalityName": "Munich", "location": {"lat": 48.3538, "lon": 11.7861}, "countryCode": "DE"}, "averageDailyFlights": 5.73, "operators": [{"name": "Freebird Airlines", "iata": "FH", "icao": "FHY"}, {"name": "Corendon Air", "iata": "XC", "icao": "CAI"}, {"name": "Tailwind", "iata": "TI", "icao": "TWI"}, {"name": "Turkish Airlines", "iata": "TK", "icao": "THY"}, {"name": "Sun Express", "iata": "XQ", "icao": "SXS"}, {"name": "Pegasus", "iata": "PC", "icao": "PGT"}, {"name": "LATAM Argentina", "iata": "4M", "icao": "DSM"}, {"name": "Air Stork", "iata": "2S", "icao": "MSB"}, {"name": "Lufthansa", "iata": "LH", "icao": "DLH"}]}, {"destination": {"icao": "ULLI", "iata": "LED", "localCode": "\u041f\u041b\u041a", "name": "Saint-Petersburg Pulkovo", "shortName": "Pulkovo", "municipalityName": "Saint-Petersburg", "location": {"lat": 59.8003, "lon": 30.2625}, "countryCode": "RU"}, "averageDailyFlights": 5.57, "operators": [{"name": "Pegasus", "iata": "PC", "icao": "PGT"}, {"name": "Air Stork", "iata": "2S", "icao": "MSB"}, {"name": "Turkish Airlines", "iata": "TK", "icao": "THY"}, {"name": "Corendon Air", "iata": "XC", "icao": "CAI"}, {"name": "Aeroflot", "iata": "SU", "icao": "AFL"}]}, {"destination": {"icao": "USSS", "iata": "SVX", "localCode": "\u041a\u041b\u0426", "name": "Ekaterinburg Koltsovo", "shortName": "Koltsovo", "municipalityName": "Ekaterinburg", "location": {"lat": 56.7431, "lon": 60.8027}, "countryCode": "RU"}, "averageDailyFlights": 5.43, "operators": [{"name": "Aeroflot", "iata": "SU", "icao": "AFL"}, {"name": "AZUR Air", "iata": "ZF", "icao": "KTK"}, {"name": "Air Stork", "iata": "2S", "icao": "MSB"}, {"name": "Corendon Air", "iata": "XC", "icao": "CAI"}, {"name": "Red Wings", "iata": "WZ", "icao": "RWZ"}, {"name": "Pobeda", "iata": "DP", "icao": "PBD"}]}, {"destination": {"icao": "EYVI", "iata": "VNO", "localCode": "\u0412\u0418\u041b", "name": "Vilnius ", "shortName": "Vilnius", "municipalityName": "Vilnius", "location": {"lat": 54.6341, "lon": 25.2858}, "countryCode": "LT"}, "averageDailyFlights": 5.43, "operators": [{"name": "Corendon Air", "iata": "XC", "icao": "CAI"}, {"name": "GetJet Airlines", "iata": "GW", "icao": "GJT"}, {"name": "JSC Avion Express", "iata": "X9", "icao": "NVD"}, {"name": "Turkish Airlines", "iata": "TK", "icao": "THY"}, {"name": "LATAM Argentina", "iata": "4M", "icao": "DSM"}, {"name": "Freebird Airlines", "iata": "FH", "icao": "FHY"}, {"name": "Heston Airlines"}]}, {"destination": {"icao": "LFSB", "iata": "BSL", "name": "B\u00e2le/Mulhouse Euro Basel-Mulhouse-Freiburg", "shortName": "Euro Basel-Mulhouse-Freiburg", "municipalityName": "B\u00e2le/Mulhouse", "location": {"lat": 47.5896, "lon": 7.52991}, "countryCode": "FR"}, "averageDailyFlights": 5.0, "operators": [{"name": "Sun Express", "iata": "XQ", "icao": "SXS"}, {"name": "Tailwind", "iata": "TI", "icao": "TWI"}, {"name": "Corendon Air", "iata": "XC", "icao": "CAI"}, {"name": "Pegasus", "iata": "PC", "icao": "PGT"}]}, {"destination": {"icao": "LOWW", "iata": "VIE", "name": "Vienna Schwechat", "shortName": "Schwechat", "municipalityName": "Vienna", "location": {"lat": 48.1103, "lon": 16.5697}, "countryCode": "AT"}, "averageDailyFlights": 4.71, "operators": [{"name": "Sun Express", "iata": "XQ", "icao": "SXS"}, {"name": "Tailwind", "iata": "TI", "icao": "TWI"}, {"name": "Pegasus", "iata": "PC", "icao": "PGT"}, {"name": "Corendon Air", "iata": "XC", "icao": "CAI"}]}, {"destination": {"icao": "EDDG", "iata": "FMO", "name": "M\u00fcnster Osnabr\u00fcck", "shortName": "Osnabr\u00fcck", "municipalityName": "M\u00fcnster", "location": {"lat": 52.1346, "lon": 7.68483}, "countryCode": "DE"}, "averageDailyFlights": 4.57, "operators": [{"name": "Sun Express", "iata": "XQ", "icao": "SXS"}, {"name": "Corendon Air", "iata": "XC", "icao": "CAI"}]}, {"destination": {"icao": "EDLP", "iata": "PAD", "name": "Paderborn Lippstadt", "shortName": "Lippstadt", "municipalityName": "Paderborn", "location": {"lat": 51.6141, "lon": 8.616319}, "countryCode": "DE"}, "averageDailyFlights": 4.43, "operators": [{"name": "Freebird Airlines", "iata": "FH", "icao": "FHY"}, {"name": "Corendon Air", "iata": "XC", "icao": "CAI"}, {"name": "Pegasus", "iata": "PC", "icao": "PGT"}, {"name": "Sun Express", "iata": "XQ", "icao": "SXS"}, {"name": "Tailwind", "iata": "TI", "icao": "TWI"}]}, {"destination": {"icao": "EGSS", "iata": "STN", "name": "London Stansted", "shortName": "Stansted", "municipalityName": "London", "location": {"lat": 51.885, "lon": 0.234999}, "countryCode": "GB"}, "averageDailyFlights": 4.29, "operators": [{"name": "TUI Airways", "iata": "BY", "icao": "TOM"}, {"name": "Pegasus", "iata": "PC", "icao": "PGT"}, {"name": "Turkish Airlines", "iata": "TK", "icao": "THY"}, {"name": "Jet2", "iata": "LS", "icao": "EXS"}]}, {"destination": {"name": "Ist-S.G\u00f6kcen"}, "averageDailyFlights": 4.0, "operators": [{"name": "Pegasus", "iata": "PC", "icao": "PGT"}, {"name": "Turkish Airlines", "iata": "TK", "icao": "THY"}]}, {"destination": {"icao": "EBBR", "iata": "BRU", "name": "Brussels ", "shortName": "Brussels", "municipalityName": "Brussels", "location": {"lat": 50.9014, "lon": 4.484439}, "countryCode": "BE"}, "averageDailyFlights": 3.86, "operators": [{"name": "Turkish Airlines", "iata": "TK", "icao": "THY"}, {"name": "Freebird Airlines", "iata": "FH", "icao": "FHY"}, {"name": "Brussels Airlines", "iata": "SN", "icao": "BEL"}, {"name": "Pegasus", "iata": "PC", "icao": "PGT"}, {"name": "Corendon Air", "iata": "XC", "icao": "CAI"}, {"name": "TUI Airlines Belgium", "iata": "TB", "icao": "JAF"}]}, {"destination": {"icao": "URMM", "iata": "MRV", "localCode": "\u041c\u0420\u0412", "name": "Mineralnyye Vody ", "shortName": "Mineralnyye Vody", "municipalityName": "Mineralnyye Vody", "location": {"lat": 44.2251, "lon": 43.0819}, "countryCode": "RU"}, "averageDailyFlights": 3.86, "operators": [{"name": "Azimuth Airlines", "iata": "A4", "icao": "AZO"}, {"name": "Red Wings", "iata": "WZ", "icao": "RWZ"}, {"name": "Rossiya Airlines", "iata": "FV", "icao": "SDM"}]}, {"destination": {"name": "Minsk"}, "averageDailyFlights": 3.86, "operators": [{"name": "Belavia", "iata": "B2", "icao": "BRU"}]}, {"destination": {"icao": "EHAM", "iata": "AMS", "name": "Amsterdam Schiphol", "shortName": "Schiphol", "municipalityName": "Amsterdam", "location": {"lat": 52.3086, "lon": 4.763889}, "countryCode": "NL"}, "averageDailyFlights": 3.71, "operators": [{"name": "Pegasus", "iata": "PC", "icao": "PGT"}, {"name": "TUI Airlines Nederland (Netherlands)", "iata": "OR", "icao": "TFL"}, {"name": "Corendon Air", "iata": "XC", "icao": "CAI"}, {"name": "Transavia", "iata": "HV", "icao": "TRA"}, {"name": "Corendon Dutch Airlines", "iata": "CD", "icao": "CND"}]}, {"destination": {"icao": "LTBJ", "iata": "ADB", "name": "\u0130zmir Adnan Menderes", "shortName": "Adnan Menderes", "municipalityName": "\u0130zmir", "location": {"lat": 38.2924, "lon": 27.157}, "countryCode": "TR"}, "averageDailyFlights": 3.57, "operators": [{"name": "Sun Express", "iata": "XQ", "icao": "SXS"}, {"name": "Freebird Airlines", "iata": "FH", "icao": "FHY"}]}, {"destination": {"icao": "EVRA", "iata": "RIX", "localCode": "\u0420\u0418\u0425", "name": "Riga ", "shortName": "Riga", "municipalityName": "Riga", "location": {"lat": 56.9236, "lon": 23.9711}, "countryCode": "LV"}, "averageDailyFlights": 3.57, "operators": [{"name": "Turkish Airlines", "iata": "TK", "icao": "THY"}, {"name": "airBaltic", "iata": "BT", "icao": "BTI"}, {"name": "Freebird Airlines", "iata": "FH", "icao": "FHY"}, {"name": "Corendon Air", "iata": "XC", "icao": "CAI"}, {"name": "SmartLynx Airlines", "iata": "6Y", "icao": "ART"}, {"name": "LATAM Argentina", "iata": "4M", "icao": "DSM"}]}, {"destination": {"name": "Poznan"}, "averageDailyFlights": 3.57, "operators": [{"name": "Enter Air"}, {"name": "LATAM Argentina", "iata": "4M", "icao": "DSM"}, {"name": "Royal Air Force", "iata": "RR", "icao": "RFR"}, {"name": "Amc Aviation"}, {"name": "Pegasus", "iata": "PC", "icao": "PGT"}]}, {"destination": {"icao": "EETN", "iata": "TLL", "localCode": "TLL", "name": "Tallinn Lennart Meri", "shortName": "Lennart Meri", "municipalityName": "Tallinn", "location": {"lat": 59.4133, "lon": 24.8328}, "countryCode": "EE"}, "averageDailyFlights": 3.48, "operators": [{"name": "Pegasus", "iata": "PC", "icao": "PGT"}, {"name": "Sun Express", "iata": "XQ", "icao": "SXS"}, {"name": "Corendon Air", "iata": "XC", "icao": "CAI"}, {"name": "Smartlynx Airlines\u2026"}, {"name": "LATAM Argentina", "iata": "4M", "icao": "DSM"}, {"name": "Turkish Airlines", "iata": "TK", "icao": "THY"}, {"name": "Freebird Airlines", "iata": "FH", "icao": "FHY"}]}, {"destination": {"icao": "EGBB", "iata": "BHX", "name": "Birmingham ", "shortName": "Birmingham", "municipalityName": "Birmingham", "location": {"lat": 52.4539, "lon": -1.748029}, "countryCode": "GB"}, "averageDailyFlights": 3.43, "operators": [{"name": "Jet2", "iata": "LS", "icao": "EXS"}, {"name": "Sun Express", "iata": "XQ", "icao": "SXS"}, {"name": "Freebird Airlines", "iata": "FH", "icao": "FHY"}, {"name": "Corendon Air", "iata": "XC", "icao": "CAI"}, {"name": "TUI Airways", "iata": "BY", "icao": "TOM"}]}, {"destination": {"icao": "LCEN", "iata": "ECN", "name": "Nicosia Ercan", "shortName": "Ercan", "municipalityName": "Nicosia", "location": {"lat": 35.1547, "lon": 33.4961}, "countryCode": "CY"}, "averageDailyFlights": 3.43, "operators": [{"name": "Pegasus", "iata": "PC", "icao": "PGT"}, {"name": "Turkish Airlines", "iata": "TK", "icao": "THY"}]}, {"destination": {"icao": "UWWW", "iata": "KUF", "localCode": "\u0421\u041a\u0427", "name": "Samara Kurumoch", "shortName": "Kurumoch", "municipalityName": "Samara", "location": {"lat": 53.5049, "lon": 50.1643}, "countryCode": "RU"}, "averageDailyFlights": 3.43, "operators": [{"name": "Aeroflot", "iata": "SU", "icao": "AFL"}, {"name": "Air Stork", "iata": "2S", "icao": "MSB"}, {"name": "Corendon Air", "iata": "XC", "icao": "CAI"}, {"name": "AZUR Air", "iata": "ZF", "icao": "KTK"}, {"name": "Pobeda", "iata": "DP", "icao": "PBD"}]}, {"destination": {"name": "Wroclaw"}, "averageDailyFlights": 3.43, "operators": [{"name": "LATAM Argentina", "iata": "4M", "icao": "DSM"}, {"name": "LOT - Polish Airlines", "iata": "LO", "icao": "LOT"}, {"name": "Royal Air Force", "iata": "RR", "icao": "RFR"}, {"name": "Enter Air"}, {"name": "Freebird Airlines", "iata": "FH", "icao": "FHY"}]}, {"destination": {"icao": "UAAA", "iata": "ALA", "localCode": "\u0410\u041b\u0410", "name": "Almaty ", "shortName": "Almaty", "municipalityName": "Almaty", "location": {"lat": 43.3521, "lon": 77.0405}, "countryCode": "KZ"}, "averageDailyFlights": 3.29, "operators": [{"name": "Air Astana", "iata": "KC", "icao": "KZR"}, {"name": "Turkish Airlines", "iata": "TK", "icao": "THY"}, {"name": "SCAT Airlines", "iata": "DV", "icao": "VSV"}, {"name": "Pegasus", "iata": "PC", "icao": "PGT"}]}, {"destination": {"icao": "LROP", "iata": "OTP", "name": "Bucharest Henri Coand\u0103", "shortName": "Henri Coand\u0103", "municipalityName": "Bucharest", "location": {"lat": 44.5722, "lon": 26.1022}, "countryCode": "RO"}, "averageDailyFlights": 3.29, "operators": [{"name": "Pegasus", "iata": "PC", "icao": "PGT"}, {"name": "HiSky", "iata": "H4", "icao": "HYS"}, {"name": "TAROM", "iata": "RO", "icao": "ROT"}, {"name": "Corendon Air", "iata": "XC", "icao": "CAI"}, {"name": "Anima Wings"}, {"name": "Turkish Airlines", "iata": "TK", "icao": "THY"}, {"name": "Wizz Air Hungary"}, {"name": "Sun Express", "iata": "XQ", "icao": "SXS"}, {"name": "Air Leap", "iata": "FL", "icao": "LPA"}]}, {"destination": {"icao": "UWUU", "iata": "UFA", "localCode": "\u0423\u0424\u0410", "name": "Ufa ", "shortName": "Ufa", "municipalityName": "Ufa", "location": {"lat": 54.5575, "lon": 55.8744}, "countryCode": "RU"}, "averageDailyFlights": 3.29, "operators": [{"name": "Corendon Air", "iata": "XC", "icao": "CAI"}, {"name": "Air Stork", "iata": "2S", "icao": "MSB"}, {"name": "AZUR Air", "iata": "ZF", "icao": "KTK"}, {"name": "Aeroflot", "iata": "SU", "icao": "AFL"}, {"name": "Red Wings", "iata": "WZ", "icao": "RWZ"}]}, {"destination": {"icao": "UWKD", "iata": "KZN", "name": "Kazan ", "shortName": "Kazan", "municipalityName": "Kazan", "location": {"lat": 55.6062, "lon": 49.2787}, "countryCode": "RU"}, "averageDailyFlights": 3.23, "operators": [{"name": "Aeroflot", "iata": "SU", "icao": "AFL"}, {"name": "Pobeda", "iata": "DP", "icao": "PBD"}, {"name": "Air Stork", "iata": "2S", "icao": "MSB"}, {"name": "AZUR Air", "iata": "ZF", "icao": "KTK"}, {"name": "Turkish Airlines", "iata": "TK", "icao": "THY"}, {"name": "Pegasus", "iata": "PC", "icao": "PGT"}]}, {"destination": {"icao": "EDDW", "iata": "BRE", "name": "Bremen ", "shortName": "Bremen", "municipalityName": "Bremen", "location": {"lat": 53.0475, "lon": 8.786669}, "countryCode": "DE"}, "averageDailyFlights": 3.14, "operators": [{"name": "Sun Express", "iata": "XQ", "icao": "SXS"}, {"name": "Pegasus", "iata": "PC", "icao": "PGT"}, {"name": "SundAir", "iata": "SR", "icao": "SDR"}, {"name": "Corendon Air", "iata": "XC", "icao": "CAI"}]}, {"destination": {"icao": "LHBP", "iata": "BUD", "name": "Budapest Ferenc Liszt", "shortName": "Ferenc Liszt", "municipalityName": "Budapest", "location": {"lat": 47.4369, "lon": 19.255598}, "countryCode": "HU"}, "averageDailyFlights": 3.14, "operators": [{"name": "Wizz Air", "iata": "W6", "icao": "WZZ"}, {"name": "LATAM Argentina", "iata": "4M", "icao": "DSM"}, {"name": "Sun Express", "iata": "XQ", "icao": "SXS"}, {"name": "Smartwings Hungary Kft", "iata": "7O", "icao": "TVL"}, {"name": "Freebird Airlines", "iata": "FH", "icao": "FHY"}, {"name": "Pegasus", "iata": "PC", "icao": "PGT"}, {"name": "Corendon Air", "iata": "XC", "icao": "CAI"}, {"name": "Wizz Air Hungary"}]}, {"destination": {"icao": "EKCH", "iata": "CPH", "name": "Copenhagen Kastrup", "shortName": "Kastrup", "municipalityName": "Copenhagen", "location": {"lat": 55.6179, "lon": 12.656}, "countryCode": "DK"}, "averageDailyFlights": 3.0, "operators": [{"name": "Sun Express", "iata": "XQ", "icao": "SXS"}, {"name": "Freebird Airlines", "iata": "FH", "icao": "FHY"}, {"name": "Sunclass Airlines", "iata": "DK", "icao": "VKG"}, {"name": "Braathens Internat\u2026"}, {"name": "Pegasus", "iata": "PC", "icao": "PGT"}, {"name": "Jet Time"}]}, {"destination": {"icao": "UNNT", "iata": "OVB", "localCode": "\u0422\u041b\u0427", "name": "Novosibirsk Tolmachevo", "shortName": "Tolmachevo", "municipalityName": "Novosibirsk", "location": {"lat": 55.0126, "lon": 82.6507}, "countryCode": "RU"}, "averageDailyFlights": 3.0, "operators": [{"name": "S7 Airlines", "iata": "S7", "icao": "SBI"}, {"name": "Aeroflot", "iata": "SU", "icao": "AFL"}, {"name": "AZUR Air", "iata": "ZF", "icao": "KTK"}, {"name": "Air Stork", "iata": "2S", "icao": "MSB"}]}, {"destination": {"icao": "LTAF", "iata": "ADA", "name": "Adana ", "shortName": "Adana", "municipalityName": "Adana", "location": {"lat": 36.9822, "lon": 35.2804}, "countryCode": "TR"}, "averageDailyFlights": 2.57, "operators": [{"name": "Sun Express", "iata": "XQ", "icao": "SXS"}, {"name": "Pegasus", "iata": "PC", "icao": "PGT"}]}, {"destination": {"icao": "ESSA", "iata": "ARN", "name": "Stockholm -Arlanda", "shortName": "-Arlanda", "municipalityName": "Stockholm", "location": {"lat": 59.6519, "lon": 17.9186}, "countryCode": "SE"}, "averageDailyFlights": 2.57, "operators": [{"name": "Norwegian Air Sweden", "iata": "D8", "icao": "NSZ"}, {"name": "Sunclass Airlines", "iata": "DK", "icao": "VKG"}, {"name": "Pegasus", "iata": "PC", "icao": "PGT"}, {"name": "Sun Express", "iata": "XQ", "icao": "SXS"}, {"name": "TUIfly Nordic", "iata": "6B", "icao": "BLX"}]}, {"destination": {"icao": "EDDC", "iata": "DRS", "name": "Dresden ", "shortName": "Dresden", "municipalityName": "Dresden", "location": {"lat": 51.1328, "lon": 13.7672}, "countryCode": "DE"}, "averageDailyFlights": 2.47, "operators": [{"name": "Corendon Air", "iata": "XC", "icao": "CAI"}, {"name": "Sun Express", "iata": "XQ", "icao": "SXS"}, {"name": "SundAir", "iata": "SR", "icao": "SDR"}, {"name": "Air Stork", "iata": "2S", "icao": "MSB"}, {"name": "Tailwind", "iata": "TI", "icao": "TWI"}]}, {"destination": {"icao": "LSGG", "iata": "GVA", "name": "Geneva Cointrin", "shortName": "Cointrin", "municipalityName": "Geneva", "location": {"lat": 46.2381, "lon": 6.10895}, "countryCode": "CH"}, "averageDailyFlights": 2.43, "operators": [{"name": "SWISS", "iata": "LX", "icao": "SWR"}, {"name": "Pegasus", "iata": "PC", "icao": "PGT"}, {"name": "easyJet", "iata": "U2", "icao": "EZY"}, {"name": "Turkish Airlines", "iata": "TK", "icao": "THY"}, {"name": "Sun Express", "iata": "XQ", "icao": "SXS"}]}, {"destination": {"icao": "LBSF", "iata": "SOF", "name": "Sofia ", "shortName": "Sofia", "municipalityName": "Sofia", "location": {"lat": 42.696693, "lon": 23.411436}, "countryCode": "BG"}, "averageDailyFlights": 2.3, "operators": [{"name": "Pegasus", "iata": "PC", "icao": "PGT"}, {"name": "Corendon Air", "iata": "XC", "icao": "CAI"}, {"name": "Bulgaria Air", "iata": "FB", "icao": "LZB"}, {"name": "Sun Express", "iata": "XQ", "icao": "SXS"}, {"name": "Bismillah Airlines", "iata": "BH", "icao": "BML"}, {"name": "European Air Chart\u2026"}, {"name": "Tailwind", "iata": "TI", "icao": "TWI"}]}, {"destination": {"icao": "UACC", "iata": "NQZ", "name": "Astana Nursultan Nazarbayev", "shortName": "Nursultan Nazarbayev", "municipalityName": "Astana", "location": {"lat": 51.0222, "lon": 71.4669}, "countryCode": "KZ"}, "averageDailyFlights": 2.29, "operators": [{"name": "Pegasus", "iata": "PC", "icao": "PGT"}, {"name": "Air Astana", "iata": "KC", "icao": "KZR"}, {"name": "SCAT Airlines", "iata": "DV", "icao": "VSV"}, {"name": "Turkish Airlines", "iata": "TK", "icao": "THY"}]}, {"destination": {"icao": "OLBA", "iata": "BEY", "name": "Beirut Rafic Hariri", "shortName": "Rafic Hariri", "municipalityName": "Beirut", "location": {"lat": 33.8209, "lon": 35.4884}, "countryCode": "LB"}, "averageDailyFlights": 2.14, "operators": [{"name": "Turkish Airlines", "iata": "TK", "icao": "THY"}, {"name": "Pegasus", "iata": "PC", "icao": "PGT"}, {"name": "Sun Express", "iata": "XQ", "icao": "SXS"}]}, {"destination": {"icao": "EPGD", "iata": "GDN", "name": "Gda\u0144sk Lech Wa\u0142\u0119sa", "shortName": "Lech Wa\u0142\u0119sa", "municipalityName": "Gda\u0144sk", "location": {"lat": 54.3776, "lon": 18.4662}, "countryCode": "PL"}, "averageDailyFlights": 2.14, "operators": [{"name": "LOT - Polish Airlines", "iata": "LO", "icao": "LOT"}, {"name": "Pegasus", "iata": "PC", "icao": "PGT"}, {"name": "Royal Air Force", "iata": "RR", "icao": "RFR"}, {"name": "LATAM Argentina", "iata": "4M", "icao": "DSM"}, {"name": "Smartwings Poland", "iata": "3Z", "icao": "TVP"}, {"name": "Corendon Air", "iata": "XC", "icao": "CAI"}]}, {"destination": {"icao": "EGNT", "iata": "NCL", "name": "Newcastle upon Tyne Newcastle", "shortName": "Newcastle", "municipalityName": "Newcastle upon Tyne", "location": {"lat": 55.0375, "lon": -1.691669}, "countryCode": "GB"}, "averageDailyFlights": 2.08, "operators": [{"name": "Corendon Air", "iata": "XC", "icao": "CAI"}, {"name": "Sun Express", "iata": "XQ", "icao": "SXS"}, {"name": "Jet2", "iata": "LS", "icao": "EXS"}, {"name": "TUI Airways", "iata": "BY", "icao": "TOM"}]}, {"destination": {"icao": "EGGD", "iata": "BRS", "name": "Bristol ", "shortName": "Bristol", "municipalityName": "Bristol", "location": {"lat": 51.3827, "lon": -2.719089}, "countryCode": "GB"}, "averageDailyFlights": 2.03, "operators": [{"name": "Corendon Air", "iata": "XC", "icao": "CAI"}, {"name": "Jet2", "iata": "LS", "icao": "EXS"}, {"name": "Sun Express", "iata": "XQ", "icao": "SXS"}, {"name": "easyJet", "iata": "U2", "icao": "EZY"}, {"name": "TUI Airways", "iata": "BY", "icao": "TOM"}]}, {"destination": {"icao": "ENGM", "iata": "OSL", "name": "Oslo Gardermoen", "shortName": "Gardermoen", "municipalityName": "Oslo", "location": {"lat": 60.1939, "lon": 11.100399}, "countryCode": "NO"}, "averageDailyFlights": 2.0, "operators": [{"name": "Norwegian Air Shuttle", "iata": "DY", "icao": "NOZ"}, {"name": "Sunclass Airlines", "iata": "DK", "icao": "VKG"}, {"name": "Freebird Airlines", "iata": "FH", "icao": "FHY"}]}, {"destination": {"name": "Rzeszow"}, "averageDailyFlights": 2.0, "operators": [{"name": "Pegasus", "iata": "PC", "icao": "PGT"}, {"name": "Royal Air Force", "iata": "RR", "icao": "RFR"}, {"name": "Enter Air"}, {"name": "Tailwind", "iata": "TI", "icao": "TWI"}, {"name": "LATAM Argentina", "iata": "4M", "icao": "DSM"}, {"name": "Freebird Airlines", "iata": "FH", "icao": "FHY"}]}, {"destination": {"name": "Gatwick"}, "averageDailyFlights": 1.86, "operators": [{"name": "TUI Airways", "iata": "BY", "icao": "TOM"}, {"name": "Avianca Argentina", "iata": "A0", "icao": "MCJ"}, {"name": "easyJet", "iata": "U2", "icao": "EZY"}, {"name": "Freebird Airlines", "iata": "FH", "icao": "FHY"}, {"name": "Wizz Air UK", "iata": "W9", "icao": "WUK"}]}, {"destination": {"icao": "EDDE", "iata": "ERF", "name": "Erfurt ", "shortName": "Erfurt", "municipalityName": "Erfurt", "location": {"lat": 50.9798, "lon": 10.9581}, "countryCode": "DE"}, "averageDailyFlights": 1.71, "operators": [{"name": "Corendon Air", "iata": "XC", "icao": "CAI"}, {"name": "Freebird Airlines", "iata": "FH", "icao": "FHY"}, {"name": "Air Stork", "iata": "2S", "icao": "MSB"}, {"name": "Tailwind", "iata": "TI", "icao": "TWI"}]}, {"destination": {"icao": "EFHK", "iata": "HEL", "name": "Helsinki Vantaa", "shortName": "Vantaa", "municipalityName": "Helsinki", "location": {"lat": 60.3172, "lon": 24.9633}, "countryCode": "FI"}, "averageDailyFlights": 1.71, "operators": [{"name": "Finnair", "iata": "AY", "icao": "FIN"}, {"name": "Pegasus", "iata": "PC", "icao": "PGT"}, {"name": "Freebird Airlines", "iata": "FH", "icao": "FHY"}]}, {"destination": {"icao": "LTAU", "iata": "ASR", "name": "Kayseri Erkilet", "shortName": "Erkilet", "municipalityName": "Kayseri", "location": {"lat": 38.7704, "lon": 35.4954}, "countryCode": "TR"}, "averageDailyFlights": 1.71, "operators": [{"name": "Sun Express", "iata": "XQ", "icao": "SXS"}, {"name": "Pegasus", "iata": "PC", "icao": "PGT"}]}, {"destination": {"icao": "EPKK", "iata": "KRK", "name": "Krak\u00f3w John Paul II   -Balice", "shortName": "John Paul II   -Balice", "municipalityName": "Krak\u00f3w", "location": {"lat": 50.0777, "lon": 19.7848}, "countryCode": "PL"}, "averageDailyFlights": 1.71, "operators": [{"name": "Sun Express", "iata": "XQ", "icao": "SXS"}, {"name": "Pegasus", "iata": "PC", "icao": "PGT"}, {"name": "Royal Air Force", "iata": "RR", "icao": "RFR"}, {"name": "Freebird Airlines", "iata": "FH", "icao": "FHY"}]}, {"destination": {"icao": "USPP", "iata": "PEE", "localCode": "\u041f\u0420\u042c", "name": "Perm Bolshoye Savino", "shortName": "Bolshoye Savino", "municipalityName": "Perm", "location": {"lat": 57.9145, "lon": 56.0212}, "countryCode": "RU"}, "averageDailyFlights": 1.71, "operators": [{"name": "Pobeda", "iata": "DP", "icao": "PBD"}, {"name": "Turkish Airlines", "iata": "TK", "icao": "THY"}]}, {"destination": {"name": "Brno"}, "averageDailyFlights": 1.71, "operators": [{"name": "Freebird Airlines", "iata": "FH", "icao": "FHY"}, {"name": "SmartWings", "iata": "QS", "icao": "TVS"}]}, {"destination": {"icao": "EGPH", "iata": "EDI", "name": "Edinburgh ", "shortName": "Edinburgh", "municipalityName": "Edinburgh", "location": {"lat": 55.95, "lon": -3.372499}, "countryCode": "GB"}, "averageDailyFlights": 1.58, "operators": [{"name": "Sun Express", "iata": "XQ", "icao": "SXS"}, {"name": "easyJet", "iata": "U2", "icao": "EZY"}, {"name": "Jet2", "iata": "LS", "icao": "EXS"}]}, {"destination": {"icao": "LWSK", "iata": "SKP", "name": "Skopje Alexander the Great", "shortName": "Alexander the Great", "municipalityName": "Skopje", "location": {"lat": 41.9616, "lon": 21.6214}, "countryCode": "MK"}, "averageDailyFlights": 1.57, "operators": [{"name": "Sun Express", "iata": "XQ", "icao": "SXS"}, {"name": "Turkish Airlines"}, {"name": "Freebird Airlines", "iata": "FH", "icao": "FHY"}, {"name": "Tailwind", "iata": "TI", "icao": "TWI"}]}, {"destination": {"icao": "EKBI", "iata": "BLL", "name": "Billund ", "shortName": "Billund", "municipalityName": "Billund", "location": {"lat": 55.7403, "lon": 9.15178}, "countryCode": "DK"}, "averageDailyFlights": 1.54, "operators": [{"name": "Sun Express", "iata": "XQ", "icao": "SXS"}, {"name": "Corendon Air", "iata": "XC", "icao": "CAI"}, {"name": "Pegasus", "iata": "PC", "icao": "PGT"}, {"name": "Freebird Airlines", "iata": "FH", "icao": "FHY"}, {"name": "Calafia Airlines", "iata": "A7", "icao": "CFV"}, {"name": "Jet Time"}, {"name": "Sunclass Airlines", "iata": "DK", "icao": "VKG"}]}, {"destination": {"icao": "USCC", "iata": "CEK", "localCode": "\u0427\u041b\u0411", "name": "Chelyabinsk Balandino", "shortName": "Balandino", "municipalityName": "Chelyabinsk", "location": {"lat": 55.3058, "lon": 61.5033}, "countryCode": "RU"}, "averageDailyFlights": 1.43, "operators": [{"name": "Turkish Airlines", "iata": "TK", "icao": "THY"}, {"name": "Pobeda", "iata": "DP", "icao": "PBD"}]}, {"destination": {"icao": "LTCC", "iata": "DIY", "name": "Diyarbak\u0131r Diyarbakir", "shortName": "Diyarbakir", "municipalityName": "Diyarbak\u0131r", "location": {"lat": 37.8939, "lon": 40.201}, "countryCode": "TR"}, "averageDailyFlights": 1.43, "operators": [{"name": "Sun Express", "iata": "XQ", "icao": "SXS"}]}, {"destination": {"icao": "EHRD", "iata": "RTM", "name": "Rotterdam The Hague", "shortName": "The Hague", "municipalityName": "Rotterdam", "location": {"lat": 51.9569, "lon": 4.43722}, "countryCode": "NL"}, "averageDailyFlights": 1.43, "operators": [{"name": "Corendon Air", "iata": "XC", "icao": "CAI"}, {"name": "TUI Airlines Nederland (Netherlands)", "iata": "OR", "icao": "TFL"}, {"name": "Sun Express", "iata": "XQ", "icao": "SXS"}, {"name": "Pegasus", "iata": "PC", "icao": "PGT"}]}, {"destination": {"name": "AdanaImam Humeyni"}, "averageDailyFlights": 1.43, "operators": [{"name": "Turkish Airlines", "iata": "TK", "icao": "THY"}, {"name": "LATAM Argentina", "iata": "4M", "icao": "DSM"}, {"name": "Pegasus", "iata": "PC", "icao": "PGT"}, {"name": "Tailwind", "iata": "TI", "icao": "TWI"}]}, {"destination": {"name": "Belgrade"}, "averageDailyFlights": 1.43, "operators": [{"name": "Air Serbia", "iata": "JU", "icao": "ASL"}]}, {"destination": {"icao": "EGPF", "iata": "GLA", "name": "Glasgow ", "shortName": "Glasgow", "municipalityName": "Glasgow", "location": {"lat": 55.8719, "lon": -4.43306}, "countryCode": "GB"}, "averageDailyFlights": 1.36, "operators": [{"name": "Jet2", "iata": "LS", "icao": "EXS"}, {"name": "Corendon Air", "iata": "XC", "icao": "CAI"}, {"name": "TUI Airways", "iata": "BY", "icao": "TOM"}]}, {"destination": {"icao": "EDLW", "iata": "DTM", "name": "Dortmund ", "shortName": "Dortmund", "municipalityName": "Dortmund", "location": {"lat": 51.5183, "lon": 7.612239}, "countryCode": "DE"}, "averageDailyFlights": 1.3, "operators": [{"name": "Sun Express", "iata": "XQ", "icao": "SXS"}, {"name": "Air Stork", "iata": "2S", "icao": "MSB"}, {"name": "Tailwind", "iata": "TI", "icao": "TWI"}]}, {"destination": {"icao": "LKMT", "iata": "OSR", "name": "Ostrava Leos Jan\u00e1\u010dek", "shortName": "Leos Jan\u00e1\u010dek", "municipalityName": "Ostrava", "location": {"lat": 49.6963, "lon": 18.1111}, "countryCode": "CZ"}, "averageDailyFlights": 1.3, "operators": [{"name": "Corendon Air", "iata": "XC", "icao": "CAI"}, {"name": "SmartWings", "iata": "QS", "icao": "TVS"}]}, {"destination": {"icao": "LUKK", "iata": "KIV", "localCode": "\u041a\u0428\u041d", "name": "Chi\u015fin\u0103u ", "shortName": "Chi\u015fin\u0103u", "municipalityName": "Chi\u015fin\u0103u", "location": {"lat": 46.9277, "lon": 28.931}, "countryCode": "MD"}, "averageDailyFlights": 1.29, "operators": [{"name": "Pegasus", "iata": "PC", "icao": "PGT"}, {"name": "Freebird Airlines", "iata": "FH", "icao": "FHY"}]}, {"destination": {"icao": "EHEH", "iata": "EIN", "name": "Eindhoven ", "shortName": "Eindhoven", "municipalityName": "Eindhoven", "location": {"lat": 51.4501, "lon": 5.374529}, "countryCode": "NL"}, "averageDailyFlights": 1.29, "operators": [{"name": "Sun Express", "iata": "XQ", "icao": "SXS"}, {"name": "Corendon Air", "iata": "XC", "icao": "CAI"}, {"name": "TUI Airlines Nederland (Netherlands)", "iata": "OR", "icao": "TFL"}]}, {"destination": {"icao": "ESGG", "iata": "GOT", "name": "Goteborg Gothenburg-Landvetter", "shortName": "Gothenburg-Landvetter", "municipalityName": "Goteborg", "location": {"lat": 57.6628, "lon": 12.2798}, "countryCode": "SE"}, "averageDailyFlights": 1.29, "operators": [{"name": "Pegasus", "iata": "PC", "icao": "PGT"}, {"name": "Sunclass Airlines", "iata": "DK", "icao": "VKG"}, {"name": "TUIfly Nordic", "iata": "6B", "icao": "BLX"}]}, {"destination": {"name": "Muenster"}, "averageDailyFlights": 1.29, "operators": [{"name": "Tailwind", "iata": "TI", "icao": "TWI"}, {"name": "Sun Express", "iata": "XQ", "icao": "SXS"}, {"name": "Air Stork", "iata": "2S", "icao": "MSB"}]}, {"destination": {"icao": "OJAI", "iata": "AMM", "name": "Amman Queen Alia", "shortName": "Queen Alia", "municipalityName": "Amman", "location": {"lat": 31.7226, "lon": 35.9932}, "countryCode": "JO"}, "averageDailyFlights": 1.16, "operators": [{"name": "Pegasus", "iata": "PC", "icao": "PGT"}, {"name": "Jordan Aviation Airlines", "iata": "R5", "icao": "JAV"}]}, {"destination": {"icao": "EGNM", "iata": "LBA", "name": "Leeds Bradford", "shortName": "Bradford", "municipalityName": "Leeds", "location": {"lat": 53.8659, "lon": -1.66057}, "countryCode": "GB"}, "averageDailyFlights": 1.14, "operators": [{"name": "Jet2", "iata": "LS", "icao": "EXS"}]}, {"destination": {"icao": "EDDR", "iata": "SCN", "name": "Saarbr\u00fccken ", "shortName": "Saarbr\u00fccken", "municipalityName": "Saarbr\u00fccken", "location": {"lat": 49.2146, "lon": 7.109509}, "countryCode": "DE"}, "averageDailyFlights": 1.14, "operators": [{"name": "Sun Express", "iata": "XQ", "icao": "SXS"}, {"name": "Corendon Air", "iata": "XC", "icao": "CAI"}]}, {"destination": {"icao": "UGTB", "iata": "TBS", "name": "Tbilisi ", "shortName": "Tbilisi", "municipalityName": "Tbilisi", "location": {"lat": 41.6692, "lon": 44.9547}, "countryCode": "GE"}, "averageDailyFlights": 1.14, "operators": [{"name": "Pegasus", "iata": "PC", "icao": "PGT"}, {"name": "Sun Express", "iata": "XQ", "icao": "SXS"}]}, {"destination": {"icao": "USTR", "iata": "TJM", "localCode": "\u0420\u0429\u041d", "name": "Tyumen Roshchino", "shortName": "Roshchino", "municipalityName": "Tyumen", "location": {"lat": 57.1896, "lon": 65.3243}, "countryCode": "RU"}, "averageDailyFlights": 1.14, "operators": [{"name": "Turkish Airlines", "iata": "TK", "icao": "THY"}]}, {"destination": {"name": "Bratislava"}, "averageDailyFlights": 1.14, "operators": [{"name": "LATAM Argentina", "iata": "4M", "icao": "DSM"}, {"name": "Travel Service Slovensko", "iata": "6D", "icao": "TVQ"}]}, {"destination": {"name": "Bydgoszcz"}, "averageDailyFlights": 1.14, "operators": [{"name": "Pegasus", "iata": "PC", "icao": "PGT"}, {"name": "Enter Air"}, {"name": "Royal Air Force", "iata": "RR", "icao": "RFR"}]}, {"destination": {"icao": "LFPO", "iata": "ORY", "name": "Paris -Orly", "shortName": "-Orly", "municipalityName": "Paris", "location": {"lat": 48.7253, "lon": 2.35944}, "countryCode": "FR"}, "averageDailyFlights": 1.05, "operators": [{"name": "Transavia France", "iata": "TO", "icao": "TVF"}, {"name": "Pegasus", "iata": "PC", "icao": "PGT"}, {"name": "Freebird Airlines", "iata": "FH", "icao": "FHY"}]}, {"destination": {"icao": "LTAJ", "iata": "GZT", "name": "Gaziantep ", "shortName": "Gaziantep", "municipalityName": "Gaziantep", "location": {"lat": 36.9472, "lon": 37.4787}, "countryCode": "TR"}, "averageDailyFlights": 1.0, "operators": [{"name": "Sun Express", "iata": "XQ", "icao": "SXS"}]}, {"destination": {"icao": "UUWW", "iata": "VKO", "localCode": "\u0412\u041d\u041a", "name": "Moscow Vnukovo", "shortName": "Vnukovo", "municipalityName": "Moscow", "location": {"lat": 55.5915, "lon": 37.2615}, "countryCode": "RU"}, "averageDailyFlights": 1.0, "operators": [{"name": "Turkish Airlines", "iata": "TK", "icao": "THY"}, {"name": "Pegasus", "iata": "PC", "icao": "PGT"}, {"name": "AZUR Air", "iata": "ZF", "icao": "KTK"}]}, {"destination": {"name": "Cluj"}, "averageDailyFlights": 1.0, "operators": [{"name": "TAROM", "iata": "RO", "icao": "ROT"}, {"name": "HiSky", "iata": "H4", "icao": "HYS"}, {"name": "Air Stork", "iata": "2S", "icao": "MSB"}, {"name": "Turkish Airlines", "iata": "TK", "icao": "THY"}]}, {"destination": {"name": "Lodz"}, "averageDailyFlights": 1.0, "operators": [{"name": "Enter Air"}, {"name": "Royal Air Force", "iata": "RR", "icao": "RFR"}]}, {"destination": {"name": "Szczecin"}, "averageDailyFlights": 1.0, "operators": [{"name": "Enter Air"}, {"name": "Smartwings Poland", "iata": "3Z", "icao": "TVP"}]}, {"destination": {"icao": "ORBI", "iata": "BGW", "name": "Baghdad ", "shortName": "Baghdad", "municipalityName": "Baghdad", "location": {"lat": 33.2625, "lon": 44.2346}, "countryCode": "IQ"}, "averageDailyFlights": 0.86, "operators": [{"name": "I A W", "iata": "IA", "icao": "IAW"}, {"name": "Fly Baghdad", "iata": "IF", "icao": "FBA"}]}, {"destination": {"icao": "URML", "iata": "MCX", "localCode": "\u041c\u0425\u041b", "name": "Makhachkala Uytash", "shortName": "Uytash", "municipalityName": "Makhachkala", "location": {"lat": 42.8168, "lon": 47.6523}, "countryCode": "RU"}, "averageDailyFlights": 0.86, "operators": [{"name": "Red Wings", "iata": "WZ", "icao": "RWZ"}]}, {"destination": {"icao": "UWGG", "iata": "GOJ", "localCode": "\u041d\u0416\u0421", "name": "Nizhniy Novgorod Strigino", "shortName": "Strigino", "municipalityName": "Nizhniy Novgorod", "location": {"lat": 56.2301, "lon": 43.784}, "countryCode": "RU"}, "averageDailyFlights": 0.86, "operators": [{"name": "Aeroflot", "iata": "SU", "icao": "AFL"}, {"name": "AZUR Air", "iata": "ZF", "icao": "KTK"}]}, {"destination": {"icao": "UNOO", "iata": "OMS", "localCode": "\u041e\u041c\u0421", "name": "Omsk Central", "shortName": "Central", "municipalityName": "Omsk", "location": {"lat": 54.967, "lon": 73.3105}, "countryCode": "RU"}, "averageDailyFlights": 0.86, "operators": [{"name": "Turkish Airlines", "iata": "TK", "icao": "THY"}]}, {"destination": {"icao": "EPPO", "iata": "POZ", "name": "Pozna\u0144 -\u0141awica", "shortName": "-\u0141awica", "municipalityName": "Pozna\u0144", "location": {"lat": 52.421, "lon": 16.8263}, "countryCode": "PL"}, "averageDailyFlights": 0.86, "operators": [{"name": "Royal Air Force", "iata": "RR", "icao": "RFR"}, {"name": "Corendon Air", "iata": "XC", "icao": "CAI"}]}, {"destination": {"icao": "LTCI", "iata": "VAN", "name": "Van Ferit Melen", "shortName": "Ferit Melen", "municipalityName": "Van", "location": {"lat": 38.4682, "lon": 43.3323}, "countryCode": "TR"}, "averageDailyFlights": 0.86, "operators": [{"name": "Sun Express", "iata": "XQ", "icao": "SXS"}]}, {"destination": {"icao": "URWW", "iata": "VOG", "localCode": "\u0412\u0413\u0413", "name": "Volgograd ", "shortName": "Volgograd", "municipalityName": "Volgograd", "location": {"lat": 48.7825, "lon": 44.3455}, "countryCode": "RU"}, "averageDailyFlights": 0.86, "operators": [{"name": "Red Wings", "iata": "WZ", "icao": "RWZ"}, {"name": "Pobeda", "iata": "DP", "icao": "PBD"}]}, {"destination": {"name": "Lublin"}, "averageDailyFlights": 0.86, "operators": [{"name": "Royal Air Force", "iata": "RR", "icao": "RFR"}, {"name": "Freebird Airlines", "iata": "FH", "icao": "FHY"}, {"name": "Enter Air"}]}, {"destination": {"name": "Nijninovgorod"}, "averageDailyFlights": 0.86, "operators": [{"name": "AZUR Air", "iata": "ZF", "icao": "KTK"}, {"name": "Aeroflot", "iata": "SU", "icao": "AFL"}]}, {"destination": {"name": "Zhukovsky"}, "averageDailyFlights": 0.86, "operators": [{"name": "Red Wings", "iata": "WZ", "icao": "RWZ"}]}, {"destination": {"icao": "BKPR", "iata": "PRN", "name": "Prishtina Pri\u0161tina", "shortName": "Pri\u0161tina", "municipalityName": "Prishtina", "location": {"lat": 42.5728, "lon": 21.0358}, "countryCode": "KS"}, "averageDailyFlights": 0.73, "operators": [{"name": "Turkish Airlines", "iata": "TK", "icao": "THY"}, {"name": "Sun Express", "iata": "XQ", "icao": "SXS"}, {"name": "Tailwind", "iata": "TI", "icao": "TWI"}]}, {"destination": {"icao": "EKYT", "iata": "AAL", "name": "Aalborg ", "shortName": "Aalborg", "municipalityName": "Aalborg", "location": {"lat": 57.09276, "lon": 9.849243}, "countryCode": "DK"}, "averageDailyFlights": 0.71, "operators": [{"name": "Corendon Air", "iata": "XC", "icao": "CAI"}, {"name": "Sun Express", "iata": "XQ", "icao": "SXS"}, {"name": "Jet Time"}, {"name": "Pegasus", "iata": "PC", "icao": "PGT"}]}, {"destination": {"icao": "UNKL", "iata": "KJA", "localCode": "\u041a\u042f\u0410", "name": "Krasnoyarsk Yemelyanovo", "shortName": "Yemelyanovo", "municipalityName": "Krasnoyarsk", "location": {"lat": 56.1729, "lon": 92.4933}, "countryCode": "RU"}, "averageDailyFlights": 0.71, "operators": [{"name": "Air Stork", "iata": "2S", "icao": "MSB"}, {"name": "AZUR Air", "iata": "ZF", "icao": "KTK"}]}, {"destination": {"icao": "EGGP", "iata": "LPL", "name": "Liverpool John Lennon", "shortName": "John Lennon", "municipalityName": "Liverpool", "location": {"lat": 53.3336, "lon": -2.84972}, "countryCode": "GB"}, "averageDailyFlights": 0.71, "operators": [{"name": "easyJet", "iata": "U2", "icao": "EZY"}]}, {"destination": {"icao": "ELLX", "iata": "LUX", "name": "Luxembourg -Findel", "shortName": "-Findel", "municipalityName": "Luxembourg", "location": {"lat": 49.6266, "lon": 6.21152}, "countryCode": "LU"}, "averageDailyFlights": 0.71, "operators": [{"name": "Luxair", "iata": "LG", "icao": "LGL"}]}, {"destination": {"icao": "EGNX", "iata": "EMA", "name": "Nottingham East Midlands", "shortName": "East Midlands", "municipalityName": "Nottingham", "location": {"lat": 52.8311, "lon": -1.32806}, "countryCode": "GB"}, "averageDailyFlights": 0.71, "operators": [{"name": "TUI Airways", "iata": "BY", "icao": "TOM"}, {"name": "Jet2", "iata": "LS", "icao": "EXS"}]}, {"destination": {"icao": "LFPG", "iata": "CDG", "name": "Paris Charles de Gaulle", "shortName": "Charles de Gaulle", "municipalityName": "Paris", "location": {"lat": 49.0128, "lon": 2.549999}, "countryCode": "FR"}, "averageDailyFlights": 0.71, "operators": [{"name": "Sun Express", "iata": "XQ", "icao": "SXS"}]}, {"destination": {"icao": "EPWR", "iata": "WRO", "name": "Wroc\u0142aw Copernicus", "shortName": "Copernicus", "municipalityName": "Wroc\u0142aw", "location": {"lat": 51.1027, "lon": 16.8858}, "countryCode": "PL"}, "averageDailyFlights": 0.71, "operators": [{"name": "Corendon Air", "iata": "XC", "icao": "CAI"}, {"name": "Royal Air Force", "iata": "RR", "icao": "RFR"}]}, {"destination": {"name": "Ercan"}, "averageDailyFlights": 0.71, "operators": [{"name": "Pegasus", "iata": "PC", "icao": "PGT"}]}, {"destination": {"name": "Gdansk"}, "averageDailyFlights": 0.71, "operators": [{"name": "Enter Air"}, {"name": "Corendon Air", "iata": "XC", "icao": "CAI"}, {"name": "Royal Air Force", "iata": "RR", "icao": "RFR"}, {"name": "LOT - Polish Airlines", "iata": "LO", "icao": "LOT"}]}, {"destination": {"icao": "LBWN", "iata": "VAR", "name": "Varna ", "shortName": "Varna", "municipalityName": "Varna", "location": {"lat": 43.2321, "lon": 27.8251}, "countryCode": "BG"}, "averageDailyFlights": 0.68, "operators": [{"name": "Bulgaria Air", "iata": "FB", "icao": "LZB"}, {"name": "European Air Chart\u2026"}, {"name": "Bismillah Airlines", "iata": "BH", "icao": "BML"}]}, {"destination": {"icao": "ORER", "iata": "EBL", "name": "Arbil Erbil", "shortName": "Erbil", "municipalityName": "Arbil", "location": {"lat": 36.2376, "lon": 43.9632}, "countryCode": "IQ"}, "averageDailyFlights": 0.57, "operators": [{"name": "Sun Express", "iata": "XQ", "icao": "SXS"}, {"name": "Pegasus", "iata": "PC", "icao": "PGT"}]}, {"destination": {"icao": "ENBR", "iata": "BGO", "name": "Bergen Flesland", "shortName": "Flesland", "municipalityName": "Bergen", "location": {"lat": 60.2934, "lon": 5.21814}, "countryCode": "NO"}, "averageDailyFlights": 0.57, "operators": [{"name": "Norwegian Air Shuttle", "iata": "DY", "icao": "NOZ"}]}, {"destination": {"icao": "EHGG", "iata": "GRQ", "name": "Groningen Eelde", "shortName": "Eelde", "municipalityName": "Groningen", "location": {"lat": 53.1197, "lon": 6.57944}, "countryCode": "NL"}, "averageDailyFlights": 0.57, "operators": [{"name": "Corendon Air", "iata": "XC", "icao": "CAI"}]}, {"destination": {"icao": "EDVK", "iata": "KSF", "name": "Kassel -Calden", "shortName": "-Calden", "municipalityName": "Kassel", "location": {"lat": 51.408333, "lon": 9.377499}, "countryCode": "DE"}, "averageDailyFlights": 0.57, "operators": [{"name": "Corendon Air", "iata": "XC", "icao": "CAI"}, {"name": "Tailwind", "iata": "TI", "icao": "TWI"}, {"name": "Air Stork", "iata": "2S", "icao": "MSB"}]}, {"destination": {"icao": "LOWL", "iata": "LNZ", "name": "Linz ", "shortName": "Linz", "municipalityName": "Linz", "location": {"lat": 48.2332, "lon": 14.1875}, "countryCode": "AT"}, "averageDailyFlights": 0.57, "operators": [{"name": "Corendon Air", "iata": "XC", "icao": "CAI"}]}, {"destination": {"icao": "UWOO", "iata": "REN", "localCode": "\u041e\u041d\u0413", "name": "Orenburg Central", "shortName": "Central", "municipalityName": "Orenburg", "location": {"lat": 51.7958, "lon": 55.4567}, "countryCode": "RU"}, "averageDailyFlights": 0.57, "operators": [{"name": "Air Stork", "iata": "2S", "icao": "MSB"}]}, {"destination": {"icao": "LTFH", "iata": "SZF", "name": "Samsun \u00c7ar\u015famba", "shortName": "\u00c7ar\u015famba", "municipalityName": "Samsun", "location": {"lat": 41.2545, "lon": 36.5671}, "countryCode": "TR"}, "averageDailyFlights": 0.57, "operators": [{"name": "Sun Express", "iata": "XQ", "icao": "SXS"}]}, {"destination": {"icao": "HESH", "iata": "SSH", "name": "Sharm el Sheikh ", "shortName": "Sharm el Sheikh", "municipalityName": "Sharm el Sheikh", "location": {"lat": 27.9773, "lon": 34.395}, "countryCode": "EG"}, "averageDailyFlights": 0.57, "operators": [{"name": "Pegasus", "iata": "PC", "icao": "PGT"}, {"name": "Sun Express", "iata": "XQ", "icao": "SXS"}]}, {"destination": {"icao": "LTCG", "iata": "TZX", "name": "Trabzon ", "shortName": "Trabzon", "municipalityName": "Trabzon", "location": {"lat": 40.9951, "lon": 39.7897}, "countryCode": "TR"}, "averageDailyFlights": 0.57, "operators": [{"name": "Pegasus", "iata": "PC", "icao": "PGT"}, {"name": "Sun Express", "iata": "XQ", "icao": "SXS"}]}, {"destination": {"icao": "URMO", "iata": "OGZ", "localCode": "\u0412\u041b\u0410", "name": "Vladikavkaz Beslan", "shortName": "Beslan", "municipalityName": "Vladikavkaz", "location": {"lat": 43.2051, "lon": 44.6066}, "countryCode": "RU"}, "averageDailyFlights": 0.57, "operators": [{"name": "Red Wings", "iata": "WZ", "icao": "RWZ"}, {"name": "Pobeda", "iata": "DP", "icao": "PBD"}, {"name": "Azimuth Airlines", "iata": "A4", "icao": "AZO"}]}, {"destination": {"name": "Luton"}, "averageDailyFlights": 0.57, "operators": [{"name": "Sun Express", "iata": "XQ", "icao": "SXS"}, {"name": "easyJet", "iata": "U2", "icao": "EZY"}]}, {"destination": {"icao": "EBAW", "iata": "ANR", "name": "Antwerp (Deurne)", "shortName": "(Deurne)", "municipalityName": "Antwerp", "location": {"lat": 51.1894, "lon": 4.460279}, "countryCode": "BE"}, "averageDailyFlights": 0.43, "operators": [{"name": "TUI Airlines Belgium", "iata": "TB", "icao": "JAF"}]}, {"destination": {"icao": "EDSB", "iata": "FKB", "name": "Baden-Baden Karlsruhe", "shortName": "Karlsruhe", "municipalityName": "Baden-Baden", "location": {"lat": 48.7794, "lon": 8.080499}, "countryCode": "DE"}, "averageDailyFlights": 0.43, "operators": [{"name": "Corendon Air", "iata": "XC", "icao": "CAI"}]}, {"destination": {"icao": "UBBB", "iata": "GYD", "localCode": "\u0411\u0410\u041a", "name": "Baku Heydar Aliyev", "shortName": "Heydar Aliyev", "municipalityName": "Baku", "location": {"lat": 40.4675, "lon": 50.0467}, "countryCode": "AZ"}, "averageDailyFlights": 0.43, "operators": [{"name": "AZAL Azerbaijan Airlines", "iata": "J2", "icao": "AHY"}]}, {"destination": {"icao": "EGAA", "iata": "BFS", "name": "Belfast ", "shortName": "Belfast", "municipalityName": "Belfast", "location": {"lat": 54.6575, "lon": -6.215829}, "countryCode": "GB"}, "averageDailyFlights": 0.43, "operators": [{"name": "easyJet", "iata": "U2", "icao": "EZY"}, {"name": "Jet2", "iata": "LS", "icao": "EXS"}]}, {"destination": {"icao": "OMDB", "iata": "DXB", "name": "Dubai ", "shortName": "Dubai", "municipalityName": "Dubai", "location": {"lat": 25.252798, "lon": 55.3644}, "countryCode": "AE"}, "averageDailyFlights": 0.43, "operators": [{"name": "Sun Express", "iata": "XQ", "icao": "SXS"}]}, {"destination": {"icao": "LOWG", "iata": "GRZ", "name": "Graz ", "shortName": "Graz", "municipalityName": "Graz", "location": {"lat": 46.9911, "lon": 15.439599}, "countryCode": "AT"}, "averageDailyFlights": 0.43, "operators": [{"name": "Corendon Air", "iata": "XC", "icao": "CAI"}]}, {"destination": {"icao": "UMKK", "iata": "KGD", "localCode": "\u041a\u041b\u0414", "name": "Kaliningrad Khrabrovo", "shortName": "Khrabrovo", "municipalityName": "Kaliningrad", "location": {"lat": 54.89, "lon": 20.5926}, "countryCode": "RU"}, "averageDailyFlights": 0.43, "operators": [{"name": "Air Stork", "iata": "2S", "icao": "MSB"}]}, {"destination": {"icao": "EHBK", "iata": "MST", "name": "Maastricht Aachen", "shortName": "Aachen", "municipalityName": "Maastricht", "location": {"lat": 50.9117, "lon": 5.77014}, "countryCode": "NL"}, "averageDailyFlights": 0.43, "operators": [{"name": "Corendon Air", "iata": "XC", "icao": "CAI"}]}, {"destination": {"icao": "EBOS", "iata": "OST", "name": "Ostend -Bruges", "shortName": "-Bruges", "municipalityName": "Ostend", "location": {"lat": 51.1989, "lon": 2.86222}, "countryCode": "BE"}, "averageDailyFlights": 0.43, "operators": [{"name": "TUI Airlines Belgium", "iata": "TB", "icao": "JAF"}]}, {"destination": {"icao": "LOWS", "iata": "SZG", "name": "Salzburg ", "shortName": "Salzburg", "municipalityName": "Salzburg", "location": {"lat": 47.7933, "lon": 13.0043}, "countryCode": "AT"}, "averageDailyFlights": 0.43, "operators": [{"name": "Corendon Air", "iata": "XC", "icao": "CAI"}]}, {"destination": {"icao": "UWSG", "iata": "GSV", "localCode": "\u0413\u0421\u0412", "name": "Saratov Gagarin International", "shortName": "Gagarin International", "municipalityName": "Saratov", "location": {"lat": 51.71811, "lon": 46.169918}, "countryCode": "RU"}, "averageDailyFlights": 0.43, "operators": [{"name": "IrAero", "iata": "IO", "icao": "IAE"}]}, {"destination": {"icao": "UDYZ", "iata": "EVN", "localCode": "\u0417\u0412\u0420", "name": "Yerevan Zvartnots", "shortName": "Zvartnots", "municipalityName": "Yerevan", "location": {"lat": 40.1473, "lon": 44.3959}, "countryCode": "AM"}, "averageDailyFlights": 0.43, "operators": [{"name": "Pegasus", "iata": "PC", "icao": "PGT"}]}, {"destination": {"name": "Krakow"}, "averageDailyFlights": 0.43, "operators": [{"name": "Enter Air"}, {"name": "Sun Express", "iata": "XQ", "icao": "SXS"}]}, {"destination": {"name": "Modlin"}, "averageDailyFlights": 0.43, "operators": [{"name": "Royal Air Force", "iata": "RR", "icao": "RFR"}]}, {"destination": {"name": "Radom"}, "averageDailyFlights": 0.43, "operators": [{"name": "LOT - Polish Airlines", "iata": "LO", "icao": "LOT"}]}, {"destination": {"icao": "UCFM", "iata": "FRU", "localCode": "\u0411\u0418\u0428", "name": "Bishkek Manas", "shortName": "Manas", "municipalityName": "Bishkek", "location": {"lat": 43.0613, "lon": 74.4776}, "countryCode": "KG"}, "averageDailyFlights": 0.36, "operators": [{"name": "Turkish Airlines", "iata": "TK", "icao": "THY"}, {"name": "Pegasus", "iata": "PC", "icao": "PGT"}]}, {"destination": {"icao": "LRBM", "iata": "BAY", "name": "Baia Mare Tautii Magheraus", "shortName": "Tautii Magheraus", "municipalityName": "Baia Mare", "location": {"lat": 47.6584, "lon": 23.47}, "countryCode": "RO"}, "averageDailyFlights": 0.3, "operators": [{"name": "Corendon Air", "iata": "XC", "icao": "CAI"}, {"name": "HiSky", "iata": "H4", "icao": "HYS"}]}, {"destination": {"icao": "LTBS", "iata": "DLM", "name": "Dalaman ", "shortName": "Dalaman", "municipalityName": "Dalaman", "location": {"lat": 36.7131, "lon": 28.7925}, "countryCode": "TR"}, "averageDailyFlights": 0.29, "operators": [{"name": "Corendon Air", "iata": "XC", "icao": "CAI"}]}, {"destination": {"icao": "LHDC", "iata": "DEB", "name": "Debrecen ", "shortName": "Debrecen", "municipalityName": "Debrecen", "location": {"lat": 47.4889, "lon": 21.6153}, "countryCode": "HU"}, "averageDailyFlights": 0.29, "operators": [{"name": "Wizz Air Hungary"}]}, {"destination": {"icao": "EIDW", "iata": "DUB", "name": "Dublin ", "shortName": "Dublin", "municipalityName": "Dublin", "location": {"lat": 53.4213, "lon": -6.27007}, "countryCode": "IE"}, "averageDailyFlights": 0.29, "operators": [{"name": "Sun Express", "iata": "XQ", "icao": "SXS"}]}, {"destination": {"icao": "EDNY", "iata": "FDH", "name": "Friedrichshafen ", "shortName": "Friedrichshafen", "municipalityName": "Friedrichshafen", "location": {"lat": 47.6713, "lon": 9.511489}, "countryCode": "DE"}, "averageDailyFlights": 0.29, "operators": [{"name": "Corendon Air", "iata": "XC", "icao": "CAI"}]}, {"destination": {"icao": "LTFG", "iata": "GZP", "name": "Gazipa\u015fa ", "shortName": "Gazipa\u015fa", "municipalityName": "Gazipa\u015fa", "location": {"lat": 36.299217, "lon": 32.3006}, "countryCode": "TR"}, "averageDailyFlights": 0.29, "operators": [{"name": "Freebird Airlines", "iata": "FH", "icao": "FHY"}]}, {"destination": {"icao": "LJLJ", "iata": "LJU", "name": "Ljubljana Jo\u017ee Pu\u010dnik", "shortName": "Jo\u017ee Pu\u010dnik", "municipalityName": "Ljubljana", "location": {"lat": 46.2237, "lon": 14.457599}, "countryCode": "SI"}, "averageDailyFlights": 0.29, "operators": [{"name": "Corendon Air", "iata": "XC", "icao": "CAI"}, {"name": "Trade Air", "iata": "C3", "icao": "TDR"}]}, {"destination": {"icao": "ESMS", "iata": "MMX", "name": "Malm\u00f6 Sturup", "shortName": "Sturup", "municipalityName": "Malm\u00f6", "location": {"lat": 55.536304, "lon": 13.376197}, "countryCode": "SE"}, "averageDailyFlights": 0.29, "operators": [{"name": "Sunclass Airlines", "iata": "DK", "icao": "VKG"}]}, {"destination": {"icao": "UUEE", "iata": "SVO", "localCode": "\u0428\u0420\u041c", "name": "Moscow Sheremetyevo", "shortName": "Sheremetyevo", "municipalityName": "Moscow", "location": {"lat": 55.9726, "lon": 37.4146}, "countryCode": "RU"}, "averageDailyFlights": 0.29, "operators": [{"name": "Air Stork", "iata": "2S", "icao": "MSB"}]}, {"destination": {"icao": "LFRS", "iata": "NTE", "name": "Nantes Atlantique", "shortName": "Atlantique", "municipalityName": "Nantes", "location": {"lat": 47.1532, "lon": -1.61073}, "countryCode": "FR"}, "averageDailyFlights": 0.29, "operators": [{"name": "Transavia France", "iata": "TO", "icao": "TVF"}]}, {"destination": {"icao": "OERK", "iata": "RUH", "name": "Riyadh King Khaled", "shortName": "King Khaled", "municipalityName": "Riyadh", "location": {"lat": 24.9576, "lon": 46.6988}, "countryCode": "SA"}, "averageDailyFlights": 0.29, "operators": [{"name": "flynas", "iata": "XY", "icao": "KNE"}]}, {"destination": {"icao": "ETNL", "iata": "RLG", "name": "Rostock -Laage", "shortName": "-Laage", "municipalityName": "Rostock", "location": {"lat": 53.9182, "lon": 12.2783}, "countryCode": "DE"}, "averageDailyFlights": 0.29, "operators": [{"name": "Corendon Air", "iata": "XC", "icao": "CAI"}]}, {"destination": {"icao": "ENZV", "iata": "SVG", "name": "Stavanger Sola", "shortName": "Sola", "municipalityName": "Stavanger", "location": {"lat": 58.8767, "lon": 5.63778}, "countryCode": "NO"}, "averageDailyFlights": 0.29, "operators": [{"name": "Norwegian Air Shuttle", "iata": "DY", "icao": "NOZ"}]}, {"destination": {"icao": "URMT", "iata": "STW", "localCode": "\u0421\u0422\u0412", "name": "Stavropol Shpakovskoye", "shortName": "Shpakovskoye", "municipalityName": "Stavropol", "location": {"lat": 45.1092, "lon": 42.1128}, "countryCode": "RU"}, "averageDailyFlights": 0.29, "operators": [{"name": "Red Wings", "iata": "WZ", "icao": "RWZ"}]}, {"destination": {"icao": "LRTR", "iata": "TSR", "name": "Timi\u015foara Traian Vuia", "shortName": "Traian Vuia", "municipalityName": "Timi\u015foara", "location": {"lat": 45.8099, "lon": 21.3379}, "countryCode": "RO"}, "averageDailyFlights": 0.29, "operators": [{"name": "Corendon Air", "iata": "XC", "icao": "CAI"}]}, {"destination": {"name": "Atyrau - Guryev"}, "averageDailyFlights": 0.29, "operators": [{"name": "SCAT Airlines", "iata": "DV", "icao": "VSV"}]}, {"destination": {"name": "DalamanBeirut"}, "averageDailyFlights": 0.29, "operators": [{"name": "Corendon Air", "iata": "XC", "icao": "CAI"}]}, {"destination": {"name": "DortmundMunich"}, "averageDailyFlights": 0.29, "operators": [{"name": "Tailwind", "iata": "TI", "icao": "TWI"}]}, {"destination": {"name": "Luebeck"}, "averageDailyFlights": 0.29, "operators": [{"name": "SundAir", "iata": "SR", "icao": "SDR"}]}, {"destination": {"name": "Plovdiv"}, "averageDailyFlights": 0.29, "operators": [{"name": "European Air Chart\u2026"}, {"name": "Bismillah Airlines", "iata": "BH", "icao": "BML"}]}, {"destination": {"name": "Tashkent"}, "averageDailyFlights": 0.29, "operators": [{"name": "Uzbekistan Airways", "iata": "HY", "icao": "UZB"}]}, {"destination": {"name": "Zielona Gora"}, "averageDailyFlights": 0.29, "operators": [{"name": "Pegasus", "iata": "PC", "icao": "PGT"}]}, {"destination": {"icao": "OMAA", "iata": "AUH", "name": "Abu Dhabi Island and Internal Islands City Abu Dhabi", "shortName": "Abu Dhabi", "municipalityName": "Abu Dhabi Island and Internal Islands City", "location": {"lat": 24.433, "lon": 54.6511}, "countryCode": "AE"}, "averageDailyFlights": 0.14, "operators": [{"name": "Wizz Air Abu Dhabi", "iata": "5W", "icao": "WAZ"}]}, {"destination": {"icao": "LSZB", "iata": "BRN", "name": "Berne Bern Belp", "shortName": "Bern Belp", "municipalityName": "Berne", "location": {"lat": 46.9141, "lon": 7.497149}, "countryCode": "CH"}, "averageDailyFlights": 0.14, "operators": [{"name": "Helvetic Airways", "iata": "2L", "icao": "OAW"}]}, {"destination": {"icao": "LBBG", "iata": "BOJ", "name": "Burgas ", "shortName": "Burgas", "municipalityName": "Burgas", "location": {"lat": 42.5696, "lon": 27.5152}, "countryCode": "BG"}, "averageDailyFlights": 0.14, "operators": [{"name": "Bulgaria Air", "iata": "FB", "icao": "LZB"}]}, {"destination": {"icao": "URMG", "iata": "GRV", "localCode": "\u0413\u0420\u041d", "name": "Grozny North", "shortName": "North", "municipalityName": "Grozny", "location": {"lat": 43.3883, "lon": 45.6986}, "countryCode": "RU"}, "averageDailyFlights": 0.14, "operators": [{"name": "UTAir", "iata": "UT", "icao": "UTA"}]}, {"destination": {"icao": "ESPA", "iata": "LLA", "name": "Lule\u00e5 ", "shortName": "Lule\u00e5", "municipalityName": "Lule\u00e5", "location": {"lat": 65.5438, "lon": 22.122}, "countryCode": "SE"}, "averageDailyFlights": 0.14, "operators": [{"name": "Freebird Airlines", "iata": "FH", "icao": "FHY"}]}, {"destination": {"icao": "LFLL", "iata": "LYS", "name": "Lyon Saint-Exup\u00e9ry", "shortName": "Saint-Exup\u00e9ry", "municipalityName": "Lyon", "location": {"lat": 45.7264, "lon": 5.090829}, "countryCode": "FR"}, "averageDailyFlights": 0.14, "operators": [{"name": "Transavia France", "iata": "TO", "icao": "TVF"}]}, {"destination": {"icao": "OBBI", "iata": "BAH", "name": "Manama Bahrain", "shortName": "Bahrain", "municipalityName": "Manama", "location": {"lat": 26.2708, "lon": 50.6336}, "countryCode": "BH"}, "averageDailyFlights": 0.14, "operators": [{"name": "Sun Express", "iata": "XQ", "icao": "SXS"}]}, {"destination": {"icao": "UUDD", "iata": "DME", "localCode": "\u0414\u041c\u0414", "name": "Moscow Domodedovo", "shortName": "Domodedovo", "municipalityName": "Moscow", "location": {"lat": 55.4088, "lon": 37.9063}, "countryCode": "RU"}, "averageDailyFlights": 0.14, "operators": [{"name": "S7 Airlines", "iata": "S7", "icao": "SBI"}]}, {"destination": {"icao": "LROD", "iata": "OMR", "name": "Oradea ", "shortName": "Oradea", "municipalityName": "Oradea", "location": {"lat": 47.0253, "lon": 21.9025}, "countryCode": "RO"}, "averageDailyFlights": 0.14, "operators": [{"name": "HiSky", "iata": "H4", "icao": "HYS"}]}, {"destination": {"icao": "LIRF", "iata": "FCO", "name": "Rome Leonardo da Vinci\u2013Fiumicino", "shortName": "Leonardo da Vinci\u2013Fiumicino", "municipalityName": "Rome", "location": {"lat": 41.8045, "lon": 12.2508}, "countryCode": "IT"}, "averageDailyFlights": 0.14, "operators": [{"name": "Enter Air"}]}, {"destination": {"icao": "EPRZ", "iata": "RZE", "name": "Rzesz\u00f3w -Jasionka", "shortName": "-Jasionka", "municipalityName": "Rzesz\u00f3w", "location": {"lat": 50.11, "lon": 22.019}, "countryCode": "PL"}, "averageDailyFlights": 0.14, "operators": [{"name": "Corendon Air", "iata": "XC", "icao": "CAI"}]}, {"destination": {"icao": "UAII", "iata": "CIT", "localCode": "\u0428\u041c\u0422", "name": "Shymkent ", "shortName": "Shymkent", "municipalityName": "Shymkent", "location": {"lat": 42.3642, "lon": 69.4789}, "countryCode": "KZ"}, "averageDailyFlights": 0.14, "operators": [{"name": "Pegasus", "iata": "PC", "icao": "PGT"}]}, {"destination": {"icao": "LATI", "iata": "TIA", "name": "Tirana Mother Teresa", "shortName": "Mother Teresa", "municipalityName": "Tirana", "location": {"lat": 41.4147, "lon": 19.7206}, "countryCode": "AL"}, "averageDailyFlights": 0.14, "operators": [{"name": "Corendon Air", "iata": "XC", "icao": "CAI"}]}, {"destination": {"icao": "ENVA", "iata": "TRD", "name": "Trondheim V\u00e6rnes", "shortName": "V\u00e6rnes", "municipalityName": "Trondheim", "location": {"lat": 63.4578, "lon": 10.923999}, "countryCode": "NO"}, "averageDailyFlights": 0.14, "operators": [{"name": "Sunclass Airlines", "iata": "DK", "icao": "VKG"}]}, {"destination": {"name": "AdanaTabriz"}, "averageDailyFlights": 0.14, "operators": [{"name": "Pegasus", "iata": "PC", "icao": "PGT"}]}, {"destination": {"name": "Aktyubinsk"}, "averageDailyFlights": 0.14, "operators": [{"name": "SCAT Airlines", "iata": "DV", "icao": "VSV"}]}, {"destination": {"name": "Arlanda"}, "averageDailyFlights": 0.14, "operators": [{"name": "Norwegian Air Shuttle", "iata": "DY", "icao": "NOZ"}]}, {"destination": {"name": "Cardiff"}, "averageDailyFlights": 0.14, "operators": [{"name": "TUI Airways", "iata": "BY", "icao": "TOM"}]}, {"destination": {"name": "Ceske Budejovice"}, "averageDailyFlights": 0.14, "operators": [{"name": "SmartWings", "iata": "QS", "icao": "TVS"}]}, {"destination": {"name": "ErfurtZurich"}, "averageDailyFlights": 0.14, "operators": [{"name": "Tailwind", "iata": "TI", "icao": "TWI"}]}, {"destination": {"name": "Exeter Airport"}, "averageDailyFlights": 0.14, "operators": [{"name": "Freebird Airlines", "iata": "FH", "icao": "FHY"}]}, {"destination": {"name": "GrazCologne"}, "averageDailyFlights": 0.14, "operators": [{"name": "Corendon Air", "iata": "XC", "icao": "CAI"}]}, {"destination": {"name": "Karaganda"}, "averageDailyFlights": 0.14, "operators": [{"name": "Turkish Airlines", "iata": "TK", "icao": "THY"}]}, {"destination": {"name": "Kaunas"}, "averageDailyFlights": 0.14, "operators": [{"name": "Freebird Airlines", "iata": "FH", "icao": "FHY"}]}, {"destination": {"name": "KristiansandBergen"}, "averageDailyFlights": 0.14, "operators": [{"name": "Freebird Airlines", "iata": "FH", "icao": "FHY"}]}, {"destination": {"name": "NurnbergKassel"}, "averageDailyFlights": 0.14, "operators": [{"name": "Tailwind", "iata": "TI", "icao": "TWI"}]}, {"destination": {"name": "Oulu"}, "averageDailyFlights": 0.14, "operators": [{"name": "Freebird Airlines", "iata": "FH", "icao": "FHY"}]}, {"destination": {"name": "Pardubice"}, "averageDailyFlights": 0.14, "operators": [{"name": "SmartWings", "iata": "QS", "icao": "TVS"}]}, {"destination": {"name": "Piestany"}, "averageDailyFlights": 0.14, "operators": [{"name": "Tailwind", "iata": "TI", "icao": "TWI"}]}, {"destination": {"name": "Skelleftea"}, "averageDailyFlights": 0.14, "operators": [{"name": "Freebird Airlines", "iata": "FH", "icao": "FHY"}]}, {"destination": {"name": "SofiaBucharest Otopeni"}, "averageDailyFlights": 0.14, "operators": [{"name": "Freebird Airlines", "iata": "FH", "icao": "FHY"}]}, {"destination": {"name": "Stansted"}, "averageDailyFlights": 0.14, "operators": [{"name": "Jet2", "iata": "LS", "icao": "EXS"}]}, {"destination": {"name": "Timisoara"}, "averageDailyFlights": 0.14, "operators": [{"name": "Anima Wings"}]}, {"destination": {"name": "Tirgu Mures"}, "averageDailyFlights": 0.14, "operators": [{"name": "HiSky", "iata": "H4", "icao": "HYS"}]}, {"destination": {"name": "Vaasa"}, "averageDailyFlights": 0.14, "operators": [{"name": "Freebird Airlines", "iata": "FH", "icao": "FHY"}]}, {"destination": {"name": "Zagreb"}, "averageDailyFlights": 0.14, "operators": [{"name": "Freebird Airlines", "iata": "FH", "icao": "FHY"}]}]}