{"routes": [{"destination": {"icao": "LOWW", "iata": "VIE", "name": "Vienna Schwechat", "shortName": "Schwechat", "municipalityName": "Vienna", "location": {"lat": 48.1103, "lon": 16.5697}, "countryCode": "AT"}, "averageDailyFlights": 1.14, "operators": [{"name": "Ryanair", "iata": "FR", "icao": "RYR"}, {"name": "Wizz Air Malta", "iata": "W4", "icao": "WMT"}]}, {"destination": {"icao": "LFSB", "iata": "BSL", "name": "B\u00e2le/Mulhouse Euro Basel-Mulhouse-Freiburg", "shortName": "Euro Basel-Mulhouse-Freiburg", "municipalityName": "B\u00e2le/Mulhouse", "location": {"lat": 47.5896, "lon": 7.52991}, "countryCode": "FR"}, "averageDailyFlights": 0.71, "operators": [{"name": "Wizz Air"}]}, {"destination": {"icao": "EDDK", "iata": "CGN", "name": "Cologne Bonn", "shortName": "Bonn", "municipalityName": "Cologne", "location": {"lat": 50.8659, "lon": 7.142739}, "countryCode": "DE"}, "averageDailyFlights": 0.57, "operators": [{"name": "Wizz Air"}, {"name": "JetSMART", "iata": "JA", "icao": "JAT"}]}, {"destination": {"icao": "EDFH", "iata": "HHN", "name": "Hahn Frankfurt-", "shortName": "Frankfurt-", "municipalityName": "Hahn", "location": {"lat": 49.9487, "lon": 7.263889}, "countryCode": "DE"}, "averageDailyFlights": 0.43, "operators": [{"name": "JetSMART", "iata": "JA", "icao": "JAT"}]}, {"destination": {"icao": "LYBE", "iata": "BEG", "name": "Belgrade Nikola Tesla", "shortName": "Nikola Tesla", "municipalityName": "Belgrade", "location": {"lat": 44.8184, "lon": 20.3091}, "countryCode": "RS"}, "averageDailyFlights": 0.29, "operators": [{"name": "JetSMART", "iata": "JA", "icao": "JAT"}]}, {"destination": {"icao": "LMML", "iata": "MLA", "name": "Luqa Malta", "shortName": "Malta", "municipalityName": "Luqa", "location": {"lat": 35.8575, "lon": 14.4775}, "countryCode": "MT"}, "averageDailyFlights": 0.29, "operators": [{"name": "Ryanair", "iata": "FR", "icao": "RYR"}]}, {"destination": {"icao": "ESMS", "iata": "MMX", "name": "Malm\u00f6 Sturup", "shortName": "Sturup", "municipalityName": "Malm\u00f6", "location": {"lat": 55.536304, "lon": 13.376197}, "countryCode": "SE"}, "averageDailyFlights": 0.29, "operators": [{"name": "Wizz Air"}]}, {"destination": {"icao": "EDJA", "iata": "FMM", "name": "Memmingen Allgau", "shortName": "Allgau", "municipalityName": "Memmingen", "location": {"lat": 47.9888, "lon": 10.2395}, "countryCode": "DE"}, "averageDailyFlights": 0.29, "operators": [{"name": "Wizz Air Malta", "iata": "W4", "icao": "WMT"}]}, {"destination": {"icao": "ESSA", "iata": "ARN", "name": "Stockholm -Arlanda", "shortName": "-Arlanda", "municipalityName": "Stockholm", "location": {"lat": 59.6519, "lon": 17.9186}, "countryCode": "SE"}, "averageDailyFlights": 0.29, "operators": [{"name": "Ryanair", "iata": "FR", "icao": "RYR"}]}, {"destination": {"icao": "LGKR", "iata": "CFU", "name": "Kerkyra Island Ioannis Kapodistrias", "shortName": "Ioannis Kapodistrias", "municipalityName": "Kerkyra Island", "location": {"lat": 39.6019, "lon": 19.9117}, "countryCode": "GR"}, "averageDailyFlights": 0.14, "operators": [{"name": "Ryanair", "iata": "FR", "icao": "RYR"}]}, {"destination": {"name": "Istanbul"}, "averageDailyFlights": 0.14, "operators": [{"name": "JetSMART", "iata": "JA", "icao": "JAT"}]}]}