{"routes": [{"destination": {"icao": "OIII", "iata": "THR", "name": "Tehran Mehrabad", "shortName": "Mehrabad", "municipalityName": "Tehran", "location": {"lat": 35.6892, "lon": 51.3134}, "countryCode": "IR"}, "averageDailyFlights": 2.86, "operators": [{"name": "Qeshm Air", "iata": "QB", "icao": "QSM"}, {"name": "Iran Air", "iata": "IR", "icao": "IRA"}, {"name": "Mahan Air", "iata": "W5", "icao": "IRM"}, {"name": "Iran Aseman Airlines", "iata": "EP", "icao": "IRC"}, {"name": "Iran Airtour", "iata": "B9", "icao": "IRB"}]}, {"destination": {"icao": "OIMM", "iata": "MHD", "name": "Mashhad ", "shortName": "Mashhad", "municipalityName": "Mashhad", "location": {"lat": 36.2352, "lon": 59.641}, "countryCode": "IR"}, "averageDailyFlights": 1.3, "operators": [{"name": "Iran Airtour", "iata": "B9", "icao": "IRB"}, {"name": "Sepehran Airlines", "iata": "IS", "icao": "SHI"}]}, {"destination": {"icao": "OMDB", "iata": "DXB", "name": "Dubai ", "shortName": "Dubai", "municipalityName": "Dubai", "location": {"lat": 25.252798, "lon": 55.3644}, "countryCode": "AE"}, "averageDailyFlights": 1.14, "operators": [{"name": "flydubai", "iata": "FZ", "icao": "FDB"}]}, {"destination": {"icao": "OIGG", "iata": "RAS", "name": "Rasht Sardar-e-Jangal", "shortName": "Sardar-e-Jangal", "municipalityName": "Rasht", "location": {"lat": 37.323334, "lon": 49.61778}, "countryCode": "IR"}, "averageDailyFlights": 0.43, "operators": [{"name": "Iran Aseman Airlines", "iata": "EP", "icao": "IRC"}]}, {"destination": {"icao": "OINZ", "iata": "SRY", "name": "Sari Dasht-e Naz", "shortName": "Dasht-e Naz", "municipalityName": "Sari", "location": {"lat": 36.6358, "lon": 53.1936}, "countryCode": "IR"}, "averageDailyFlights": 0.43, "operators": [{"name": "Qeshm Air", "iata": "QB", "icao": "QSM"}]}, {"destination": {"icao": "OITT", "iata": "TBZ", "name": "Tabriz ", "shortName": "Tabriz", "municipalityName": "Tabriz", "location": {"lat": 38.1339, "lon": 46.235}, "countryCode": "IR"}, "averageDailyFlights": 0.43, "operators": [{"name": "Qeshm Air", "iata": "QB", "icao": "QSM"}]}, {"destination": {"icao": "OISS", "iata": "SYZ", "name": "Shiraz Shahid Dastghaib", "shortName": "Shahid Dastghaib", "municipalityName": "Shiraz", "location": {"lat": 29.5392, "lon": 52.5898}, "countryCode": "IR"}, "averageDailyFlights": 0.29, "operators": [{"name": "Iran Air", "iata": "IR", "icao": "IRA"}, {"name": "Iran Aseman Airlines", "iata": "EP", "icao": "IRC"}]}]}