{"routes": [{"destination": {"icao": "RCQC", "iata": "MZG", "name": "Makung City Makung", "shortName": "Makung", "municipalityName": "Makung City", "location": {"lat": 23.5687, "lon": 119.628}, "countryCode": "TW"}, "averageDailyFlights": 11.57, "operators": [{"name": "UNI Air", "iata": "B7", "icao": "UIA"}, {"name": "Mandarin Airlines", "iata": "AE", "icao": "MDA"}]}, {"destination": {"icao": "RCBS", "iata": "KNH", "name": "Shang-I Kinmen", "shortName": "Kinmen", "municipalityName": "Shang-I", "location": {"lat": 24.4279, "lon": 118.359}, "countryCode": "TW"}, "averageDailyFlights": 6.29, "operators": [{"name": "UNI Air", "iata": "B7", "icao": "UIA"}, {"name": "Mandarin Airlines", "iata": "AE", "icao": "MDA"}]}, {"destination": {"icao": "VHHH", "iata": "HKG", "name": "Hong Kong Chek Lap Kok", "shortName": "Chek Lap Kok", "municipalityName": "Hong Kong", "location": {"lat": 22.3089, "lon": 113.915}, "countryCode": "HK"}, "averageDailyFlights": 5.14, "operators": [{"name": "Cathay Pacific", "iata": "CX", "icao": "CPA"}, {"name": "China Airlines", "iata": "CI", "icao": "CAL"}, {"name": "Hong Kong Express", "iata": "UO", "icao": "HKE"}]}, {"destination": {"icao": "RJBB", "iata": "KIX", "name": "Osaka Kansai", "shortName": "Kansai", "municipalityName": "Osaka", "location": {"lat": 34.4273, "lon": 135.244}, "countryCode": "JP"}, "averageDailyFlights": 3.86, "operators": [{"name": "EVA Air", "iata": "BR", "icao": "EVA"}, {"name": "Peach Aviation", "iata": "MM", "icao": "APJ"}, {"name": "China Airlines", "iata": "CI", "icao": "CAL"}, {"name": "Tigerair Taiwan", "iata": "IT", "icao": "TTW"}]}, {"destination": {"icao": "RJAA", "iata": "NRT", "name": "Tokyo Narita", "shortName": "Narita", "municipalityName": "Tokyo", "location": {"lat": 35.7647, "lon": 140.386}, "countryCode": "JP"}, "averageDailyFlights": 3.0, "operators": [{"name": "EVA Air", "iata": "BR", "icao": "EVA"}, {"name": "China Airlines", "iata": "CI", "icao": "CAL"}, {"name": "Tigerair Taiwan", "iata": "IT", "icao": "TTW"}]}, {"destination": {"icao": "RKSI", "iata": "ICN", "name": "Seoul Incheon", "shortName": "Incheon", "municipalityName": "Seoul", "location": {"lat": 37.4691, "lon": 126.451}, "countryCode": "KR"}, "averageDailyFlights": 2.86, "operators": [{"name": "China Airlines", "iata": "CI", "icao": "CAL"}, {"name": "T'Way Air", "iata": "TW", "icao": "TWB"}, {"name": "EVA Air", "iata": "BR", "icao": "EVA"}]}, {"destination": {"icao": "VMMC", "iata": "MFM", "name": "Taipa Macau", "shortName": "Macau", "municipalityName": "Taipa", "location": {"lat": 22.1496, "lon": 113.592}, "countryCode": "MO"}, "averageDailyFlights": 2.57, "operators": [{"name": "Air Macau", "iata": "NX", "icao": "AMU"}, {"name": "EVA Air", "iata": "BR", "icao": "EVA"}, {"name": "Tigerair Taiwan", "iata": "IT", "icao": "TTW"}]}, {"destination": {"icao": "VTBS", "iata": "BKK", "name": "Bangkok Suvarnabhumi", "shortName": "Suvarnabhumi", "municipalityName": "Bangkok", "location": {"lat": 13.681099, "lon": 100.747}, "countryCode": "TH"}, "averageDailyFlights": 2.29, "operators": [{"name": "China Airlines", "iata": "CI", "icao": "CAL"}, {"name": "Thai Smile", "iata": "WE", "icao": "THD"}]}, {"destination": {"icao": "VVTS", "iata": "SGN", "name": "Ho Chi Minh City Tan Son Nhat", "shortName": "Tan Son Nhat", "municipalityName": "Ho Chi Minh City", "location": {"lat": 10.818799, "lon": 106.652}, "countryCode": "VN"}, "averageDailyFlights": 2.29, "operators": [{"name": "Vietnam Airlines", "iata": "VN", "icao": "HVN"}, {"name": "VietJetAir", "iata": "VJ", "icao": "VJC"}]}, {"destination": {"icao": "VVNB", "iata": "HAN", "name": "Hanoi Noi Bai", "shortName": "Noi Bai", "municipalityName": "Hanoi", "location": {"lat": 21.2212, "lon": 105.807}, "countryCode": "VN"}, "averageDailyFlights": 2.14, "operators": [{"name": "VietJetAir", "iata": "VJ", "icao": "VJC"}, {"name": "Vietnam Airlines", "iata": "VN", "icao": "HVN"}]}, {"destination": {"icao": "ZSPD", "iata": "PVG", "name": "Shanghai Pudong", "shortName": "Pudong", "municipalityName": "Shanghai", "location": {"lat": 31.1434, "lon": 121.805}, "countryCode": "CN"}, "averageDailyFlights": 2.14, "operators": [{"name": "China Airlines", "iata": "CI", "icao": "CAL"}, {"name": "Juneyao Airlines", "iata": "HO", "icao": "DKH"}, {"name": "EVA Air", "iata": "BR", "icao": "EVA"}]}, {"destination": {"icao": "VVDN", "iata": "DAD", "name": "Da Nang ", "shortName": "Da Nang", "municipalityName": "Da Nang", "location": {"lat": 16.0439, "lon": 108.199}, "countryCode": "VN"}, "averageDailyFlights": 1.71, "operators": [{"name": "Tigerair Taiwan", "iata": "IT", "icao": "TTW"}, {"name": "Bamboo Airways", "iata": "QH", "icao": "BAV"}]}, {"destination": {"icao": "RKPK", "iata": "PUS", "name": "Busan-si Gimhae", "shortName": "Gimhae", "municipalityName": "Busan-si", "location": {"lat": 35.1795, "lon": 128.938}, "countryCode": "KR"}, "averageDailyFlights": 1.14, "operators": [{"name": "Air Busan", "iata": "BX", "icao": "ABL"}]}, {"destination": {"icao": "RCYU", "iata": "HUN", "name": "Hualien City Hualien", "shortName": "Hualien", "municipalityName": "Hualien City", "location": {"lat": 24.0231, "lon": 121.618}, "countryCode": "TW"}, "averageDailyFlights": 1.14, "operators": [{"name": "Mandarin Airlines", "iata": "AE", "icao": "MDA"}]}, {"destination": {"icao": "RKSS", "iata": "GMP", "name": "Seoul-si Gimpo", "shortName": "Gimpo", "municipalityName": "Seoul-si", "location": {"lat": 37.5583, "lon": 126.791}, "countryCode": "KR"}, "averageDailyFlights": 1.14, "operators": [{"name": "China Airlines", "iata": "CI", "icao": "CAL"}, {"name": "Tigerair Taiwan", "iata": "IT", "icao": "TTW"}]}, {"destination": {"icao": "RPLL", "iata": "MNL", "name": "Manila Ninoy Aquino", "shortName": "Ninoy Aquino", "municipalityName": "Manila", "location": {"lat": 14.5086, "lon": 121.02}, "countryCode": "PH"}, "averageDailyFlights": 1.0, "operators": [{"name": "Philippines AirAsia", "iata": "Z2", "icao": "APG"}, {"name": "China Airlines", "iata": "CI", "icao": "CAL"}]}, {"destination": {"icao": "RJFF", "iata": "FUK", "name": "Fukuoka ", "shortName": "Fukuoka", "municipalityName": "Fukuoka", "location": {"lat": 33.5859, "lon": 130.451}, "countryCode": "JP"}, "averageDailyFlights": 0.86, "operators": [{"name": "EVA Air", "iata": "BR", "icao": "EVA"}, {"name": "Tigerair Taiwan", "iata": "IT", "icao": "TTW"}]}, {"destination": {"icao": "ZSAM", "iata": "XMN", "name": "Xiamen Gaoqi", "shortName": "Gaoqi", "municipalityName": "Xiamen", "location": {"lat": 24.544, "lon": 118.128}, "countryCode": "CN"}, "averageDailyFlights": 0.71, "operators": [{"name": "Mandarin Airlines", "iata": "AE", "icao": "MDA"}, {"name": "Xiamen Airlines", "iata": "MF", "icao": "CXA"}]}, {"destination": {"icao": "WMKK", "iata": "KUL", "name": "Kuala Lumpur ", "shortName": "Kuala Lumpur", "municipalityName": "Kuala Lumpur", "location": {"lat": 2.745579, "lon": 101.71}, "countryCode": "MY"}, "averageDailyFlights": 0.57, "operators": [{"name": "AirAsia", "iata": "AK", "icao": "AXM"}]}, {"destination": {"icao": "RJGG", "iata": "NGO", "name": "Tokoname Chubu Centrair", "shortName": "Chubu Centrair", "municipalityName": "Tokoname", "location": {"lat": 34.8584, "lon": 136.805}, "countryCode": "JP"}, "averageDailyFlights": 0.57, "operators": [{"name": "Tigerair Taiwan", "iata": "IT", "icao": "TTW"}]}, {"destination": {"icao": "ZSNJ", "iata": "NKG", "name": "Nanjing Lukou", "shortName": "Lukou", "municipalityName": "Nanjing", "location": {"lat": 31.742, "lon": 118.862}, "countryCode": "CN"}, "averageDailyFlights": 0.43, "operators": [{"name": "China Eastern Airlines", "iata": "MU", "icao": "CES"}]}, {"destination": {"icao": "ZGSZ", "iata": "SZX", "name": "Shenzhen Bao'an", "shortName": "Bao'an", "municipalityName": "Shenzhen", "location": {"lat": 22.6393, "lon": 113.811}, "countryCode": "CN"}, "averageDailyFlights": 0.29, "operators": [{"name": "China Airlines", "iata": "CI", "icao": "CAL"}]}, {"destination": {"icao": "ZSFZ", "iata": "FOC", "name": "Fuzhou Changle", "shortName": "Changle", "municipalityName": "Fuzhou", "location": {"lat": 25.9351, "lon": 119.663}, "countryCode": "CN"}, "averageDailyFlights": 0.14, "operators": [{"name": "Xiamen Airlines", "iata": "MF", "icao": "CXA"}]}]}