{"routes": [{"destination": {"icao": "SACO", "iata": "COR", "name": "C\u00f3rdoba Ingeniero Ambrosio Taravella", "shortName": "Ingeniero Ambrosio Taravella", "municipalityName": "C\u00f3rdoba", "location": {"lat": -31.3236, "lon": -64.208}, "countryCode": "AR"}, "averageDailyFlights": 0.57, "operators": [{"name": "Aerolineas Argentinas", "iata": "AR", "icao": "ARG"}]}, {"destination": {"icao": "SAZB", "iata": "BHI", "name": "Bah\u00eda Blanca Comandante Espora", "shortName": "Comandante Espora", "municipalityName": "Bah\u00eda Blanca", "location": {"lat": -38.725, "lon": -62.1693}, "countryCode": "AR"}, "averageDailyFlights": 0.43, "operators": [{"name": "Aerolineas Argentinas", "iata": "AR", "icao": "ARG"}]}, {"destination": {"icao": "SAEZ", "iata": "EZE", "name": "Buenos Aires Ministro Pistarini", "shortName": "Ministro Pistarini", "municipalityName": "Buenos Aires", "location": {"lat": -34.8222, "lon": -58.5358}, "countryCode": "AR"}, "averageDailyFlights": 0.43, "operators": [{"name": "Aerolineas Argentinas", "iata": "AR", "icao": "ARG"}]}, {"destination": {"icao": "SAVC", "iata": "CRD", "name": "Comodoro Rivadavia General E. Mosconi", "shortName": "General E. Mosconi", "municipalityName": "Comodoro Rivadavia", "location": {"lat": -45.7853, "lon": -67.4655}, "countryCode": "AR"}, "averageDailyFlights": 0.43, "operators": [{"name": "Aerolineas Argentinas", "iata": "AR", "icao": "ARG"}]}, {"destination": {"icao": "SAWH", "iata": "USH", "name": "Ushuahia Malvinas Argentinas", "shortName": "Malvinas Argentinas", "municipalityName": "Ushuahia", "location": {"lat": -54.8433, "lon": -68.2958}, "countryCode": "AR"}, "averageDailyFlights": 0.43, "operators": [{"name": "Aerolineas Argentinas", "iata": "AR", "icao": "ARG"}]}, {"destination": {"icao": "SAWC", "iata": "FTE", "name": "El Calafate ", "shortName": "El Calafate", "municipalityName": "El Calafate", "location": {"lat": -50.2803, "lon": -72.0531}, "countryCode": "AR"}, "averageDailyFlights": 0.14, "operators": [{"name": "Aerolineas Argentinas", "iata": "AR", "icao": "ARG"}]}]}