{"routes": [{"destination": {"icao": "SAEZ", "iata": "EZE", "name": "Buenos Aires Ministro Pistarini", "shortName": "Ministro Pistarini", "municipalityName": "Buenos Aires", "location": {"lat": -34.8222, "lon": -58.5358}, "countryCode": "AR"}, "averageDailyFlights": 4.86, "operators": [{"name": "Aerolineas Argentinas", "iata": "AR", "icao": "ARG"}, {"name": "Air Labrador", "iata": "WJ", "icao": "LAL"}]}, {"destination": {"icao": "SABE", "iata": "AEP", "name": "Buenos Aires Jorge Newbery Airpark", "shortName": "Jorge Newbery Airpark", "municipalityName": "Buenos Aires", "location": {"lat": -34.5592, "lon": -58.4156}, "countryCode": "AR"}, "averageDailyFlights": 3.43, "operators": [{"name": "F.B. Lineas Aereas SA"}]}, {"destination": {"icao": "SACO", "iata": "COR", "name": "C\u00f3rdoba Ingeniero Ambrosio Taravella", "shortName": "Ingeniero Ambrosio Taravella", "municipalityName": "C\u00f3rdoba", "location": {"lat": -31.3236, "lon": -64.208}, "countryCode": "AR"}, "averageDailyFlights": 2.0, "operators": [{"name": "Aerolineas Argentinas", "iata": "AR", "icao": "ARG"}, {"name": "Air Labrador", "iata": "WJ", "icao": "LAL"}, {"name": "F.B. Lineas Aereas SA"}]}, {"destination": {"icao": "SAME", "iata": "MDZ", "name": "Mendoza El Plumerillo", "shortName": "El Plumerillo", "municipalityName": "Mendoza", "location": {"lat": -32.8317, "lon": -68.7929}, "countryCode": "AR"}, "averageDailyFlights": 1.0, "operators": [{"name": "Air Labrador", "iata": "WJ", "icao": "LAL"}, {"name": "Aerolineas Argentinas", "iata": "AR", "icao": "ARG"}]}, {"destination": {"icao": "SAAR", "iata": "ROS", "name": "Rosario Islas Malvinas", "shortName": "Islas Malvinas", "municipalityName": "Rosario", "location": {"lat": -32.9036, "lon": -60.785}, "countryCode": "AR"}, "averageDailyFlights": 0.57, "operators": [{"name": "Aerolineas Argentinas", "iata": "AR", "icao": "ARG"}]}, {"destination": {"icao": "SAWC", "iata": "FTE", "name": "El Calafate ", "shortName": "El Calafate", "municipalityName": "El Calafate", "location": {"lat": -50.2803, "lon": -72.0531}, "countryCode": "AR"}, "averageDailyFlights": 0.29, "operators": [{"name": "Aerolineas Argentinas", "iata": "AR", "icao": "ARG"}]}, {"destination": {"icao": "SAVV", "iata": "VDM", "name": "Viedma / Carmen de Patagones Gobernador Castello", "shortName": "Gobernador Castello", "municipalityName": "Viedma / Carmen de Patagones", "location": {"lat": -40.8692, "lon": -63.0004}, "countryCode": "AR"}, "averageDailyFlights": 0.29, "operators": [{"name": "Aerolineas Argentinas", "iata": "AR", "icao": "ARG"}]}]}