{"routes": [{"destination": {"icao": "SBRF", "iata": "REC", "name": "Recife Guararapes - Gilberto Freyre", "shortName": "Guararapes - Gilberto Freyre", "municipalityName": "Recife", "location": {"lat": -8.126489, "lon": -34.9236}, "countryCode": "BR"}, "averageDailyFlights": 2.86, "operators": [{"name": "Azul", "iata": "AD", "icao": "AZU"}]}, {"destination": {"icao": "SBSV", "iata": "SSA", "name": "Salvador Deputado Luiz Eduardo Magalh\u00e3es", "shortName": "Deputado Luiz Eduardo Magalh\u00e3es", "municipalityName": "Salvador", "location": {"lat": -12.908611, "lon": -38.3225}, "countryCode": "BR"}, "averageDailyFlights": 2.14, "operators": [{"name": "Azul", "iata": "AD", "icao": "AZU"}, {"name": "Gol"}]}, {"destination": {"icao": "SBFZ", "iata": "FOR", "name": "Fortaleza Pinto Martins", "shortName": "Pinto Martins", "municipalityName": "Fortaleza", "location": {"lat": -3.776279, "lon": -38.5326}, "countryCode": "BR"}, "averageDailyFlights": 0.86, "operators": [{"name": "Azul", "iata": "AD", "icao": "AZU"}]}, {"destination": {"icao": "SBRJ", "iata": "SDU", "name": "Rio de Janeiro Santos Dumont", "shortName": "Santos Dumont", "municipalityName": "Rio de Janeiro", "location": {"lat": -22.9105, "lon": -43.1631}, "countryCode": "BR"}, "averageDailyFlights": 0.71, "operators": [{"name": "Azul", "iata": "AD", "icao": "AZU"}]}, {"destination": {"icao": "SBCF", "iata": "CNF", "name": "Belo Horizonte Tancredo Neves", "shortName": "Tancredo Neves", "municipalityName": "Belo Horizonte", "location": {"lat": -19.624443, "lon": -43.971943}, "countryCode": "BR"}, "averageDailyFlights": 0.43, "operators": [{"name": "Azul", "iata": "AD", "icao": "AZU"}]}]}