{"routes": [{"destination": {"icao": "SBCF", "iata": "CNF", "name": "Belo Horizonte Tancredo Neves", "shortName": "Tancredo Neves", "municipalityName": "Belo Horizonte", "location": {"lat": -19.624443, "lon": -43.971943}, "countryCode": "BR"}, "averageDailyFlights": 4.29, "operators": [{"name": "Azul", "iata": "AD", "icao": "AZU"}]}, {"destination": {"icao": "SBSP", "iata": "CGH", "name": "S\u00e3o Paulo Congonhas", "shortName": "Congonhas", "municipalityName": "S\u00e3o Paulo", "location": {"lat": -23.62611, "lon": -46.656387}, "countryCode": "BR"}, "averageDailyFlights": 4.16, "operators": [{"name": "Gol", "iata": "G3", "icao": "GLO"}, {"name": "LATAM", "iata": "LA", "icao": "LAN"}, {"name": "Azul", "iata": "AD", "icao": "AZU"}]}, {"destination": {"icao": "SBKP", "iata": "VCP", "name": "Campinas Viracopos", "shortName": "Viracopos", "municipalityName": "Campinas", "location": {"lat": -23.0074, "lon": -47.1345}, "countryCode": "BR"}, "averageDailyFlights": 3.86, "operators": [{"name": "Azul", "iata": "AD", "icao": "AZU"}]}, {"destination": {"icao": "SBPS", "iata": "BPS", "name": "Porto Seguro ", "shortName": "Porto Seguro", "municipalityName": "Porto Seguro", "location": {"lat": -16.4386, "lon": -39.0809}, "countryCode": "BR"}, "averageDailyFlights": 1.0, "operators": [{"name": "Azul", "iata": "AD", "icao": "AZU"}]}, {"destination": {"icao": "SBMO", "iata": "MCZ", "name": "Macei\u00f3 Zumbi dos Palmares", "shortName": "Zumbi dos Palmares", "municipalityName": "Macei\u00f3", "location": {"lat": -9.510809, "lon": -35.7917}, "countryCode": "BR"}, "averageDailyFlights": 0.57, "operators": [{"name": "Azul", "iata": "AD", "icao": "AZU"}]}, {"destination": {"icao": "SBFZ", "iata": "FOR", "name": "Fortaleza Pinto Martins", "shortName": "Pinto Martins", "municipalityName": "Fortaleza", "location": {"lat": -3.776279, "lon": -38.5326}, "countryCode": "BR"}, "averageDailyFlights": 0.29, "operators": [{"name": "Azul", "iata": "AD", "icao": "AZU"}]}, {"destination": {"icao": "SBJP", "iata": "JPA", "name": "Jo\u00e3o Pessoa Presidente Castro Pinto", "shortName": "Presidente Castro Pinto", "municipalityName": "Jo\u00e3o Pessoa", "location": {"lat": -7.145833, "lon": -34.948612}, "countryCode": "BR"}, "averageDailyFlights": 0.29, "operators": [{"name": "Azul", "iata": "AD", "icao": "AZU"}]}, {"destination": {"icao": "SBSG", "iata": "NAT", "name": "Natal Governador Alu\u00edzio Alves", "shortName": "Governador Alu\u00edzio Alves", "municipalityName": "Natal", "location": {"lat": -5.768056, "lon": -35.37611}, "countryCode": "BR"}, "averageDailyFlights": 0.29, "operators": [{"name": "Azul", "iata": "AD", "icao": "AZU"}]}, {"destination": {"icao": "SBRF", "iata": "REC", "name": "Recife Guararapes - Gilberto Freyre", "shortName": "Guararapes - Gilberto Freyre", "municipalityName": "Recife", "location": {"lat": -8.126489, "lon": -34.9236}, "countryCode": "BR"}, "averageDailyFlights": 0.14, "operators": [{"name": "Azul", "iata": "AD", "icao": "AZU"}]}]}