{"routes": [{"destination": {"icao": "SCEL", "iata": "SCL", "name": "Santiago Comodoro Arturo Merino Ben\u00edtez", "shortName": "Comodoro Arturo Merino Ben\u00edtez", "municipalityName": "Santiago", "location": {"lat": -33.393, "lon": -70.7858}, "countryCode": "CL"}, "averageDailyFlights": 5.71, "operators": [{"name": "LATAM", "iata": "LA", "icao": "LAN"}, {"name": "Sky Airline", "iata": "H2", "icao": "SKU"}]}, {"destination": {"icao": "SCTE", "iata": "PMC", "name": "Port Montt El Tepual", "shortName": "El Tepual", "municipalityName": "Port Montt", "location": {"lat": -41.4389, "lon": -73.094}, "countryCode": "CL"}, "averageDailyFlights": 2.71, "operators": [{"name": "LATAM", "iata": "LA", "icao": "LAN"}, {"name": "Sky Airline", "iata": "H2", "icao": "SKU"}, {"name": "JetSMART", "iata": "JA", "icao": "JAT"}]}, {"destination": {"icao": "SCFM", "iata": "WPR", "name": "Porvenir Capitan Fuentes Martinez", "shortName": "Capitan Fuentes Martinez", "municipalityName": "Porvenir", "location": {"lat": -53.2537, "lon": -70.3192}, "countryCode": "CL"}, "averageDailyFlights": 1.43, "operators": [{"name": "Aerovias DAP", "iata": "V5", "icao": "DAP"}]}, {"destination": {"icao": "SCGZ", "iata": "WPU", "name": "Puerto Williams Guardiamarina Za\u00f1artu", "shortName": "Guardiamarina Za\u00f1artu", "municipalityName": "Puerto Williams", "location": {"lat": -54.9311, "lon": -67.6263}, "countryCode": "CL"}, "averageDailyFlights": 1.0, "operators": [{"name": "Aerovias DAP", "iata": "V5", "icao": "DAP"}]}, {"destination": {"icao": "EGYP", "iata": "MPN", "name": "Mount Pleasant ", "shortName": "Mount Pleasant", "municipalityName": "Mount Pleasant", "location": {"lat": -51.8228, "lon": -58.4472}, "countryCode": "FK"}, "averageDailyFlights": 0.29, "operators": [{"name": "LATAM", "iata": "LA", "icao": "LAN"}]}]}