{"routes": [{"destination": {"icao": "SVMI", "iata": "CCS", "name": "Caracas Sim\u00f3n Bol\u00edvar", "shortName": "Sim\u00f3n Bol\u00edvar", "municipalityName": "Caracas", "location": {"lat": 10.603116, "lon": -66.990585}, "countryCode": "VE"}, "averageDailyFlights": 4.86, "operators": [{"name": "LASER Airlines", "iata": "QL", "icao": "LER"}, {"name": "Avior", "iata": "9V", "icao": "ROI"}, {"name": "Conviasa", "iata": "V0", "icao": "VCV"}]}, {"destination": {"icao": "SVBC", "iata": "BLA", "name": "Barcelona General Jose Antonio Anzoategui", "shortName": "General Jose Antonio Anzoategui", "municipalityName": "Barcelona", "location": {"lat": 10.107099, "lon": -64.6892}, "countryCode": "VE"}, "averageDailyFlights": 1.71, "operators": [{"name": "Conviasa", "iata": "V0", "icao": "VCV"}]}, {"destination": {"icao": "SVMC", "iata": "MAR", "name": "Maracaibo La Chinita", "shortName": "La Chinita", "municipalityName": "Maracaibo", "location": {"lat": 10.558208, "lon": -71.72786}, "countryCode": "VE"}, "averageDailyFlights": 0.43, "operators": [{"name": "Conviasa", "iata": "V0", "icao": "VCV"}]}, {"destination": {"icao": "SVPR", "iata": "PZO", "name": "Puerto Ordaz-Ciudad Guayana General Manuel Carlos Piar", "shortName": "General Manuel Carlos Piar", "municipalityName": "Puerto Ordaz-Ciudad Guayana", "location": {"lat": 8.28853, "lon": -62.7604}, "countryCode": "VE"}, "averageDailyFlights": 0.43, "operators": [{"name": "Conviasa", "iata": "V0", "icao": "VCV"}]}, {"destination": {"icao": "SVVA", "iata": "VLN", "name": "Valencia Arturo Michelena", "shortName": "Arturo Michelena", "municipalityName": "Valencia", "location": {"lat": 10.149732, "lon": -67.9284}, "countryCode": "VE"}, "averageDailyFlights": 0.43, "operators": [{"name": "Conviasa", "iata": "V0", "icao": "VCV"}]}, {"destination": {"name": "Santo Domingo City"}, "averageDailyFlights": 0.43, "operators": [{"name": "Conviasa", "iata": "V0", "icao": "VCV"}]}, {"destination": {"icao": "SVBM", "iata": "BRM", "name": "Barquisimeto ", "shortName": "Barquisimeto", "municipalityName": "Barquisimeto", "location": {"lat": 10.042746, "lon": -69.35862}, "countryCode": "VE"}, "averageDailyFlights": 0.29, "operators": [{"name": "Conviasa", "iata": "V0", "icao": "VCV"}]}, {"destination": {"icao": "MUCU", "iata": "SCU", "name": "Santiago Antonio Maceo", "shortName": "Antonio Maceo", "municipalityName": "Santiago", "location": {"lat": 19.9698, "lon": -75.8354}, "countryCode": "CU"}, "averageDailyFlights": 0.14, "operators": [{"name": "Cubana de Aviacion", "iata": "CU", "icao": "CUB"}]}, {"destination": {"name": "Barinas"}, "averageDailyFlights": 0.14, "operators": [{"name": "Conviasa", "iata": "V0", "icao": "VCV"}]}, {"destination": {"name": "Havana"}, "averageDailyFlights": 0.14, "operators": [{"name": "Cubana de Aviacion", "iata": "CU", "icao": "CUB"}]}, {"destination": {"name": "Moscow"}, "averageDailyFlights": 0.14, "operators": [{"name": "Nordwind Airlines", "iata": "N4", "icao": "NWS"}]}]}