{"routes": [{"destination": {"icao": "UAAA", "iata": "ALA", "localCode": "\u0410\u041b\u0410", "name": "Almaty ", "shortName": "Almaty", "municipalityName": "Almaty", "location": {"lat": 43.3521, "lon": 77.0405}, "countryCode": "KZ"}, "averageDailyFlights": 4.29, "operators": [{"name": "Air Astana", "iata": "KC", "icao": "KZR"}, {"name": "SCAT Airlines", "iata": "DV", "icao": "VSV"}]}, {"destination": {"icao": "UACC", "iata": "NQZ", "name": "Astana Nursultan Nazarbayev", "shortName": "Nursultan Nazarbayev", "municipalityName": "Astana", "location": {"lat": 51.0222, "lon": 71.4669}, "countryCode": "KZ"}, "averageDailyFlights": 3.43, "operators": [{"name": "SCAT Airlines", "iata": "DV", "icao": "VSV"}, {"name": "Air Astana", "iata": "KC", "icao": "KZR"}]}, {"destination": {"icao": "UATE", "iata": "SCO", "localCode": "\u0410\u0410\u0423", "name": "Aktau ", "shortName": "Aktau", "municipalityName": "Aktau", "location": {"lat": 43.8601, "lon": 51.092}, "countryCode": "KZ"}, "averageDailyFlights": 1.71, "operators": [{"name": "Air Astana", "iata": "KC", "icao": "KZR"}]}, {"destination": {"icao": "UAII", "iata": "CIT", "localCode": "\u0428\u041c\u0422", "name": "Shymkent ", "shortName": "Shymkent", "municipalityName": "Shymkent", "location": {"lat": 42.3642, "lon": 69.4789}, "countryCode": "KZ"}, "averageDailyFlights": 1.71, "operators": [{"name": "SCAT Airlines", "iata": "DV", "icao": "VSV"}, {"name": "Air Astana", "iata": "KC", "icao": "KZR"}]}, {"destination": {"icao": "UATT", "iata": "AKX", "localCode": "\u0410\u041a\u0425", "name": "Aktyuinsk Aktobe", "shortName": "Aktobe", "municipalityName": "Aktyuinsk", "location": {"lat": 50.2458, "lon": 57.2067}, "countryCode": "KZ"}, "averageDailyFlights": 1.29, "operators": [{"name": "Air Astana", "iata": "KC", "icao": "KZR"}, {"name": "Qazaq Air", "iata": "IQ", "icao": "QAZ"}]}, {"destination": {"icao": "LTFM", "iata": "IST", "name": "Istanbul ", "shortName": "Istanbul", "municipalityName": "Istanbul", "location": {"lat": 41.275276, "lon": 28.751944}, "countryCode": "TR"}, "averageDailyFlights": 0.71, "operators": [{"name": "SCAT Airlines", "iata": "DV", "icao": "VSV"}, {"name": "Air Astana", "iata": "KC", "icao": "KZR"}]}, {"destination": {"icao": "UARR", "iata": "URA", "localCode": "\u0423\u0420\u041b", "name": "Uralsk ", "shortName": "Uralsk", "municipalityName": "Uralsk", "location": {"lat": 51.1508, "lon": 51.5431}, "countryCode": "KZ"}, "averageDailyFlights": 0.71, "operators": [{"name": "Qazaq Air", "iata": "IQ", "icao": "QAZ"}]}, {"destination": {"name": "Amsterdam"}, "averageDailyFlights": 0.57, "operators": [{"name": "Air Astana", "iata": "KC", "icao": "KZR"}]}, {"destination": {"icao": "UGKO", "iata": "KUT", "name": "Kutaisi Kopitnari", "shortName": "Kopitnari", "municipalityName": "Kutaisi", "location": {"lat": 42.1767, "lon": 42.4826}, "countryCode": "GE"}, "averageDailyFlights": 0.29, "operators": [{"name": "Air Astana", "iata": "KC", "icao": "KZR"}]}, {"destination": {"icao": "UUEE", "iata": "SVO", "localCode": "\u0428\u0420\u041c", "name": "Moscow Sheremetyevo", "shortName": "Sheremetyevo", "municipalityName": "Moscow", "location": {"lat": 55.9726, "lon": 37.4146}, "countryCode": "RU"}, "averageDailyFlights": 0.29, "operators": [{"name": "Aeroflot", "iata": "SU", "icao": "AFL"}]}, {"destination": {"icao": "UADD", "iata": "DMB", "localCode": "\u0414\u041c\u0411", "name": "Taraz ", "shortName": "Taraz", "municipalityName": "Taraz", "location": {"lat": 42.8536, "lon": 71.3036}, "countryCode": "KZ"}, "averageDailyFlights": 0.29, "operators": [{"name": "SCAT Airlines", "iata": "DV", "icao": "VSV"}]}, {"destination": {"name": "Sharm el Sheikh"}, "averageDailyFlights": 0.14, "operators": [{"name": "Air Astana", "iata": "KC", "icao": "KZR"}]}]}