{"routes": [{"destination": {"icao": "UUEE", "iata": "SVO", "localCode": "\u0428\u0420\u041c", "name": "Moscow Sheremetyevo", "shortName": "Sheremetyevo", "municipalityName": "Moscow", "location": {"lat": 55.9726, "lon": 37.4146}, "countryCode": "RU"}, "averageDailyFlights": 5.71, "operators": [{"name": "Aeroflot", "iata": "SU", "icao": "AFL"}, {"name": "Pobeda", "iata": "DP", "icao": "PBD"}]}, {"destination": {"icao": "UNNT", "iata": "OVB", "localCode": "\u0422\u041b\u0427", "name": "Novosibirsk Tolmachevo", "shortName": "Tolmachevo", "municipalityName": "Novosibirsk", "location": {"lat": 55.0126, "lon": 82.6507}, "countryCode": "RU"}, "averageDailyFlights": 5.57, "operators": [{"name": "S7 Airlines", "iata": "S7", "icao": "SBI"}, {"name": "UTAir", "iata": "UT", "icao": "UTA"}]}, {"destination": {"icao": "ULLI", "iata": "LED", "localCode": "\u041f\u041b\u041a", "name": "Saint-Petersburg Pulkovo", "shortName": "Pulkovo", "municipalityName": "Saint-Petersburg", "location": {"lat": 59.8003, "lon": 30.2625}, "countryCode": "RU"}, "averageDailyFlights": 2.86, "operators": [{"name": "Rossiya Airlines", "iata": "FV", "icao": "SDM"}, {"name": "Smartavia", "iata": "5N", "icao": "AUL"}, {"name": "NordStar Airlines", "iata": "Y7", "icao": "TYA"}, {"name": "Aeroflot", "iata": "SU", "icao": "AFL"}]}, {"destination": {"icao": "URSS", "iata": "AER", "localCode": "\u0421\u041e\u0427", "name": "Sochi ", "shortName": "Sochi", "municipalityName": "Sochi", "location": {"lat": 43.4499, "lon": 39.9566}, "countryCode": "RU"}, "averageDailyFlights": 2.03, "operators": [{"name": "Rossiya Airlines", "iata": "FV", "icao": "SDM"}, {"name": "NordStar Airlines", "iata": "Y7", "icao": "TYA"}, {"name": "Nordwind Airlines", "iata": "N4", "icao": "NWS"}, {"name": "Yakutia", "iata": "R3", "icao": "SYL"}]}, {"destination": {"icao": "UIII", "iata": "IKT", "localCode": "\u0418\u041a\u0422", "name": "Irkutsk ", "shortName": "Irkutsk", "municipalityName": "Irkutsk", "location": {"lat": 52.268, "lon": 104.389}, "countryCode": "RU"}, "averageDailyFlights": 1.97, "operators": [{"name": "UTAir", "iata": "UT", "icao": "UTA"}, {"name": "S7 Airlines", "iata": "S7", "icao": "SBI"}, {"name": "Rossiya Airlines", "iata": "FV", "icao": "SDM"}]}, {"destination": {"name": "Igarka"}, "averageDailyFlights": 1.86, "operators": [{"name": "UTAir", "iata": "UT", "icao": "UTA"}, {"name": "KrasAvia", "iata": "KV", "icao": "SSJ"}]}, {"destination": {"icao": "UUDD", "iata": "DME", "localCode": "\u0414\u041c\u0414", "name": "Moscow Domodedovo", "shortName": "Domodedovo", "municipalityName": "Moscow", "location": {"lat": 55.4088, "lon": 37.9063}, "countryCode": "RU"}, "averageDailyFlights": 1.71, "operators": [{"name": "NordStar Airlines", "iata": "Y7", "icao": "TYA"}, {"name": "S7 Airlines", "iata": "S7", "icao": "SBI"}]}, {"destination": {"icao": "UOOO", "iata": "NSK", "localCode": "\u041d\u0410\u041a", "name": "Norilsk Alykel", "shortName": "Alykel", "municipalityName": "Norilsk", "location": {"lat": 69.3111, "lon": 87.3322}, "countryCode": "RU"}, "averageDailyFlights": 1.43, "operators": [{"name": "NordStar Airlines", "iata": "Y7", "icao": "TYA"}]}, {"destination": {"icao": "UHWW", "iata": "VVO", "localCode": "\u0412\u0412\u041e", "name": "Vladivostok Knevichi", "shortName": "Knevichi", "municipalityName": "Vladivostok", "location": {"lat": 43.399, "lon": 132.148}, "countryCode": "RU"}, "averageDailyFlights": 1.43, "operators": [{"name": "Aurora", "iata": "HZ", "icao": "SHU"}, {"name": "Aeroflot", "iata": "SU", "icao": "AFL"}]}, {"destination": {"icao": "UHBB", "iata": "BQS", "localCode": "\u0411\u0413\u0429", "name": "Blagoveschensk Ignatyevo", "shortName": "Ignatyevo", "municipalityName": "Blagoveschensk", "location": {"lat": 50.4254, "lon": 127.412}, "countryCode": "RU"}, "averageDailyFlights": 1.14, "operators": [{"name": "Rossiya Airlines", "iata": "FV", "icao": "SDM"}]}, {"destination": {"icao": "USSS", "iata": "SVX", "localCode": "\u041a\u041b\u0426", "name": "Ekaterinburg Koltsovo", "shortName": "Koltsovo", "municipalityName": "Ekaterinburg", "location": {"lat": 56.7431, "lon": 60.8027}, "countryCode": "RU"}, "averageDailyFlights": 1.14, "operators": [{"name": "Rossiya Airlines", "iata": "FV", "icao": "SDM"}, {"name": "Ural Airlines", "iata": "U6", "icao": "SVR"}]}, {"destination": {"icao": "UUWW", "iata": "VKO", "localCode": "\u0412\u041d\u041a", "name": "Moscow Vnukovo", "shortName": "Vnukovo", "municipalityName": "Moscow", "location": {"lat": 55.5915, "lon": 37.2615}, "countryCode": "RU"}, "averageDailyFlights": 1.14, "operators": [{"name": "UTAir", "iata": "UT", "icao": "UTA"}]}, {"destination": {"icao": "UCFO", "iata": "OSS", "localCode": "\u041e\u0428\u0428", "name": "Osh ", "shortName": "Osh", "municipalityName": "Osh", "location": {"lat": 40.609, "lon": 72.7933}, "countryCode": "KG"}, "averageDailyFlights": 1.0, "operators": [{"name": "Avia Traffic Company", "iata": "YK", "icao": "AVJ"}, {"name": "Rossiya Airlines", "iata": "FV", "icao": "SDM"}, {"name": "Ural Airlines", "iata": "U6", "icao": "SVR"}]}, {"destination": {"icao": "UCFM", "iata": "FRU", "localCode": "\u0411\u0418\u0428", "name": "Bishkek Manas", "shortName": "Manas", "municipalityName": "Bishkek", "location": {"lat": 43.0613, "lon": 74.4776}, "countryCode": "KG"}, "averageDailyFlights": 0.86, "operators": [{"name": "Rossiya Airlines", "iata": "FV", "icao": "SDM"}, {"name": "Avia Traffic Company", "iata": "YK", "icao": "AVJ"}, {"name": "Ural Airlines", "iata": "U6", "icao": "SVR"}]}, {"destination": {"name": "Baykit"}, "averageDailyFlights": 0.86, "operators": [{"name": "KrasAvia", "iata": "KV", "icao": "SSJ"}]}, {"destination": {"icao": "UIUU", "iata": "UUD", "localCode": "\u0423\u041b\u042d", "name": "Ulan-Ude Mukhino", "shortName": "Mukhino", "municipalityName": "Ulan-Ude", "location": {"lat": 51.8078, "lon": 107.438}, "countryCode": "RU"}, "averageDailyFlights": 0.73, "operators": [{"name": "Rossiya Airlines", "iata": "FV", "icao": "SDM"}, {"name": "Yakutia", "iata": "R3", "icao": "SYL"}, {"name": "KrasAvia", "iata": "KV", "icao": "SSJ"}]}, {"destination": {"icao": "UAAA", "iata": "ALA", "localCode": "\u0410\u041b\u0410", "name": "Almaty ", "shortName": "Almaty", "municipalityName": "Almaty", "location": {"lat": 43.3521, "lon": 77.0405}, "countryCode": "KZ"}, "averageDailyFlights": 0.71, "operators": [{"name": "Rossiya Airlines", "iata": "FV", "icao": "SDM"}]}, {"destination": {"icao": "UHHH", "iata": "KHV", "localCode": "\u0425\u0411\u0420", "name": "Khabarovsk Novy", "shortName": "Novy", "municipalityName": "Khabarovsk", "location": {"lat": 48.528, "lon": 135.188}, "countryCode": "RU"}, "averageDailyFlights": 0.71, "operators": [{"name": "Aurora", "iata": "HZ", "icao": "SHU"}, {"name": "Rossiya Airlines", "iata": "FV", "icao": "SDM"}]}, {"destination": {"icao": "UNKY", "iata": "KYZ", "localCode": "\u041a\u042b\u042b", "name": "Kyzyl ", "shortName": "Kyzyl", "municipalityName": "Kyzyl", "location": {"lat": 51.6694, "lon": 94.4006}, "countryCode": "RU"}, "averageDailyFlights": 0.71, "operators": [{"name": "KrasAvia", "iata": "KV", "icao": "SSJ"}]}, {"destination": {"icao": "UTTT", "iata": "TAS", "localCode": "\u0422\u0410\u0421", "name": "Tashkent ", "shortName": "Tashkent", "municipalityName": "Tashkent", "location": {"lat": 41.2579, "lon": 69.2812}, "countryCode": "UZ"}, "averageDailyFlights": 0.71, "operators": [{"name": "Uzbekistan Airways", "iata": "HY", "icao": "UZB"}, {"name": "Rossiya Airlines", "iata": "FV", "icao": "SDM"}]}, {"destination": {"icao": "UNTT", "iata": "TOF", "localCode": "\u0422\u0421\u041a", "name": "Tomsk Bogashevo", "shortName": "Bogashevo", "municipalityName": "Tomsk", "location": {"lat": 56.3803, "lon": 85.2083}, "countryCode": "RU"}, "averageDailyFlights": 0.71, "operators": [{"name": "KrasAvia", "iata": "KV", "icao": "SSJ"}]}, {"destination": {"icao": "UEEE", "iata": "YKS", "localCode": "\u042f\u041a\u0422", "name": "Yakutsk ", "shortName": "Yakutsk", "municipalityName": "Yakutsk", "location": {"lat": 62.0933, "lon": 129.771}, "countryCode": "RU"}, "averageDailyFlights": 0.7, "operators": [{"name": "Rossiya Airlines", "iata": "FV", "icao": "SDM"}, {"name": "Yakutia", "iata": "R3", "icao": "SYL"}]}, {"destination": {"icao": "LTAI", "iata": "AYT", "name": "Antalya ", "shortName": "Antalya", "municipalityName": "Antalya", "location": {"lat": 36.8987, "lon": 30.8005}, "countryCode": "TR"}, "averageDailyFlights": 0.57, "operators": [{"name": "Air Stork", "iata": "2S", "icao": "MSB"}, {"name": "AZUR Air", "iata": "ZF", "icao": "KTK"}]}, {"destination": {"icao": "UACC", "iata": "NQZ", "name": "Astana Nursultan Nazarbayev", "shortName": "Nursultan Nazarbayev", "municipalityName": "Astana", "location": {"lat": 51.0222, "lon": 71.4669}, "countryCode": "KZ"}, "averageDailyFlights": 0.57, "operators": [{"name": "Rossiya Airlines", "iata": "FV", "icao": "SDM"}]}, {"destination": {"icao": "UIAA", "iata": "HTA", "localCode": "\u0421\u0425\u0422", "name": "Chita Kadala", "shortName": "Kadala", "municipalityName": "Chita", "location": {"lat": 52.0263, "lon": 113.306}, "countryCode": "RU"}, "averageDailyFlights": 0.57, "operators": [{"name": "Rossiya Airlines", "iata": "FV", "icao": "SDM"}]}, {"destination": {"icao": "UTDL", "iata": "LBD", "localCode": "\u0425\u0414\u0422", "name": "Khudzhand ", "shortName": "Khudzhand", "municipalityName": "Khudzhand", "location": {"lat": 40.2154, "lon": 69.6947}, "countryCode": "TJ"}, "averageDailyFlights": 0.57, "operators": [{"name": "Ural Airlines", "iata": "U6", "icao": "SVR"}]}, {"destination": {"name": "Chara"}, "averageDailyFlights": 0.57, "operators": [{"name": "KrasAvia", "iata": "KV", "icao": "SSJ"}]}, {"destination": {"name": "Tura"}, "averageDailyFlights": 0.57, "operators": [{"name": "KrasAvia", "iata": "KV", "icao": "SSJ"}]}, {"destination": {"name": "Turukhansk"}, "averageDailyFlights": 0.57, "operators": [{"name": "KrasAvia", "iata": "KV", "icao": "SSJ"}]}, {"destination": {"icao": "UNAA", "iata": "ABA", "localCode": "\u0410\u0411\u041d", "name": "Abakan ", "shortName": "Abakan", "municipalityName": "Abakan", "location": {"lat": 53.74, "lon": 91.385}, "countryCode": "RU"}, "averageDailyFlights": 0.46, "operators": [{"name": "KrasAvia", "iata": "KV", "icao": "SSJ"}, {"name": "Aeroflot", "iata": "SU", "icao": "AFL"}]}, {"destination": {"icao": "VTBS", "iata": "BKK", "name": "Bangkok Suvarnabhumi", "shortName": "Suvarnabhumi", "municipalityName": "Bangkok", "location": {"lat": 13.681099, "lon": 100.747}, "countryCode": "TH"}, "averageDailyFlights": 0.43, "operators": [{"name": "Aeroflot", "iata": "SU", "icao": "AFL"}]}, {"destination": {"icao": "UNBB", "iata": "BAX", "localCode": "\u0411\u0410\u041d", "name": "Barnaul ", "shortName": "Barnaul", "municipalityName": "Barnaul", "location": {"lat": 53.3638, "lon": 83.5385}, "countryCode": "RU"}, "averageDailyFlights": 0.43, "operators": [{"name": "KrasAvia", "iata": "KV", "icao": "SSJ"}]}, {"destination": {"icao": "UTDD", "iata": "DYU", "localCode": "\u0414\u0428\u0411", "name": "Dushanbe ", "shortName": "Dushanbe", "municipalityName": "Dushanbe", "location": {"lat": 38.5433, "lon": 68.825}, "countryCode": "TJ"}, "averageDailyFlights": 0.43, "operators": [{"name": "Ural Airlines", "iata": "U6", "icao": "SVR"}]}, {"destination": {"icao": "USMU", "iata": "NUX", "localCode": "\u041d\u0423\u0420", "name": "Novyy Urengoy Novy Urengoy", "shortName": "Novy Urengoy", "municipalityName": "Novyy Urengoy", "location": {"lat": 66.0694, "lon": 76.5203}, "countryCode": "RU"}, "averageDailyFlights": 0.43, "operators": [{"name": "Rossiya Airlines", "iata": "FV", "icao": "SDM"}]}, {"destination": {"icao": "USTR", "iata": "TJM", "localCode": "\u0420\u0429\u041d", "name": "Tyumen Roshchino", "shortName": "Roshchino", "municipalityName": "Tyumen", "location": {"lat": 57.1896, "lon": 65.3243}, "countryCode": "RU"}, "averageDailyFlights": 0.43, "operators": [{"name": "Rossiya Airlines", "iata": "FV", "icao": "SDM"}]}, {"destination": {"icao": "UHSS", "iata": "UUS", "localCode": "\u042e\u0416\u0425", "name": "Yuzhno-Sakhalinsk ", "shortName": "Yuzhno-Sakhalinsk", "municipalityName": "Yuzhno-Sakhalinsk", "location": {"lat": 46.8887, "lon": 142.718}, "countryCode": "RU"}, "averageDailyFlights": 0.43, "operators": [{"name": "Aurora", "iata": "HZ", "icao": "SHU"}]}, {"destination": {"name": "Khatanga"}, "averageDailyFlights": 0.43, "operators": [{"name": "KrasAvia", "iata": "KV", "icao": "SSJ"}]}, {"destination": {"name": "Kodinsk"}, "averageDailyFlights": 0.43, "operators": [{"name": "KrasAvia", "iata": "KV", "icao": "SSJ"}]}, {"destination": {"name": "Talakan"}, "averageDailyFlights": 0.43, "operators": [{"name": "KrasAvia", "iata": "KV", "icao": "SSJ"}]}, {"destination": {"icao": "VTSP", "iata": "HKT", "name": "Phuket ", "shortName": "Phuket", "municipalityName": "Phuket", "location": {"lat": 8.1132, "lon": 98.3169}, "countryCode": "TH"}, "averageDailyFlights": 0.36, "operators": [{"name": "Aeroflot", "iata": "SU", "icao": "AFL"}, {"name": "Pegas Fly", "iata": "EO", "icao": "KAR"}, {"name": "AZUR Air", "iata": "ZF", "icao": "KTK"}]}, {"destination": {"icao": "UBBB", "iata": "GYD", "localCode": "\u0411\u0410\u041a", "name": "Baku Heydar Aliyev", "shortName": "Heydar Aliyev", "municipalityName": "Baku", "location": {"lat": 40.4675, "lon": 50.0467}, "countryCode": "AZ"}, "averageDailyFlights": 0.29, "operators": [{"name": "IrAero", "iata": "IO", "icao": "IAE"}]}, {"destination": {"icao": "UNBG", "iata": "RGK", "localCode": "\u0413\u041e\u0420", "name": "Gorno-Altaysk ", "shortName": "Gorno-Altaysk", "municipalityName": "Gorno-Altaysk", "location": {"lat": 51.9667, "lon": 85.8333}, "countryCode": "RU"}, "averageDailyFlights": 0.29, "operators": [{"name": "KrasAvia", "iata": "KV", "icao": "SSJ"}]}, {"destination": {"icao": "UWKD", "iata": "KZN", "name": "Kazan ", "shortName": "Kazan", "municipalityName": "Kazan", "location": {"lat": 55.6062, "lon": 49.2787}, "countryCode": "RU"}, "averageDailyFlights": 0.29, "operators": [{"name": "Nordwind Airlines", "iata": "N4", "icao": "NWS"}]}, {"destination": {"icao": "UNEE", "iata": "KEJ", "localCode": "\u041a\u0420\u0412", "name": "Kemerovo ", "shortName": "Kemerovo", "municipalityName": "Kemerovo", "location": {"lat": 55.2701, "lon": 86.1072}, "countryCode": "RU"}, "averageDailyFlights": 0.29, "operators": [{"name": "UVT Aero", "iata": "RT", "icao": "UVT"}]}, {"destination": {"icao": "URMM", "iata": "MRV", "localCode": "\u041c\u0420\u0412", "name": "Mineralnyye Vody ", "shortName": "Mineralnyye Vody", "municipalityName": "Mineralnyye Vody", "location": {"lat": 44.2251, "lon": 43.0819}, "countryCode": "RU"}, "averageDailyFlights": 0.29, "operators": [{"name": "Rossiya Airlines", "iata": "FV", "icao": "SDM"}]}, {"destination": {"icao": "UNWW", "iata": "NOZ", "localCode": "\u041d\u0412\u041a", "name": "Novokuznetsk Spichenkovo", "shortName": "Spichenkovo", "municipalityName": "Novokuznetsk", "location": {"lat": 53.8114, "lon": 86.8772}, "countryCode": "RU"}, "averageDailyFlights": 0.29, "operators": [{"name": "KrasAvia", "iata": "KV", "icao": "SSJ"}]}, {"destination": {"name": "Khanty-Mansiysk"}, "averageDailyFlights": 0.29, "operators": [{"name": "Rossiya Airlines", "iata": "FV", "icao": "SDM"}]}, {"destination": {"name": "Nizhneangarsk"}, "averageDailyFlights": 0.29, "operators": [{"name": "KrasAvia", "iata": "KV", "icao": "SSJ"}]}, {"destination": {"name": "Omsk"}, "averageDailyFlights": 0.29, "operators": [{"name": "KrasAvia", "iata": "KV", "icao": "SSJ"}, {"name": "NordStar Airlines", "iata": "Y7", "icao": "TYA"}]}, {"destination": {"name": "Severo-Eniseysk"}, "averageDailyFlights": 0.29, "operators": [{"name": "KrasAvia", "iata": "KV", "icao": "SSJ"}]}, {"destination": {"name": "Tobolsk"}, "averageDailyFlights": 0.29, "operators": [{"name": "UVT Aero", "iata": "RT", "icao": "UVT"}]}, {"destination": {"name": "Vanavara"}, "averageDailyFlights": 0.29, "operators": [{"name": "KrasAvia", "iata": "KV", "icao": "SSJ"}]}, {"destination": {"icao": "USCC", "iata": "CEK", "localCode": "\u0427\u041b\u0411", "name": "Chelyabinsk Balandino", "shortName": "Balandino", "municipalityName": "Chelyabinsk", "location": {"lat": 55.3058, "lon": 61.5033}, "countryCode": "RU"}, "averageDailyFlights": 0.14, "operators": [{"name": "Red Wings", "iata": "WZ", "icao": "RWZ"}]}, {"destination": {"icao": "UTFN", "iata": "NMA", "localCode": "\u041d\u041c\u0413", "name": "Namangan ", "shortName": "Namangan", "municipalityName": "Namangan", "location": {"lat": 40.9846, "lon": 71.5567}, "countryCode": "UZ"}, "averageDailyFlights": 0.14, "operators": [{"name": "Uzbekistan Airways", "iata": "HY", "icao": "UZB"}]}, {"destination": {"icao": "UELL", "iata": "NER", "localCode": "\u041d\u0420\u0413", "name": "Neryungri Chulman", "shortName": "Chulman", "municipalityName": "Neryungri", "location": {"lat": 56.9139, "lon": 124.914}, "countryCode": "RU"}, "averageDailyFlights": 0.14, "operators": [{"name": "IrAero", "iata": "IO", "icao": "IAE"}]}, {"destination": {"name": "Lensk"}, "averageDailyFlights": 0.14, "operators": [{"name": "KrasAvia", "iata": "KV", "icao": "SSJ"}]}, {"destination": {"name": "Polyarnyy"}, "averageDailyFlights": 0.14, "operators": [{"name": "KrasAvia", "iata": "KV", "icao": "SSJ"}]}, {"destination": {"name": "Ufa"}, "averageDailyFlights": 0.14, "operators": [{"name": "Azimuth Airlines", "iata": "A4", "icao": "AZO"}]}]}