{"routes": [{"destination": {"icao": "VVTS", "iata": "SGN", "name": "Ho Chi Minh City Tan Son Nhat", "shortName": "Tan Son Nhat", "municipalityName": "Ho Chi Minh City", "location": {"lat": 10.818799, "lon": 106.652}, "countryCode": "VN"}, "averageDailyFlights": 11.71, "operators": [{"name": "VietJetAir", "iata": "VJ", "icao": "VJC"}, {"name": "Vietnam Airlines", "iata": "VN", "icao": "HVN"}, {"name": "Bamboo Airways", "iata": "QH", "icao": "BAV"}]}, {"destination": {"icao": "VVDN", "iata": "DAD", "name": "Da Nang ", "shortName": "Da Nang", "municipalityName": "Da Nang", "location": {"lat": 16.0439, "lon": 108.199}, "countryCode": "VN"}, "averageDailyFlights": 1.86, "operators": [{"name": "VietJetAir", "iata": "VJ", "icao": "VJC"}, {"name": "Bamboo Airways", "iata": "QH", "icao": "BAV"}, {"name": "Vietnam Airlines", "iata": "VN", "icao": "HVN"}]}, {"destination": {"icao": "VVDL", "iata": "DLI", "name": "Dalat Lien Khuong", "shortName": "Lien Khuong", "municipalityName": "Dalat", "location": {"lat": 11.75, "lon": 108.367}, "countryCode": "VN"}, "averageDailyFlights": 1.14, "operators": [{"name": "VietJetAir", "iata": "VJ", "icao": "VJC"}]}, {"destination": {"icao": "RKSI", "iata": "ICN", "name": "Seoul Incheon", "shortName": "Incheon", "municipalityName": "Seoul", "location": {"lat": 37.4691, "lon": 126.451}, "countryCode": "KR"}, "averageDailyFlights": 1.14, "operators": [{"name": "VietJetAir", "iata": "VJ", "icao": "VJC"}]}, {"destination": {"icao": "VVBM", "iata": "BMV", "name": "Buon Ma Thuot ", "shortName": "Buon Ma Thuot", "municipalityName": "Buon Ma Thuot", "location": {"lat": 12.668299, "lon": 108.12}, "countryCode": "VN"}, "averageDailyFlights": 0.57, "operators": [{"name": "VietJetAir", "iata": "VJ", "icao": "VJC"}]}, {"destination": {"icao": "VVCT", "iata": "VCA", "name": "Can Tho ", "shortName": "Can Tho", "municipalityName": "Can Tho", "location": {"lat": 10.0851, "lon": 105.712}, "countryCode": "VN"}, "averageDailyFlights": 0.57, "operators": [{"name": "VietJetAir", "iata": "VJ", "icao": "VJC"}]}, {"destination": {"icao": "VVPQ", "iata": "PQC", "name": "Duong Dong Phu Quoc", "shortName": "Phu Quoc", "municipalityName": "Duong Dong", "location": {"lat": 10.227, "lon": 103.967}, "countryCode": "VN"}, "averageDailyFlights": 0.57, "operators": [{"name": "VietJetAir", "iata": "VJ", "icao": "VJC"}]}, {"destination": {"icao": "VVPC", "iata": "UIH", "name": "Quy Nohn Phu Cat", "shortName": "Phu Cat", "municipalityName": "Quy Nohn", "location": {"lat": 13.954999, "lon": 109.042}, "countryCode": "VN"}, "averageDailyFlights": 0.57, "operators": [{"name": "Bamboo Airways", "iata": "QH", "icao": "BAV"}]}, {"destination": {"icao": "VVCR", "iata": "CXR", "name": "Nha Trang Cam Ranh", "shortName": "Cam Ranh", "municipalityName": "Nha Trang", "location": {"lat": 11.9982, "lon": 109.219}, "countryCode": "VN"}, "averageDailyFlights": 0.29, "operators": [{"name": "VietJetAir", "iata": "VJ", "icao": "VJC"}]}]}