{"routes": [{"destination": {"icao": "WMKP", "iata": "PEN", "name": "Penang ", "shortName": "Penang", "municipalityName": "Penang", "location": {"lat": 5.29714, "lon": 100.277}, "countryCode": "MY"}, "averageDailyFlights": 10.29, "operators": [{"name": "Firefly", "iata": "FY", "icao": "FFM"}]}, {"destination": {"icao": "WSSL", "iata": "XSP", "name": "Seletar ", "shortName": "Seletar", "municipalityName": "Seletar", "location": {"lat": 1.416949, "lon": 103.868}, "countryCode": "SG"}, "averageDailyFlights": 6.86, "operators": [{"name": "Firefly", "iata": "FY", "icao": "FFM"}]}, {"destination": {"icao": "WMKC", "iata": "KBR", "name": "Kota Baharu Sultan Ismail Petra", "shortName": "Sultan Ismail Petra", "municipalityName": "Kota Baharu", "location": {"lat": 6.16685, "lon": 102.293}, "countryCode": "MY"}, "averageDailyFlights": 6.71, "operators": [{"name": "Firefly", "iata": "FY", "icao": "FFM"}]}, {"destination": {"icao": "WMKJ", "iata": "JHB", "name": "Senai ", "shortName": "Senai", "municipalityName": "Senai", "location": {"lat": 1.641309, "lon": 103.67}, "countryCode": "MY"}, "averageDailyFlights": 5.29, "operators": [{"name": "Firefly", "iata": "FY", "icao": "FFM"}]}, {"destination": {"icao": "WMKA", "iata": "AOR", "name": "Alor Satar Sultan Abdul Halim", "shortName": "Sultan Abdul Halim", "municipalityName": "Alor Satar", "location": {"lat": 6.18967, "lon": 100.398}, "countryCode": "MY"}, "averageDailyFlights": 4.57, "operators": [{"name": "Firefly", "iata": "FY", "icao": "FFM"}]}, {"destination": {"icao": "WMKN", "iata": "TGG", "name": "Kuala Terengganu Sultan Mahmud", "shortName": "Sultan Mahmud", "municipalityName": "Kuala Terengganu", "location": {"lat": 5.382639, "lon": 103.103}, "countryCode": "MY"}, "averageDailyFlights": 4.43, "operators": [{"name": "Firefly", "iata": "FY", "icao": "FFM"}]}, {"destination": {"icao": "WMKL", "iata": "LGK", "name": "Langkawi ", "shortName": "Langkawi", "municipalityName": "Langkawi", "location": {"lat": 6.32973, "lon": 99.7287}, "countryCode": "MY"}, "averageDailyFlights": 2.0, "operators": [{"name": "Firefly", "iata": "FY", "icao": "FFM"}]}]}