{"routes": [{"destination": {"icao": "YBBN", "iata": "BNE", "name": "Brisbane City Brisbane", "shortName": "Brisbane", "municipalityName": "Brisbane City", "location": {"lat": -27.3842, "lon": 153.117}, "countryCode": "AU"}, "averageDailyFlights": 14.0, "operators": [{"name": "Qantas", "iata": "QF", "icao": "QFA"}, {"name": "Jetstar", "iata": "JQ", "icao": "JST"}, {"name": "Virgin Australia", "iata": "VA", "icao": "VOZ"}]}, {"destination": {"icao": "YSSY", "iata": "SYD", "name": "Sydney City Sydney Kingsford Smith", "shortName": "Sydney Kingsford Smith", "municipalityName": "Sydney City", "location": {"lat": -33.9461, "lon": 151.177}, "countryCode": "AU"}, "averageDailyFlights": 10.0, "operators": [{"name": "Jetstar", "iata": "JQ", "icao": "JST"}, {"name": "Virgin Australia", "iata": "VA", "icao": "VOZ"}, {"name": "Qantas", "iata": "QF", "icao": "QFA"}]}, {"destination": {"icao": "YMML", "iata": "MEL", "name": "Melbourne City Melbourne", "shortName": "Melbourne", "municipalityName": "Melbourne City", "location": {"lat": -37.6733, "lon": 144.843}, "countryCode": "AU"}, "averageDailyFlights": 8.71, "operators": [{"name": "Jetstar", "iata": "JQ", "icao": "JST"}, {"name": "Virgin Australia", "iata": "VA", "icao": "VOZ"}, {"name": "Qantas", "iata": "QF", "icao": "QFA"}]}, {"destination": {"icao": "YBTL", "iata": "TSV", "name": "Townsville ", "shortName": "Townsville", "municipalityName": "Townsville", "location": {"lat": -19.2525, "lon": 146.765}, "countryCode": "AU"}, "averageDailyFlights": 5.86, "operators": [{"name": "Qantas", "iata": "QF", "icao": "QFA"}, {"name": "Rex Regional Express", "iata": "ZL", "icao": "RXA"}]}, {"destination": {"icao": "YHID", "iata": "HID", "name": "Horn Island ", "shortName": "Horn Island", "municipalityName": "Horn Island", "location": {"lat": -10.5864, "lon": 142.29}, "countryCode": "AU"}, "averageDailyFlights": 3.14, "operators": [{"name": "Qantas", "iata": "QF", "icao": "QFA"}, {"name": "Skytrans", "iata": "QN", "icao": "SKP"}, {"name": "FlexFlight", "iata": "W2", "icao": "FXT"}]}, {"destination": {"icao": "YPAD", "iata": "ADL", "name": "Adelaide ", "shortName": "Adelaide", "municipalityName": "Adelaide", "location": {"lat": -34.945, "lon": 138.531}, "countryCode": "AU"}, "averageDailyFlights": 2.71, "operators": [{"name": "Jetstar", "iata": "JQ", "icao": "JST"}, {"name": "Virgin Australia", "iata": "VA", "icao": "VOZ"}, {"name": "Qantas", "iata": "QF", "icao": "QFA"}]}, {"destination": {"icao": "YBWP", "iata": "WEI", "name": "Weipa ", "shortName": "Weipa", "municipalityName": "Weipa", "location": {"lat": -12.6786, "lon": 141.925}, "countryCode": "AU"}, "averageDailyFlights": 2.43, "operators": [{"name": "Qantas", "iata": "QF", "icao": "QFA"}, {"name": "Alliance Airlines", "iata": "QQ", "icao": "UTY"}]}, {"destination": {"icao": "YBCG", "iata": "OOL", "name": "Gold Coast", "shortName": "Coast", "municipalityName": "Gold", "location": {"lat": -28.1644, "lon": 153.505}, "countryCode": "AU"}, "averageDailyFlights": 1.43, "operators": [{"name": "Jetstar", "iata": "JQ", "icao": "JST"}]}, {"destination": {"icao": "YPDN", "iata": "DRW", "name": "Port Darwin Darwin", "shortName": "Darwin", "municipalityName": "Port Darwin", "location": {"lat": -12.414699, "lon": 130.877}, "countryCode": "AU"}, "averageDailyFlights": 1.43, "operators": [{"name": "Jetstar", "iata": "JQ", "icao": "JST"}, {"name": "Qantas", "iata": "QF", "icao": "QFA"}]}, {"destination": {"icao": "AYPY", "iata": "POM", "name": "Port Moresby Jacksons", "shortName": "Jacksons", "municipalityName": "Port Moresby", "location": {"lat": -9.44338, "lon": 147.22}, "countryCode": "PG"}, "averageDailyFlights": 1.16, "operators": [{"name": "Air Niugini", "iata": "PX", "icao": "ANG"}, {"name": "Airnorth", "iata": "TL", "icao": "ANO"}]}, {"destination": {"icao": "RJBB", "iata": "KIX", "name": "Osaka Kansai", "shortName": "Kansai", "municipalityName": "Osaka", "location": {"lat": 34.4273, "lon": 135.244}, "countryCode": "JP"}, "averageDailyFlights": 1.14, "operators": [{"name": "Jetstar", "iata": "JQ", "icao": "JST"}]}, {"destination": {"icao": "RJAA", "iata": "NRT", "name": "Tokyo Narita", "shortName": "Narita", "municipalityName": "Tokyo", "location": {"lat": 35.7647, "lon": 140.386}, "countryCode": "JP"}, "averageDailyFlights": 1.14, "operators": [{"name": "Jetstar", "iata": "JQ", "icao": "JST"}]}, {"destination": {"icao": "RJTT", "iata": "HND", "name": "Tokyo ", "shortName": "Tokyo", "municipalityName": "Tokyo", "location": {"lat": 35.5523, "lon": 139.78}, "countryCode": "JP"}, "averageDailyFlights": 1.14, "operators": [{"name": "Virgin Australia", "iata": "VA", "icao": "VOZ"}]}, {"destination": {"icao": "YPPH", "iata": "PER", "name": "Perth International", "shortName": "International", "municipalityName": "Perth", "location": {"lat": -31.940277, "lon": 115.96694}, "countryCode": "AU"}, "averageDailyFlights": 1.0, "operators": [{"name": "Jetstar", "iata": "JQ", "icao": "JST"}, {"name": "Virgin Australia", "iata": "VA", "icao": "VOZ"}]}, {"destination": {"icao": "WSSS", "iata": "SIN", "name": "Singapore Changi", "shortName": "Changi", "municipalityName": "Singapore", "location": {"lat": 1.35019, "lon": 103.994}, "countryCode": "SG"}, "averageDailyFlights": 0.86, "operators": [{"name": "Singapore Airlines", "iata": "SQ", "icao": "SIA"}]}, {"destination": {"icao": "YKOW", "iata": "KWM", "name": "Kowanyama ", "shortName": "Kowanyama", "municipalityName": "Kowanyama", "location": {"lat": -15.4856, "lon": 141.751}, "countryCode": "AU"}, "averageDailyFlights": 0.71, "operators": [{"name": "Hinterland Aviation", "iata": "OI", "icao": "HND"}, {"name": "Skytrans", "iata": "QN", "icao": "SKP"}, {"name": "FlexFlight", "iata": "W2", "icao": "FXT"}]}, {"destination": {"icao": "YBMA", "iata": "ISA", "name": "Mt Isa Mount Isa", "shortName": "Mount Isa", "municipalityName": "Mt Isa", "location": {"lat": -20.6639, "lon": 139.489}, "countryCode": "AU"}, "averageDailyFlights": 0.71, "operators": [{"name": "Rex Regional Express", "iata": "ZL", "icao": "RXA"}]}, {"destination": {"icao": "YPGV", "iata": "GOV", "name": "Nhulunbuy Gove", "shortName": "Gove", "municipalityName": "Nhulunbuy", "location": {"lat": -12.269399, "lon": 136.818}, "countryCode": "AU"}, "averageDailyFlights": 0.71, "operators": [{"name": "Airnorth", "iata": "TL", "icao": "ANO"}]}, {"destination": {"icao": "NZAA", "iata": "AKL", "name": "Auckland ", "shortName": "Auckland", "municipalityName": "Auckland", "location": {"lat": -37.0081, "lon": 174.792}, "countryCode": "NZ"}, "averageDailyFlights": 0.57, "operators": [{"name": "Air New Zealand", "iata": "NZ", "icao": "ANZ"}]}, {"destination": {"icao": "YBPN", "iata": "PPP", "name": "Proserpine Whitsunday Coast", "shortName": "Whitsunday Coast", "municipalityName": "Proserpine", "location": {"lat": -20.495, "lon": 148.552}, "countryCode": "AU"}, "averageDailyFlights": 0.57, "operators": [{"name": "Skytrans", "iata": "QN", "icao": "SKP"}]}, {"destination": {"icao": "YAYE", "iata": "AYQ", "name": "Ayers Rock Connellan", "shortName": "Connellan", "municipalityName": "Ayers Rock", "location": {"lat": -25.1861, "lon": 130.976}, "countryCode": "AU"}, "averageDailyFlights": 0.43, "operators": [{"name": "Qantas", "iata": "QF", "icao": "QFA"}]}, {"destination": {"icao": "WADD", "iata": "DPS", "name": "Denpasar-Bali Island Ngurah Rai (Bali)", "shortName": "Ngurah Rai (Bali)", "municipalityName": "Denpasar-Bali Island", "location": {"lat": -8.748169, "lon": 115.167}, "countryCode": "ID"}, "averageDailyFlights": 0.43, "operators": [{"name": "Jetstar", "iata": "JQ", "icao": "JST"}]}, {"destination": {"icao": "YWLM", "iata": "NTL", "name": "Williamtown Newcastle", "shortName": "Newcastle", "municipalityName": "Williamtown", "location": {"lat": -32.795, "lon": 151.834}, "countryCode": "AU"}, "averageDailyFlights": 0.43, "operators": [{"name": "Jetstar", "iata": "JQ", "icao": "JST"}]}]}