{"routes": [{"destination": {"icao": "CYQB", "iata": "YQB", "name": "Quebec Jean Lesage", "shortName": "Jean Lesage", "municipalityName": "Quebec", "location": {"lat": 46.7911, "lon": -71.3933}, "countryCode": "CA"}, "averageDailyFlights": 2.0, "operators": [{"name": "Pascan Aviation", "iata": "P6", "icao": "PSC"}]}, {"destination": {"name": "Ostrova Madlen"}, "averageDailyFlights": 0.86, "operators": [{"name": "Pascan Aviation", "iata": "P6", "icao": "PSC"}]}, {"destination": {"icao": "KTEB", "iata": "TEB", "name": "Teterboro ", "shortName": "Teterboro", "municipalityName": "Teterboro", "location": {"lat": 40.8501, "lon": -74.0608}, "countryCode": "US"}, "averageDailyFlights": 0.29, "operators": [{"name": "LXJ"}]}, {"destination": {"icao": "CYYY", "iata": "YYY", "name": "Mont-Joli Mont Joli", "shortName": "Mont Joli", "municipalityName": "Mont-Joli", "location": {"lat": 48.6086, "lon": -68.2081}, "countryCode": "CA"}, "averageDailyFlights": 0.14, "operators": [{"name": "Pascan Aviation", "iata": "P6", "icao": "PSC"}]}, {"destination": {"icao": "KPVD", "iata": "PVD", "name": "Providence Theodore Francis Green State", "shortName": "Theodore Francis Green State", "municipalityName": "Providence", "location": {"lat": 41.7326, "lon": -71.4204}, "countryCode": "US"}, "averageDailyFlights": 0.14, "operators": [{"name": "HRT"}]}, {"destination": {"icao": "CYZV", "iata": "YZV", "name": "Sept-\u00celes ", "shortName": "Sept-\u00celes", "municipalityName": "Sept-\u00celes", "location": {"lat": 50.2233, "lon": -66.2656}, "countryCode": "CA"}, "averageDailyFlights": 0.14, "operators": [{"name": "Pascan Aviation", "iata": "P6", "icao": "PSC"}]}]}