{"routes": [{"destination": {"icao": "GOGS", "iata": "CSK", "name": "Cap Skirring ", "shortName": "Cap Skirring", "municipalityName": "Cap Skirring", "location": {"lat": 12.4102, "lon": -16.7461}, "countryCode": "SN"}, "averageDailyFlights": 4.14, "operators": [{"name": "Air Senegal", "iata": "HC", "icao": "SZN"}, {"name": "Groupe Transair", "iata": "R2", "icao": "GTS"}]}, {"destination": {"icao": "GABS", "iata": "BKO", "name": "Senou ", "shortName": "Senou", "municipalityName": "Senou", "location": {"lat": 12.533499, "lon": -7.94994}, "countryCode": "ML"}, "averageDailyFlights": 3.86, "operators": [{"name": "Mauritania Airlines International", "iata": "L6", "icao": "MAI"}, {"name": "Ethiopian Airlines", "iata": "ET", "icao": "ETH"}, {"name": "Groupe Transair", "iata": "R2", "icao": "GTS"}, {"name": "Air Senegal", "iata": "HC", "icao": "SZN"}, {"name": "Air Burkina", "iata": "2J", "icao": "VBW"}]}, {"destination": {"icao": "DIAP", "iata": "ABJ", "name": "Abidjan Port Bouet", "shortName": "Port Bouet", "municipalityName": "Abidjan", "location": {"lat": 5.26139, "lon": -3.92629}, "countryCode": "CI"}, "averageDailyFlights": 3.0, "operators": [{"name": "Air Cote D'Ivoire", "iata": "HF", "icao": "VRE"}, {"name": "Kenya Airways", "iata": "KQ", "icao": "KQA"}, {"name": "Air Senegal", "iata": "HC", "icao": "SZN"}]}, {"destination": {"icao": "GMMN", "iata": "CMN", "name": "Casablanca Mohammed V", "shortName": "Mohammed V", "municipalityName": "Casablanca", "location": {"lat": 33.3675, "lon": -7.58997}, "countryCode": "MA"}, "averageDailyFlights": 2.43, "operators": [{"name": "Royal Air Maroc", "iata": "AT", "icao": "RAM"}, {"name": "Air Senegal", "iata": "HC", "icao": "SZN"}]}, {"destination": {"icao": "LFPG", "iata": "CDG", "name": "Paris Charles de Gaulle", "shortName": "Charles de Gaulle", "municipalityName": "Paris", "location": {"lat": 49.0128, "lon": 2.549999}, "countryCode": "FR"}, "averageDailyFlights": 2.29, "operators": [{"name": "Air Senegal", "iata": "HC", "icao": "SZN"}, {"name": "Air France", "iata": "AF", "icao": "AFR"}]}, {"destination": {"icao": "GUCY", "iata": "CKY", "name": "Conakry ", "shortName": "Conakry", "municipalityName": "Conakry", "location": {"lat": 9.57689, "lon": -13.612}, "countryCode": "GN"}, "averageDailyFlights": 2.14, "operators": [{"name": "Brussels Airlines", "iata": "SN", "icao": "BEL"}, {"name": "Mauritania Airlines International", "iata": "L6", "icao": "MAI"}, {"name": "Air Senegal", "iata": "HC", "icao": "SZN"}, {"name": "Groupe Transair", "iata": "R2", "icao": "GTS"}, {"name": "Tunisair", "iata": "TU", "icao": "TAR"}]}, {"destination": {"icao": "GQNN", "iata": "NKC", "name": "Nouakchott ", "shortName": "Nouakchott", "municipalityName": "Nouakchott", "location": {"lat": 18.0982, "lon": -15.948499}, "countryCode": "MR"}, "averageDailyFlights": 2.14, "operators": [{"name": "Air Senegal", "iata": "HC", "icao": "SZN"}, {"name": "Mauritania Airlines International", "iata": "L6", "icao": "MAI"}]}, {"destination": {"icao": "GBYD", "iata": "BJL", "name": "Banjul ", "shortName": "Banjul", "municipalityName": "Banjul", "location": {"lat": 13.338, "lon": -16.6522}, "countryCode": "GM"}, "averageDailyFlights": 1.57, "operators": [{"name": "Air Senegal", "iata": "HC", "icao": "SZN"}, {"name": "Brussels Airlines", "iata": "SN", "icao": "BEL"}, {"name": "Air Peace", "iata": "P4", "icao": "APK"}]}, {"destination": {"icao": "LEMD", "iata": "MAD", "name": "Madrid Adolfo Su\u00e1rez \u2013Barajas", "shortName": "Adolfo Su\u00e1rez \u2013Barajas", "municipalityName": "Madrid", "location": {"lat": 40.4936, "lon": -3.56676}, "countryCode": "ES"}, "averageDailyFlights": 1.45, "operators": [{"name": "Iberia", "iata": "IB", "icao": "IBE"}, {"name": "Wasaya Airways", "iata": "WT", "icao": "WSG"}]}, {"destination": {"icao": "DXXX", "iata": "LFW", "name": "Lom\u00e9 -Tokoin", "shortName": "-Tokoin", "municipalityName": "Lom\u00e9", "location": {"lat": 6.165609, "lon": 1.25451}, "countryCode": "TG"}, "averageDailyFlights": 1.43, "operators": [{"name": "ASKY", "iata": "KP", "icao": "SKK"}]}, {"destination": {"icao": "DAAG", "iata": "ALG", "name": "Algiers Houari Boumediene", "shortName": "Houari Boumediene", "municipalityName": "Algiers", "location": {"lat": 36.691, "lon": 3.215409}, "countryCode": "DZ"}, "averageDailyFlights": 1.14, "operators": [{"name": "Air Algerie", "iata": "AH", "icao": "DAH"}]}, {"destination": {"icao": "LTFM", "iata": "IST", "name": "Istanbul ", "shortName": "Istanbul", "municipalityName": "Istanbul", "location": {"lat": 41.275276, "lon": 28.751944}, "countryCode": "TR"}, "averageDailyFlights": 1.14, "operators": [{"name": "Turkish Airlines", "iata": "TK", "icao": "THY"}]}, {"destination": {"icao": "LEBL", "iata": "BCN", "name": "Barcelona ", "shortName": "Barcelona", "municipalityName": "Barcelona", "location": {"lat": 41.2971, "lon": 2.078459}, "countryCode": "ES"}, "averageDailyFlights": 1.0, "operators": [{"name": "Air Senegal", "iata": "HC", "icao": "SZN"}, {"name": "Vueling", "iata": "VY", "icao": "VLG"}]}, {"destination": {"icao": "EBBR", "iata": "BRU", "name": "Brussels ", "shortName": "Brussels", "municipalityName": "Brussels", "location": {"lat": 50.9014, "lon": 4.484439}, "countryCode": "BE"}, "averageDailyFlights": 1.0, "operators": [{"name": "Brussels Airlines", "iata": "SN", "icao": "BEL"}]}, {"destination": {"icao": "LPPT", "iata": "LIS", "name": "Lisbon Portela", "shortName": "Portela", "municipalityName": "Lisbon", "location": {"lat": 38.7813, "lon": -9.135919}, "countryCode": "PT"}, "averageDailyFlights": 1.0, "operators": [{"name": "TAP Air Portugal", "iata": "TP", "icao": "TAP"}]}, {"destination": {"icao": "GVNP", "iata": "RAI", "name": "Praia ", "shortName": "Praia", "municipalityName": "Praia", "location": {"lat": 14.9245, "lon": -23.4935}, "countryCode": "CV"}, "averageDailyFlights": 1.0, "operators": [{"name": "ASKY", "iata": "KP", "icao": "SKK"}, {"name": "Air Senegal", "iata": "HC", "icao": "SZN"}, {"name": "Groupe Transair", "iata": "R2", "icao": "GTS"}]}, {"destination": {"icao": "GGOV", "iata": "OXB", "name": "Bissau Osvaldo Vieira", "shortName": "Osvaldo Vieira", "municipalityName": "Bissau", "location": {"lat": 11.8948, "lon": -15.653699}, "countryCode": "GW"}, "averageDailyFlights": 0.86, "operators": [{"name": "Air Senegal", "iata": "HC", "icao": "SZN"}, {"name": "ASKY", "iata": "KP", "icao": "SKK"}]}, {"destination": {"icao": "KJFK", "iata": "JFK", "name": "New York John F Kennedy", "shortName": "John F Kennedy", "municipalityName": "New York", "location": {"lat": 40.6398, "lon": -73.7789}, "countryCode": "US"}, "averageDailyFlights": 0.86, "operators": [{"name": "Air Senegal", "iata": "HC", "icao": "SZN"}, {"name": "Delta Air Lines", "iata": "DL", "icao": "DAL"}]}, {"destination": {"icao": "OMDB", "iata": "DXB", "name": "Dubai ", "shortName": "Dubai", "municipalityName": "Dubai", "location": {"lat": 25.252798, "lon": 55.3644}, "countryCode": "AE"}, "averageDailyFlights": 0.71, "operators": [{"name": "Emirates", "iata": "EK", "icao": "UAE"}]}, {"destination": {"icao": "LFLL", "iata": "LYS", "name": "Lyon Saint-Exup\u00e9ry", "shortName": "Saint-Exup\u00e9ry", "municipalityName": "Lyon", "location": {"lat": 45.7264, "lon": 5.090829}, "countryCode": "FR"}, "averageDailyFlights": 0.57, "operators": [{"name": "Transavia France", "iata": "TO", "icao": "TVF"}]}, {"destination": {"icao": "LFML", "iata": "MRS", "name": "Marseille Provence", "shortName": "Provence", "municipalityName": "Marseille", "location": {"lat": 43.43927, "lon": 5.221424}, "countryCode": "FR"}, "averageDailyFlights": 0.57, "operators": [{"name": "Transavia France", "iata": "TO", "icao": "TVF"}, {"name": "Air Senegal", "iata": "HC", "icao": "SZN"}]}, {"destination": {"icao": "LIMC", "iata": "MXP", "name": "Milan Malpensa", "shortName": "Malpensa", "municipalityName": "Milan", "location": {"lat": 45.6306, "lon": 8.72811}, "countryCode": "IT"}, "averageDailyFlights": 0.57, "operators": [{"name": "Air Senegal", "iata": "HC", "icao": "SZN"}, {"name": "Neos", "iata": "NO", "icao": "NOS"}]}, {"destination": {"icao": "DBBB", "iata": "COO", "name": "Cotonou Cadjehoun", "shortName": "Cadjehoun", "municipalityName": "Cotonou", "location": {"lat": 6.35723, "lon": 2.38435}, "countryCode": "BJ"}, "averageDailyFlights": 0.43, "operators": [{"name": "Air Senegal", "iata": "HC", "icao": "SZN"}]}, {"destination": {"icao": "GVAC", "iata": "SID", "name": "Espargos Am\u00edlcar Cabral", "shortName": "Am\u00edlcar Cabral", "municipalityName": "Espargos", "location": {"lat": 16.7414, "lon": -22.9494}, "countryCode": "CV"}, "averageDailyFlights": 0.43, "operators": [{"name": "TUI Airlines Nederland (Netherlands)", "iata": "OR", "icao": "TFL"}, {"name": "Air Senegal", "iata": "HC", "icao": "SZN"}]}, {"destination": {"icao": "GCLP", "iata": "LPA", "name": "Gran Canaria Island Gran Canaria", "shortName": "Gran Canaria", "municipalityName": "Gran Canaria Island", "location": {"lat": 27.9319, "lon": -15.386599}, "countryCode": "ES"}, "averageDailyFlights": 0.43, "operators": [{"name": "Binter Canarias", "iata": "NT", "icao": "IBB"}]}, {"destination": {"icao": "DFFD", "iata": "OUA", "name": "Ouagadougou ", "shortName": "Ouagadougou", "municipalityName": "Ouagadougou", "location": {"lat": 12.353199, "lon": -1.51242}, "countryCode": "BF"}, "averageDailyFlights": 0.43, "operators": [{"name": "Air Burkina", "iata": "2J", "icao": "VBW"}]}, {"destination": {"icao": "DGAA", "iata": "ACC", "name": "Accra Kotoka", "shortName": "Kotoka", "municipalityName": "Accra", "location": {"lat": 5.605189, "lon": -0.166786}, "countryCode": "GH"}, "averageDailyFlights": 0.29, "operators": [{"name": "Kenya Airways", "iata": "KQ", "icao": "KQA"}]}, {"destination": {"icao": "LFBD", "iata": "BOD", "name": "Bordeaux/M\u00e9rignac Bordeaux-M\u00e9rignac", "shortName": "Bordeaux-M\u00e9rignac", "municipalityName": "Bordeaux/M\u00e9rignac", "location": {"lat": 44.8283, "lon": -0.715556}, "countryCode": "FR"}, "averageDailyFlights": 0.29, "operators": [{"name": "Transavia France", "iata": "TO", "icao": "TVF"}]}, {"destination": {"icao": "ELLX", "iata": "LUX", "name": "Luxembourg -Findel", "shortName": "-Findel", "municipalityName": "Luxembourg", "location": {"lat": 49.6266, "lon": 6.21152}, "countryCode": "LU"}, "averageDailyFlights": 0.29, "operators": [{"name": "Luxair", "iata": "LG", "icao": "LGL"}]}, {"destination": {"icao": "LFRS", "iata": "NTE", "name": "Nantes Atlantique", "shortName": "Atlantique", "municipalityName": "Nantes", "location": {"lat": 47.1532, "lon": -1.61073}, "countryCode": "FR"}, "averageDailyFlights": 0.29, "operators": [{"name": "Transavia France", "iata": "TO", "icao": "TVF"}]}, {"destination": {"icao": "LIRF", "iata": "FCO", "name": "Rome Leonardo da Vinci\u2013Fiumicino", "shortName": "Leonardo da Vinci\u2013Fiumicino", "municipalityName": "Rome", "location": {"lat": 41.8045, "lon": 12.2508}, "countryCode": "IT"}, "averageDailyFlights": 0.29, "operators": [{"name": "Neos", "iata": "NO", "icao": "NOS"}]}, {"destination": {"icao": "DTTA", "iata": "TUN", "name": "Tunis Carthage", "shortName": "Carthage", "municipalityName": "Tunis", "location": {"lat": 36.851, "lon": 10.227199}, "countryCode": "TN"}, "averageDailyFlights": 0.29, "operators": [{"name": "Tunisair", "iata": "TU", "icao": "TAR"}]}, {"destination": {"icao": "EDDL", "iata": "DUS", "name": "Duesseldorf D\u00fcsseldorf", "shortName": "D\u00fcsseldorf", "municipalityName": "Duesseldorf", "location": {"lat": 51.2895, "lon": 6.766779}, "countryCode": "DE"}, "averageDailyFlights": 0.14, "operators": [{"name": "TUIfly", "iata": "X3", "icao": "TUI"}]}, {"destination": {"icao": "DNMM", "iata": "LOS", "name": "Lagos Murtala Muhammed", "shortName": "Murtala Muhammed", "municipalityName": "Lagos", "location": {"lat": 6.57737, "lon": 3.32116}, "countryCode": "NG"}, "averageDailyFlights": 0.14, "operators": [{"name": "Air Peace", "iata": "P4", "icao": "APK"}]}, {"destination": {"icao": "LFBO", "iata": "TLS", "name": "Toulouse-Blagnac ", "shortName": "Toulouse-Blagnac", "municipalityName": "Toulouse-Blagnac", "location": {"lat": 43.6291, "lon": 1.363819}, "countryCode": "FR"}, "averageDailyFlights": 0.14, "operators": [{"name": "Transavia France", "iata": "TO", "icao": "TVF"}]}, {"destination": {"icao": "LIPX", "iata": "VRN", "name": "Verona Villafranca", "shortName": "Villafranca", "municipalityName": "Verona", "location": {"lat": 45.3957, "lon": 10.8885}, "countryCode": "IT"}, "averageDailyFlights": 0.14, "operators": [{"name": "Neos", "iata": "NO", "icao": "NOS"}]}, {"destination": {"name": "S\u00e3o Paulo"}, "averageDailyFlights": 0.14, "operators": [{"name": "Turkish Airlines", "iata": "TK", "icao": "THY"}]}]}