{"routes": [{"destination": {"icao": "HAAB", "iata": "ADD", "name": "Addis Ababa Bole", "shortName": "Bole", "municipalityName": "Addis Ababa", "location": {"lat": 8.97789, "lon": 38.7993}, "countryCode": "ET"}, "averageDailyFlights": 1.86, "operators": [{"name": "Ethiopian Airlines", "iata": "ET", "icao": "ETH"}, {"name": "AirAsia Japan", "iata": "DJ", "icao": "WAJ"}]}, {"destination": {"icao": "HADR", "iata": "DIR", "name": "Dire Dawa Aba Tenna Dejazmach Yilma", "shortName": "Aba Tenna Dejazmach Yilma", "municipalityName": "Dire Dawa", "location": {"lat": 9.624699, "lon": 41.8542}, "countryCode": "ET"}, "averageDailyFlights": 0.57, "operators": [{"name": "Ethiopian Airlines", "iata": "ET", "icao": "ETH"}]}, {"destination": {"icao": "OMDB", "iata": "DXB", "name": "Dubai ", "shortName": "Dubai", "municipalityName": "Dubai", "location": {"lat": 25.252798, "lon": 55.3644}, "countryCode": "AE"}, "averageDailyFlights": 0.57, "operators": [{"name": "flydubai", "iata": "FZ", "icao": "FDB"}]}, {"destination": {"icao": "HCMH", "iata": "HGA", "name": "Hargeisa Egal", "shortName": "Egal", "municipalityName": "Hargeisa", "location": {"lat": 9.51817, "lon": 44.0888}, "countryCode": "SO"}, "averageDailyFlights": 0.57, "operators": [{"name": "AirAsia Japan", "iata": "DJ", "icao": "WAJ"}]}, {"destination": {"name": "Aden"}, "averageDailyFlights": 0.57, "operators": [{"name": "AirAsia Japan", "iata": "DJ", "icao": "WAJ"}]}, {"destination": {"name": "Doha"}, "averageDailyFlights": 0.43, "operators": [{"name": "Qatar Airways", "iata": "QR", "icao": "QTR"}]}, {"destination": {"name": "Istanbul"}, "averageDailyFlights": 0.43, "operators": [{"name": "Turkish Airlines", "iata": "TK", "icao": "THY"}]}, {"destination": {"icao": "LFPG", "iata": "CDG", "name": "Paris Charles de Gaulle", "shortName": "Charles de Gaulle", "municipalityName": "Paris", "location": {"lat": 49.0128, "lon": 2.549999}, "countryCode": "FR"}, "averageDailyFlights": 0.29, "operators": [{"name": "Air France", "iata": "AF", "icao": "AFR"}]}, {"destination": {"icao": "HECA", "iata": "CAI", "name": "Cairo ", "shortName": "Cairo", "municipalityName": "Cairo", "location": {"lat": 30.1219, "lon": 31.4056}, "countryCode": "EG"}, "averageDailyFlights": 0.14, "operators": [{"name": "AlMasria", "iata": "UJ", "icao": "LMU"}]}, {"destination": {"icao": "LBSF", "iata": "SOF", "name": "Sofia ", "shortName": "Sofia", "municipalityName": "Sofia", "location": {"lat": 42.696693, "lon": 23.411436}, "countryCode": "BG"}, "averageDailyFlights": 0.14, "operators": [{"name": "Bulgaria Air", "iata": "FB", "icao": "LZB"}]}]}