{"routes": [{"destination": {"icao": "OEJN", "iata": "JED", "name": "Jeddah King Abdulaziz", "shortName": "King Abdulaziz", "municipalityName": "Jeddah", "location": {"lat": 21.6796, "lon": 39.1565}, "countryCode": "SA"}, "averageDailyFlights": 5.57, "operators": [{"name": "Air Arabia Egypt", "iata": "E5", "icao": "RBG"}, {"name": "Saudi Arabian Airlines", "iata": "SV", "icao": "SVA"}, {"name": "Air Cairo", "iata": "SM", "icao": "MSC"}, {"name": "EgyptAir", "iata": "MS", "icao": "MSR"}]}, {"destination": {"icao": "OKBK", "iata": "KWI", "name": "Kuwait City Kuwait", "shortName": "Kuwait", "municipalityName": "Kuwait City", "location": {"lat": 29.2266, "lon": 47.9689}, "countryCode": "KW"}, "averageDailyFlights": 2.11, "operators": [{"name": "Air Cairo", "iata": "SM", "icao": "MSC"}, {"name": "Jazeera Airways", "iata": "J9", "icao": "JZR"}, {"name": "Kuwait Airways", "iata": "KU", "icao": "KAC"}, {"name": "flydubai", "iata": "FZ", "icao": "FDB"}]}, {"destination": {"icao": "OMAA", "iata": "AUH", "name": "Abu Dhabi Island and Internal Islands City Abu Dhabi", "shortName": "Abu Dhabi", "municipalityName": "Abu Dhabi Island and Internal Islands City", "location": {"lat": 24.433, "lon": 54.6511}, "countryCode": "AE"}, "averageDailyFlights": 1.86, "operators": [{"name": "Air Arabia Abu Dhabi", "iata": "3L", "icao": "ADY"}, {"name": "Wizz Air Abu Dhabi", "iata": "5W", "icao": "WAZ"}]}, {"destination": {"icao": "OERK", "iata": "RUH", "name": "Riyadh King Khaled", "shortName": "King Khaled", "municipalityName": "Riyadh", "location": {"lat": 24.9576, "lon": 46.6988}, "countryCode": "SA"}, "averageDailyFlights": 1.86, "operators": [{"name": "EgyptAir", "iata": "MS", "icao": "MSR"}, {"name": "Saudi Arabian Airlines", "iata": "SV", "icao": "SVA"}, {"name": "Air Arabia Egypt", "iata": "E5", "icao": "RBG"}]}, {"destination": {"icao": "OJAI", "iata": "AMM", "name": "Amman Queen Alia", "shortName": "Queen Alia", "municipalityName": "Amman", "location": {"lat": 31.7226, "lon": 35.9932}, "countryCode": "JO"}, "averageDailyFlights": 1.43, "operators": [{"name": "Petroleum Air Services", "iata": "UF", "icao": "PER"}, {"name": "Air Arabia Egypt", "iata": "E5", "icao": "RBG"}, {"name": "Air Cairo", "iata": "SM", "icao": "MSC"}]}, {"destination": {"icao": "OMDB", "iata": "DXB", "name": "Dubai ", "shortName": "Dubai", "municipalityName": "Dubai", "location": {"lat": 25.252798, "lon": 55.3644}, "countryCode": "AE"}, "averageDailyFlights": 1.43, "operators": [{"name": "flydubai", "iata": "FZ", "icao": "FDB"}]}, {"destination": {"icao": "OEMA", "iata": "MED", "name": "Medina Prince Mohammad Bin Abdulaziz", "shortName": "Prince Mohammad Bin Abdulaziz", "municipalityName": "Medina", "location": {"lat": 24.5534, "lon": 39.7051}, "countryCode": "SA"}, "averageDailyFlights": 1.43, "operators": [{"name": "Air Cairo", "iata": "SM", "icao": "MSC"}, {"name": "EgyptAir", "iata": "MS", "icao": "MSR"}]}, {"destination": {"icao": "OMSJ", "iata": "SHJ", "name": "Sharjah ", "shortName": "Sharjah", "municipalityName": "Sharjah", "location": {"lat": 25.3286, "lon": 55.5172}, "countryCode": "AE"}, "averageDailyFlights": 1.29, "operators": [{"name": "Air Arabia", "iata": "G9", "icao": "ABY"}, {"name": "Air Arabia Egypt", "iata": "E5", "icao": "RBG"}]}, {"destination": {"icao": "LTFM", "iata": "IST", "name": "Istanbul ", "shortName": "Istanbul", "municipalityName": "Istanbul", "location": {"lat": 41.275276, "lon": 28.751944}, "countryCode": "TR"}, "averageDailyFlights": 1.14, "operators": [{"name": "Turkish Airlines", "iata": "TK", "icao": "THY"}]}, {"destination": {"icao": "OTHH", "iata": "DOH", "name": "Doha Hamad", "shortName": "Hamad", "municipalityName": "Doha", "location": {"lat": 25.273056, "lon": 51.608055}, "countryCode": "QA"}, "averageDailyFlights": 0.86, "operators": [{"name": "Qatar Airways", "iata": "QR", "icao": "QTR"}]}, {"destination": {"icao": "OEDF", "iata": "DMM", "name": "Ad Dammam King Fahd", "shortName": "King Fahd", "municipalityName": "Ad Dammam", "location": {"lat": 26.4712, "lon": 49.7979}, "countryCode": "SA"}, "averageDailyFlights": 0.29, "operators": [{"name": "EgyptAir", "iata": "MS", "icao": "MSR"}]}, {"destination": {"icao": "GMMN", "iata": "CMN", "name": "Casablanca Mohammed V", "shortName": "Mohammed V", "municipalityName": "Casablanca", "location": {"lat": 33.3675, "lon": -7.58997}, "countryCode": "MA"}, "averageDailyFlights": 0.29, "operators": [{"name": "Air Cairo", "iata": "SM", "icao": "MSC"}]}]}