{"routes": [{"destination": {"icao": "HECA", "iata": "CAI", "name": "Cairo ", "shortName": "Cairo", "municipalityName": "Cairo", "location": {"lat": 30.1219, "lon": 31.4056}, "countryCode": "EG"}, "averageDailyFlights": 5.57, "operators": [{"name": "EgyptAir", "iata": "MS", "icao": "MSR"}, {"name": "Air Cairo", "iata": "SM", "icao": "MSC"}, {"name": "Nile Air", "iata": "NP", "icao": "NIA"}, {"name": "FlyEgypt", "iata": "FT", "icao": "FEG"}]}, {"destination": {"name": "Moscow"}, "averageDailyFlights": 3.0, "operators": [{"name": "AZUR Air", "iata": "ZF", "icao": "KTK"}, {"name": "Aeroflot", "iata": "SU", "icao": "AFL"}, {"name": "Air Cairo", "iata": "SM", "icao": "MSC"}, {"name": "AlMasria", "iata": "UJ", "icao": "LMU"}]}, {"destination": {"icao": "LIMC", "iata": "MXP", "name": "Milan Malpensa", "shortName": "Malpensa", "municipalityName": "Milan", "location": {"lat": 45.6306, "lon": 8.72811}, "countryCode": "IT"}, "averageDailyFlights": 2.86, "operators": [{"name": "Neos", "iata": "NO", "icao": "NOS"}, {"name": "easyJet", "iata": "U2", "icao": "EZY"}, {"name": "Wizz Air Malta", "iata": "W4", "icao": "WMT"}, {"name": "Air Cairo", "iata": "SM", "icao": "MSC"}]}, {"destination": {"name": "London"}, "averageDailyFlights": 2.71, "operators": [{"name": "easyJet", "iata": "U2", "icao": "EZY"}, {"name": "Wizz Air UK", "iata": "W9", "icao": "WUK"}, {"name": "British Airways", "iata": "BA", "icao": "BAW"}]}, {"destination": {"icao": "LIRN", "iata": "NAP", "name": "N\u00e1poli Naples", "shortName": "Naples", "municipalityName": "N\u00e1poli", "location": {"lat": 40.886, "lon": 14.2908}, "countryCode": "IT"}, "averageDailyFlights": 2.0, "operators": [{"name": "Wizz Air Malta", "iata": "W4", "icao": "WMT"}, {"name": "easyJet", "iata": "U2", "icao": "EZY"}, {"name": "Air Cairo", "iata": "SM", "icao": "MSC"}]}, {"destination": {"icao": "OEJN", "iata": "JED", "name": "Jeddah King Abdulaziz", "shortName": "King Abdulaziz", "municipalityName": "Jeddah", "location": {"lat": 21.6796, "lon": 39.1565}, "countryCode": "SA"}, "averageDailyFlights": 1.71, "operators": [{"name": "flynas", "iata": "XY", "icao": "KNE"}, {"name": "Saudi Arabian Airlines", "iata": "SV", "icao": "SVA"}]}, {"destination": {"icao": "LTFM", "iata": "IST", "name": "Istanbul ", "shortName": "Istanbul", "municipalityName": "Istanbul", "location": {"lat": 41.275276, "lon": 28.751944}, "countryCode": "TR"}, "averageDailyFlights": 1.29, "operators": [{"name": "Turkish Airlines", "iata": "TK", "icao": "THY"}]}, {"destination": {"icao": "LTFJ", "iata": "SAW", "name": "Istanbul Sabiha G\u00f6k\u00e7en", "shortName": "Sabiha G\u00f6k\u00e7en", "municipalityName": "Istanbul", "location": {"lat": 40.8986, "lon": 29.3092}, "countryCode": "TR"}, "averageDailyFlights": 1.14, "operators": [{"name": "Pegasus", "iata": "PC", "icao": "PGT"}]}, {"destination": {"icao": "ULLI", "iata": "LED", "localCode": "\u041f\u041b\u041a", "name": "Saint-Petersburg Pulkovo", "shortName": "Pulkovo", "municipalityName": "Saint-Petersburg", "location": {"lat": 59.8003, "lon": 30.2625}, "countryCode": "RU"}, "averageDailyFlights": 1.06, "operators": [{"name": "Air Cairo", "iata": "SM", "icao": "MSC"}, {"name": "AlMasria", "iata": "UJ", "icao": "LMU"}, {"name": "Aeroflot", "iata": "SU", "icao": "AFL"}, {"name": "Red Wings", "iata": "WZ", "icao": "RWZ"}]}, {"destination": {"icao": "LIPZ", "iata": "VCE", "name": "Venice Marco Polo", "shortName": "Marco Polo", "municipalityName": "Venice", "location": {"lat": 45.5053, "lon": 12.3519}, "countryCode": "IT"}, "averageDailyFlights": 1.0, "operators": [{"name": "Wizz Air Malta", "iata": "W4", "icao": "WMT"}, {"name": "easyJet", "iata": "U2", "icao": "EZY"}]}, {"destination": {"icao": "LTAI", "iata": "AYT", "name": "Antalya ", "shortName": "Antalya", "municipalityName": "Antalya", "location": {"lat": 36.8987, "lon": 30.8005}, "countryCode": "TR"}, "averageDailyFlights": 0.86, "operators": [{"name": "Pegasus", "iata": "PC", "icao": "PGT"}, {"name": "Sun Express", "iata": "XQ", "icao": "SXS"}]}, {"destination": {"icao": "HEGN", "iata": "HRG", "name": "Hurghada ", "shortName": "Hurghada", "municipalityName": "Hurghada", "location": {"lat": 27.1783, "lon": 33.7994}, "countryCode": "EG"}, "averageDailyFlights": 0.86, "operators": [{"name": "EgyptAir", "iata": "MS", "icao": "MSR"}, {"name": "TUI Airlines Nederland (Netherlands)", "iata": "OR", "icao": "TFL"}]}, {"destination": {"icao": "OERK", "iata": "RUH", "name": "Riyadh King Khaled", "shortName": "King Khaled", "municipalityName": "Riyadh", "location": {"lat": 24.9576, "lon": 46.6988}, "countryCode": "SA"}, "averageDailyFlights": 0.86, "operators": [{"name": "Saudi Arabian Airlines", "iata": "SV", "icao": "SVA"}]}, {"destination": {"icao": "LIRF", "iata": "FCO", "name": "Rome Leonardo da Vinci\u2013Fiumicino", "shortName": "Leonardo da Vinci\u2013Fiumicino", "municipalityName": "Rome", "location": {"lat": 41.8045, "lon": 12.2508}, "countryCode": "IT"}, "averageDailyFlights": 0.86, "operators": [{"name": "Wizz Air Malta", "iata": "W4", "icao": "WMT"}, {"name": "Air Cairo", "iata": "SM", "icao": "MSC"}, {"name": "Neos", "iata": "NO", "icao": "NOS"}]}, {"destination": {"icao": "UTTT", "iata": "TAS", "localCode": "\u0422\u0410\u0421", "name": "Tashkent ", "shortName": "Tashkent", "municipalityName": "Tashkent", "location": {"lat": 41.2579, "lon": 69.2812}, "countryCode": "UZ"}, "averageDailyFlights": 0.86, "operators": [{"name": "Uzbekistan Airways", "iata": "HY", "icao": "UZB"}, {"name": "Taban Airlines", "iata": "HH", "icao": "TBN"}, {"name": "Nile Air", "iata": "NP", "icao": "NIA"}, {"name": "Air Cairo", "iata": "SM", "icao": "MSC"}]}, {"destination": {"icao": "EGCC", "iata": "MAN", "name": "Manchester ", "shortName": "Manchester", "municipalityName": "Manchester", "location": {"lat": 53.3537, "lon": -2.27495}, "countryCode": "GB"}, "averageDailyFlights": 0.71, "operators": [{"name": "easyJet", "iata": "U2", "icao": "EZY"}]}, {"destination": {"icao": "USSS", "iata": "SVX", "localCode": "\u041a\u041b\u0426", "name": "Ekaterinburg Koltsovo", "shortName": "Koltsovo", "municipalityName": "Ekaterinburg", "location": {"lat": 56.7431, "lon": 60.8027}, "countryCode": "RU"}, "averageDailyFlights": 0.57, "operators": [{"name": "Red Wings", "iata": "WZ", "icao": "RWZ"}, {"name": "AZUR Air", "iata": "ZF", "icao": "KTK"}, {"name": "Air Cairo", "iata": "SM", "icao": "MSC"}]}, {"destination": {"icao": "LLBG", "iata": "TLV", "name": "Tel Aviv Yafo Ben Gurion", "shortName": "Ben Gurion", "municipalityName": "Tel Aviv Yafo", "location": {"lat": 32.0114, "lon": 34.8867}, "countryCode": "IL"}, "averageDailyFlights": 0.57, "operators": [{"name": "El Al", "iata": "LY", "icao": "ELY"}]}, {"destination": {"icao": "LICC", "iata": "CTA", "name": "Catania -Fontanarossa", "shortName": "-Fontanarossa", "municipalityName": "Catania", "location": {"lat": 37.4668, "lon": 15.066399}, "countryCode": "IT"}, "averageDailyFlights": 0.46, "operators": [{"name": "Wizz Air Malta", "iata": "W4", "icao": "WMT"}, {"name": "Air Cairo", "iata": "SM", "icao": "MSC"}]}, {"destination": {"icao": "LIPE", "iata": "BLQ", "name": "Bologna Guglielmo Marconi", "shortName": "Guglielmo Marconi", "municipalityName": "Bologna", "location": {"lat": 44.5354, "lon": 11.2887}, "countryCode": "IT"}, "averageDailyFlights": 0.43, "operators": [{"name": "Neos", "iata": "NO", "icao": "NOS"}, {"name": "Air Cairo", "iata": "SM", "icao": "MSC"}]}, {"destination": {"icao": "URSS", "iata": "AER", "localCode": "\u0421\u041e\u0427", "name": "Sochi ", "shortName": "Sochi", "municipalityName": "Sochi", "location": {"lat": 43.4499, "lon": 39.9566}, "countryCode": "RU"}, "averageDailyFlights": 0.43, "operators": [{"name": "Red Wings", "iata": "WZ", "icao": "RWZ"}]}, {"destination": {"icao": "EYVI", "iata": "VNO", "localCode": "\u0412\u0418\u041b", "name": "Vilnius ", "shortName": "Vilnius", "municipalityName": "Vilnius", "location": {"lat": 54.6341, "lon": 25.2858}, "countryCode": "LT"}, "averageDailyFlights": 0.43, "operators": [{"name": "Aura Airlines"}, {"name": "JSC Avion Express", "iata": "X9", "icao": "NVD"}]}, {"destination": {"icao": "EPWA", "iata": "WAW", "name": "Warsaw Chopin", "shortName": "Chopin", "municipalityName": "Warsaw", "location": {"lat": 52.1657, "lon": 20.9671}, "countryCode": "PL"}, "averageDailyFlights": 0.43, "operators": [{"name": "Aura Airlines"}]}, {"destination": {"icao": "UDYZ", "iata": "EVN", "localCode": "\u0417\u0412\u0420", "name": "Yerevan Zvartnots", "shortName": "Zvartnots", "municipalityName": "Yerevan", "location": {"lat": 40.1473, "lon": 44.3959}, "countryCode": "AM"}, "averageDailyFlights": 0.43, "operators": [{"name": "Air Cairo", "iata": "SM", "icao": "MSC"}]}, {"destination": {"icao": "LSZH", "iata": "ZRH", "name": "Zurich Kloten", "shortName": "Kloten", "municipalityName": "Zurich", "location": {"lat": 47.4647, "lon": 8.549169}, "countryCode": "CH"}, "averageDailyFlights": 0.43, "operators": [{"name": "Edelweiss Air", "iata": "WK", "icao": "EDW"}]}, {"destination": {"icao": "OJAI", "iata": "AMM", "name": "Amman Queen Alia", "shortName": "Queen Alia", "municipalityName": "Amman", "location": {"lat": 31.7226, "lon": 35.9932}, "countryCode": "JO"}, "averageDailyFlights": 0.29, "operators": [{"name": "Jordan Aviation Airlines", "iata": "R5", "icao": "JAV"}]}, {"destination": {"icao": "EHAM", "iata": "AMS", "name": "Amsterdam Schiphol", "shortName": "Schiphol", "municipalityName": "Amsterdam", "location": {"lat": 52.3086, "lon": 4.763889}, "countryCode": "NL"}, "averageDailyFlights": 0.29, "operators": [{"name": "Transavia", "iata": "HV", "icao": "TRA"}]}, {"destination": {"icao": "UBBB", "iata": "GYD", "localCode": "\u0411\u0410\u041a", "name": "Baku Heydar Aliyev", "shortName": "Heydar Aliyev", "municipalityName": "Baku", "location": {"lat": 40.4675, "lon": 50.0467}, "countryCode": "AZ"}, "averageDailyFlights": 0.29, "operators": [{"name": "Air Cairo", "iata": "SM", "icao": "MSC"}, {"name": "AZAL Azerbaijan Airlines", "iata": "J2", "icao": "AHY"}]}, {"destination": {"icao": "EDDB", "iata": "BER", "name": "Berlin Brandenburg", "shortName": "Brandenburg", "municipalityName": "Berlin", "location": {"lat": 52.35139, "lon": 13.493889}, "countryCode": "DE"}, "averageDailyFlights": 0.29, "operators": [{"name": "easyJet", "iata": "U2", "icao": "EZY"}]}, {"destination": {"icao": "UCFM", "iata": "FRU", "localCode": "\u0411\u0418\u0428", "name": "Bishkek Manas", "shortName": "Manas", "municipalityName": "Bishkek", "location": {"lat": 43.0613, "lon": 74.4776}, "countryCode": "KG"}, "averageDailyFlights": 0.29, "operators": [{"name": "Avia Traffic Company", "iata": "YK", "icao": "AVJ"}]}, {"destination": {"icao": "EGGD", "iata": "BRS", "name": "Bristol ", "shortName": "Bristol", "municipalityName": "Bristol", "location": {"lat": 51.3827, "lon": -2.719089}, "countryCode": "GB"}, "averageDailyFlights": 0.29, "operators": [{"name": "easyJet", "iata": "U2", "icao": "EZY"}]}, {"destination": {"icao": "EBBR", "iata": "BRU", "name": "Brussels ", "shortName": "Brussels", "municipalityName": "Brussels", "location": {"lat": 50.9014, "lon": 4.484439}, "countryCode": "BE"}, "averageDailyFlights": 0.29, "operators": [{"name": "Brussels Airlines", "iata": "SN", "icao": "BEL"}, {"name": "TUI Airlines Belgium", "iata": "TB", "icao": "JAF"}]}, {"destination": {"icao": "LHBP", "iata": "BUD", "name": "Budapest Ferenc Liszt", "shortName": "Ferenc Liszt", "municipalityName": "Budapest", "location": {"lat": 47.4369, "lon": 19.255598}, "countryCode": "HU"}, "averageDailyFlights": 0.29, "operators": [{"name": "Wizz Air", "iata": "W6", "icao": "WZZ"}]}, {"destination": {"icao": "EPKT", "iata": "KTW", "name": "Katowice ", "shortName": "Katowice", "municipalityName": "Katowice", "location": {"lat": 50.4743, "lon": 19.08}, "countryCode": "PL"}, "averageDailyFlights": 0.29, "operators": [{"name": "Aura Airlines"}]}, {"destination": {"icao": "URMM", "iata": "MRV", "localCode": "\u041c\u0420\u0412", "name": "Mineralnyye Vody ", "shortName": "Mineralnyye Vody", "municipalityName": "Mineralnyye Vody", "location": {"lat": 44.2251, "lon": 43.0819}, "countryCode": "RU"}, "averageDailyFlights": 0.29, "operators": [{"name": "Red Wings", "iata": "WZ", "icao": "RWZ"}]}, {"destination": {"icao": "EVRA", "iata": "RIX", "localCode": "\u0420\u0418\u0425", "name": "Riga ", "shortName": "Riga", "municipalityName": "Riga", "location": {"lat": 56.9236, "lon": 23.9711}, "countryCode": "LV"}, "averageDailyFlights": 0.29, "operators": [{"name": "Aura Airlines"}]}, {"destination": {"icao": "EPRZ", "iata": "RZE", "name": "Rzesz\u00f3w -Jasionka", "shortName": "-Jasionka", "municipalityName": "Rzesz\u00f3w", "location": {"lat": 50.11, "lon": 22.019}, "countryCode": "PL"}, "averageDailyFlights": 0.29, "operators": [{"name": "Aura Airlines"}]}, {"destination": {"icao": "EETN", "iata": "TLL", "localCode": "TLL", "name": "Tallinn Lennart Meri", "shortName": "Lennart Meri", "municipalityName": "Tallinn", "location": {"lat": 59.4133, "lon": 24.8328}, "countryCode": "EE"}, "averageDailyFlights": 0.29, "operators": [{"name": "Aura Airlines"}]}, {"destination": {"icao": "LIPX", "iata": "VRN", "name": "Verona Villafranca", "shortName": "Villafranca", "municipalityName": "Verona", "location": {"lat": 45.3957, "lon": 10.8885}, "countryCode": "IT"}, "averageDailyFlights": 0.29, "operators": [{"name": "Neos", "iata": "NO", "icao": "NOS"}]}, {"destination": {"name": "Zhukovsky"}, "averageDailyFlights": 0.29, "operators": [{"name": "Red Wings", "iata": "WZ", "icao": "RWZ"}]}, {"destination": {"icao": "UACC", "iata": "NQZ", "name": "Astana Nursultan Nazarbayev", "shortName": "Nursultan Nazarbayev", "municipalityName": "Astana", "location": {"lat": 51.0222, "lon": 71.4669}, "countryCode": "KZ"}, "averageDailyFlights": 0.14, "operators": [{"name": "Air Cairo", "iata": "SM", "icao": "MSC"}]}, {"destination": {"icao": "LIBD", "iata": "BRI", "name": "Bari Karol Wojty\u0142a", "shortName": "Karol Wojty\u0142a", "municipalityName": "Bari", "location": {"lat": 41.1389, "lon": 16.7606}, "countryCode": "IT"}, "averageDailyFlights": 0.14, "operators": [{"name": "Air Cairo", "iata": "SM", "icao": "MSC"}]}, {"destination": {"icao": "LIBR", "iata": "BDS", "name": "Brindisi \u2013 Salento", "shortName": "\u2013 Salento", "municipalityName": "Brindisi", "location": {"lat": 40.6576, "lon": 17.947}, "countryCode": "IT"}, "averageDailyFlights": 0.14, "operators": [{"name": "Neos", "iata": "NO", "icao": "NOS"}]}, {"destination": {"icao": "LROP", "iata": "OTP", "name": "Bucharest Henri Coand\u0103", "shortName": "Henri Coand\u0103", "municipalityName": "Bucharest", "location": {"lat": 44.5722, "lon": 26.1022}, "countryCode": "RO"}, "averageDailyFlights": 0.14, "operators": [{"name": "Aura Airlines"}]}, {"destination": {"icao": "EHEH", "iata": "EIN", "name": "Eindhoven ", "shortName": "Eindhoven", "municipalityName": "Eindhoven", "location": {"lat": 51.4501, "lon": 5.374529}, "countryCode": "NL"}, "averageDailyFlights": 0.14, "operators": [{"name": "TUI Airlines Nederland (Netherlands)", "iata": "OR", "icao": "TFL"}]}, {"destination": {"icao": "LSGG", "iata": "GVA", "name": "Geneva Cointrin", "shortName": "Cointrin", "municipalityName": "Geneva", "location": {"lat": 46.2381, "lon": 6.10895}, "countryCode": "CH"}, "averageDailyFlights": 0.14, "operators": [{"name": "easyJet", "iata": "U2", "icao": "EZY"}]}, {"destination": {"icao": "LRIA", "iata": "IAS", "name": "Ia\u015fi ", "shortName": "Ia\u015fi", "municipalityName": "Ia\u015fi", "location": {"lat": 47.1785, "lon": 27.6206}, "countryCode": "RO"}, "averageDailyFlights": 0.14, "operators": [{"name": "Aura Airlines"}]}, {"destination": {"icao": "UWKD", "iata": "KZN", "name": "Kazan ", "shortName": "Kazan", "municipalityName": "Kazan", "location": {"lat": 55.6062, "lon": 49.2787}, "countryCode": "RU"}, "averageDailyFlights": 0.14, "operators": [{"name": "AZUR Air", "iata": "ZF", "icao": "KTK"}]}, {"destination": {"icao": "HEMA", "iata": "RMF", "name": "Marsa Alam ", "shortName": "Marsa Alam", "municipalityName": "Marsa Alam", "location": {"lat": 25.5571, "lon": 34.5837}, "countryCode": "EG"}, "averageDailyFlights": 0.14, "operators": [{"name": "Air Cairo", "iata": "SM", "icao": "MSC"}]}, {"destination": {"icao": "LRSV", "iata": "SCV", "name": "Suceava Stefan cel Mare", "shortName": "Stefan cel Mare", "municipalityName": "Suceava", "location": {"lat": 47.6875, "lon": 26.3541}, "countryCode": "RO"}, "averageDailyFlights": 0.14, "operators": [{"name": "Aura Airlines"}]}, {"destination": {"icao": "LOWW", "iata": "VIE", "name": "Vienna Schwechat", "shortName": "Schwechat", "municipalityName": "Vienna", "location": {"lat": 48.1103, "lon": 16.5697}, "countryCode": "AT"}, "averageDailyFlights": 0.14, "operators": [{"name": "Wizz Air Malta", "iata": "W4", "icao": "WMT"}]}]}