{"routes": [{"destination": {"icao": "HKMS", "iata": "MRE", "name": "Masai Mara Mara Serena Lodge Airstrip", "shortName": "Mara Serena Lodge Airstrip", "municipalityName": "Masai Mara", "location": {"lat": -1.406111, "lon": 35.008057}, "countryCode": "KE"}, "averageDailyFlights": 5.72, "operators": [{"name": "Safarilink", "iata": "F2", "icao": "XLK"}, {"name": "AirKenya Express Limited", "iata": "P2", "icao": "XAK"}]}, {"destination": {"name": "Kichva Tembo"}, "averageDailyFlights": 5.71, "operators": [{"name": "AirKenya Express Limited", "iata": "P2", "icao": "XAK"}, {"name": "Safarilink", "iata": "F2", "icao": "XLK"}]}, {"destination": {"name": "Kikorok"}, "averageDailyFlights": 5.71, "operators": [{"name": "AirKenya Express Limited", "iata": "P2", "icao": "XAK"}, {"name": "Safarilink", "iata": "F2", "icao": "XLK"}]}, {"destination": {"name": "Olkiombo"}, "averageDailyFlights": 5.71, "operators": [{"name": "AirKenya Express Limited", "iata": "P2", "icao": "XAK"}, {"name": "Safarilink", "iata": "F2", "icao": "XLK"}]}, {"destination": {"icao": "HKUK", "iata": "UKA", "name": "Ukunda Airstrip", "shortName": "Airstrip", "municipalityName": "Ukunda", "location": {"lat": -4.29333, "lon": 39.5711}, "countryCode": "KE"}, "averageDailyFlights": 4.43, "operators": [{"name": "Safarilink", "iata": "F2", "icao": "XLK"}, {"name": "Skyward Express", "iata": "OW", "icao": "SEW"}]}, {"destination": {"icao": "HKMO", "iata": "MBA", "name": "Mombasa Moi", "shortName": "Moi", "municipalityName": "Mombasa", "location": {"lat": -4.03483, "lon": 39.5942}, "countryCode": "KE"}, "averageDailyFlights": 3.86, "operators": [{"name": "Skyward Express", "iata": "OW", "icao": "SEW"}, {"name": "Safarilink", "iata": "F2", "icao": "XLK"}, {"name": "FlexFlight", "iata": "W2", "icao": "FXT"}]}, {"destination": {"icao": "HKEL", "iata": "EDL", "name": "Eldoret ", "shortName": "Eldoret", "municipalityName": "Eldoret", "location": {"lat": 0.404457, "lon": 35.2389}, "countryCode": "KE"}, "averageDailyFlights": 3.43, "operators": [{"name": "Skyward Express", "iata": "OW", "icao": "SEW"}]}, {"destination": {"icao": "HKKI", "iata": "KIS", "name": "Kisumu ", "shortName": "Kisumu", "municipalityName": "Kisumu", "location": {"lat": -0.086139, "lon": 34.7289}, "countryCode": "KE"}, "averageDailyFlights": 3.43, "operators": [{"name": "Safarilink", "iata": "F2", "icao": "XLK"}, {"name": "FlexFlight", "iata": "W2", "icao": "FXT"}]}, {"destination": {"icao": "HKNY", "iata": "NYK", "name": "Nanyuki ", "shortName": "Nanyuki", "municipalityName": "Nanyuki", "location": {"lat": -0.062398, "lon": 37.041008}, "countryCode": "KE"}, "averageDailyFlights": 3.43, "operators": [{"name": "Safarilink", "iata": "F2", "icao": "XLK"}, {"name": "AirKenya Express Limited", "iata": "P2", "icao": "XAK"}]}, {"destination": {"icao": "HKSB", "iata": "UAS", "name": "Samburu South ", "shortName": "Samburu South", "municipalityName": "Samburu South", "location": {"lat": 0.530583, "lon": 37.534195}, "countryCode": "KE"}, "averageDailyFlights": 3.43, "operators": [{"name": "Safarilink", "iata": "F2", "icao": "XLK"}, {"name": "AirKenya Express Limited", "iata": "P2", "icao": "XAK"}]}, {"destination": {"icao": "HKAM", "iata": "ASV", "name": "Amboseli National Park Amboseli", "shortName": "Amboseli", "municipalityName": "Amboseli National Park", "location": {"lat": -2.64505, "lon": 37.2531}, "countryCode": "KE"}, "averageDailyFlights": 2.29, "operators": [{"name": "AirKenya Express Limited", "iata": "P2", "icao": "XAK"}, {"name": "Safarilink", "iata": "F2", "icao": "XLK"}]}, {"destination": {"icao": "HTKJ", "iata": "JRO", "name": "Arusha Kilimanjaro", "shortName": "Kilimanjaro", "municipalityName": "Arusha", "location": {"lat": -3.429409, "lon": 37.0745}, "countryCode": "TZ"}, "averageDailyFlights": 2.29, "operators": [{"name": "Safarilink", "iata": "F2", "icao": "XLK"}, {"name": "AirKenya Express Limited", "iata": "P2", "icao": "XAK"}]}, {"destination": {"name": "Kitale"}, "averageDailyFlights": 2.29, "operators": [{"name": "Safarilink", "iata": "F2", "icao": "XLK"}, {"name": "Skyward Express", "iata": "OW", "icao": "SEW"}]}, {"destination": {"name": "Musiara"}, "averageDailyFlights": 2.29, "operators": [{"name": "Safarilink", "iata": "F2", "icao": "XLK"}]}, {"destination": {"icao": "HKLU", "iata": "LAU", "name": "Lamu Manda Airstrip", "shortName": "Manda Airstrip", "municipalityName": "Lamu", "location": {"lat": -2.252419, "lon": 40.9131}, "countryCode": "KE"}, "averageDailyFlights": 1.14, "operators": [{"name": "Safarilink", "iata": "F2", "icao": "XLK"}]}, {"destination": {"icao": "HKLO", "iata": "LOK", "name": "Lodwar ", "shortName": "Lodwar", "municipalityName": "Lodwar", "location": {"lat": 3.121969, "lon": 35.6087}, "countryCode": "KE"}, "averageDailyFlights": 1.14, "operators": [{"name": "Skyward Express", "iata": "OW", "icao": "SEW"}]}, {"destination": {"icao": "HKML", "iata": "MYD", "name": "Malindi ", "shortName": "Malindi", "municipalityName": "Malindi", "location": {"lat": -3.22931, "lon": 40.1017}, "countryCode": "KE"}, "averageDailyFlights": 1.14, "operators": [{"name": "Skyward Express", "iata": "OW", "icao": "SEW"}]}, {"destination": {"name": "Kakamega"}, "averageDailyFlights": 1.14, "operators": [{"name": "Skyward Express", "iata": "OW", "icao": "SEW"}]}]}