{"routes": [{"destination": {"icao": "HECA", "iata": "CAI", "name": "Cairo ", "shortName": "Cairo", "municipalityName": "Cairo", "location": {"lat": 30.1219, "lon": 31.4056}, "countryCode": "EG"}, "averageDailyFlights": 1.43, "operators": [{"name": "EgyptAir", "iata": "MS", "icao": "MSR"}, {"name": "Afriqiyah Airways", "iata": "8U", "icao": "AAW"}]}, {"destination": {"icao": "HLLM", "iata": "MJI", "name": "Tripoli Mitiga", "shortName": "Mitiga", "municipalityName": "Tripoli", "location": {"lat": 32.8941, "lon": 13.276}, "countryCode": "LY"}, "averageDailyFlights": 1.0, "operators": [{"name": "Buraq Air", "iata": "UZ", "icao": "BRQ"}, {"name": "Afriqiyah Airways", "iata": "8U", "icao": "AAW"}]}, {"destination": {"icao": "OJAI", "iata": "AMM", "name": "Amman Queen Alia", "shortName": "Queen Alia", "municipalityName": "Amman", "location": {"lat": 31.7226, "lon": 35.9932}, "countryCode": "JO"}, "averageDailyFlights": 0.57, "operators": [{"name": "Royal Jordanian", "iata": "RJ", "icao": "RJA"}, {"name": "Afriqiyah Airways", "iata": "8U", "icao": "AAW"}]}, {"destination": {"icao": "DTTA", "iata": "TUN", "name": "Tunis Carthage", "shortName": "Carthage", "municipalityName": "Tunis", "location": {"lat": 36.851, "lon": 10.227199}, "countryCode": "TN"}, "averageDailyFlights": 0.57, "operators": [{"name": "Afriqiyah Airways", "iata": "8U", "icao": "AAW"}]}, {"destination": {"name": "Alexandria"}, "averageDailyFlights": 0.57, "operators": [{"name": "Afriqiyah Airways", "iata": "8U", "icao": "AAW"}]}, {"destination": {"icao": "HLMS", "iata": "MRA", "name": "Misratah ", "shortName": "Misratah", "municipalityName": "Misratah", "location": {"lat": 32.325, "lon": 15.060999}, "countryCode": "LY"}, "averageDailyFlights": 0.29, "operators": [{"name": "Afriqiyah Airways", "iata": "8U", "icao": "AAW"}]}, {"destination": {"icao": "HLLS", "iata": "SEB", "name": "Sabha ", "shortName": "Sabha", "municipalityName": "Sabha", "location": {"lat": 26.987, "lon": 14.472499}, "countryCode": "LY"}, "averageDailyFlights": 0.14, "operators": [{"name": "Afriqiyah Airways", "iata": "8U", "icao": "AAW"}]}]}