{"routes": [{"destination": {"icao": "KATL", "iata": "ATL", "name": "Atlanta Hartsfield Jackson", "shortName": "Hartsfield Jackson", "municipalityName": "Atlanta", "location": {"lat": 33.6367, "lon": -84.4281}, "countryCode": "US"}, "averageDailyFlights": 2.29, "operators": [{"name": "Delta Air Lines", "iata": "DL", "icao": "DAL"}]}, {"destination": {"icao": "KPDK", "iata": "PDK", "name": "Atlanta DeKalb Peachtree", "shortName": "DeKalb Peachtree", "municipalityName": "Atlanta", "location": {"lat": 33.8756, "lon": -84.302}, "countryCode": "US"}, "averageDailyFlights": 0.57, "operators": [{"name": "NetJets Aviation", "iata": "1I", "icao": "EJA"}, {"name": "CYC"}]}, {"destination": {"icao": "KPBI", "iata": "PBI", "name": "West Palm Beach Palm Beach", "shortName": "Palm Beach", "municipalityName": "West Palm Beach", "location": {"lat": 26.6832, "lon": -80.0956}, "countryCode": "US"}, "averageDailyFlights": 0.57, "operators": [{"name": "LXJ"}, {"name": "JTZ"}]}, {"destination": {"icao": "KHOU", "iata": "HOU", "name": "Houston William P Hobby", "shortName": "William P Hobby", "municipalityName": "Houston", "location": {"lat": 29.6454, "lon": -95.2789}, "countryCode": "US"}, "averageDailyFlights": 0.43, "operators": [{"name": "VJA"}]}, {"destination": {"icao": "KBHM", "iata": "BHM", "name": "Birmingham -Shuttlesworth", "shortName": "-Shuttlesworth", "municipalityName": "Birmingham", "location": {"lat": 33.5629, "lon": -86.7535}, "countryCode": "US"}, "averageDailyFlights": 0.29, "operators": [{"name": "NetJets Aviation", "iata": "1I", "icao": "EJA"}]}, {"destination": {"icao": "KGPT", "iata": "GPT", "name": "Gulfport Biloxi", "shortName": "Biloxi", "municipalityName": "Gulfport", "location": {"lat": 30.4073, "lon": -89.0701}, "countryCode": "US"}, "averageDailyFlights": 0.29, "operators": [{"name": "CYC"}]}, {"destination": {"icao": "KLZU", "iata": "LZU", "name": "Lawrenceville Gwinnett County Briscoe Field", "shortName": "Gwinnett County Briscoe Field", "municipalityName": "Lawrenceville", "location": {"lat": 33.9781, "lon": -83.9624}, "countryCode": "US"}, "averageDailyFlights": 0.29, "operators": [{"name": "Nordwind Airlines", "iata": "N4", "icao": "NWS"}]}, {"destination": {"icao": "KAGS", "iata": "AGS", "name": "Augusta Regional At Bush Field", "shortName": "Regional At Bush Field", "municipalityName": "Augusta", "location": {"lat": 33.3699, "lon": -81.9645}, "countryCode": "US"}, "averageDailyFlights": 0.14, "operators": [{"name": "NetJets Aviation", "iata": "1I", "icao": "EJA"}]}, {"destination": {"icao": "KBTV", "iata": "BTV", "name": "Burlington ", "shortName": "Burlington", "municipalityName": "Burlington", "location": {"lat": 44.4719, "lon": -73.1533}, "countryCode": "US"}, "averageDailyFlights": 0.14, "operators": [{"name": "VJA"}]}, {"destination": {"icao": "KFLL", "iata": "FLL", "name": "Fort Lauderdale Hollywood", "shortName": "Hollywood", "municipalityName": "Fort Lauderdale", "location": {"lat": 26.0726, "lon": -80.1527}, "countryCode": "US"}, "averageDailyFlights": 0.14, "operators": [{"name": "LXJ"}]}, {"destination": {"icao": "KLAS", "iata": "LAS", "name": "Las Vegas McCarran", "shortName": "McCarran", "municipalityName": "Las Vegas", "location": {"lat": 36.0801, "lon": -115.152}, "countryCode": "US"}, "averageDailyFlights": 0.14, "operators": [{"name": "RNI"}]}, {"destination": {"icao": "KMCN", "iata": "MCN", "name": "Macon Middle Georgia Regional", "shortName": "Middle Georgia Regional", "municipalityName": "Macon", "location": {"lat": 32.6928, "lon": -83.6492}, "countryCode": "US"}, "averageDailyFlights": 0.14, "operators": [{"name": "NetJets Aviation", "iata": "1I", "icao": "EJA"}]}, {"destination": {"icao": "KMIA", "iata": "MIA", "name": "Miami ", "shortName": "Miami", "municipalityName": "Miami", "location": {"lat": 25.7932, "lon": -80.2906}, "countryCode": "US"}, "averageDailyFlights": 0.14, "operators": [{"name": "EJM"}]}, {"destination": {"icao": "KECP", "iata": "ECP", "name": "Panama City Beach Northwest Florida Beaches", "shortName": "Northwest Florida Beaches", "municipalityName": "Panama City Beach", "location": {"lat": 30.3417, "lon": -85.7973}, "countryCode": "US"}, "averageDailyFlights": 0.14, "operators": [{"name": "MRA"}]}, {"destination": {"icao": "KSRQ", "iata": "SRQ", "name": "Sarasota/Bradenton Sarasota Bradenton", "shortName": "Sarasota Bradenton", "municipalityName": "Sarasota/Bradenton", "location": {"lat": 27.3954, "lon": -82.5544}, "countryCode": "US"}, "averageDailyFlights": 0.14, "operators": [{"name": "LXJ"}]}, {"destination": {"icao": "KTEB", "iata": "TEB", "name": "Teterboro ", "shortName": "Teterboro", "municipalityName": "Teterboro", "location": {"lat": 40.8501, "lon": -74.0608}, "countryCode": "US"}, "averageDailyFlights": 0.14, "operators": [{"name": "EJM"}]}]}