{"routes": [{"destination": {"icao": "KDEN", "iata": "DEN", "name": "Denver ", "shortName": "Denver", "municipalityName": "Denver", "location": {"lat": 39.8617, "lon": -104.673}, "countryCode": "US"}, "averageDailyFlights": 14.86, "operators": [{"name": "United Airlines", "iata": "UA", "icao": "UAL"}, {"name": "Southwest Airlines", "iata": "WN", "icao": "SWA"}, {"name": "Frontier Airlines", "iata": "F9", "icao": "FFT"}]}, {"destination": {"icao": "KDAL", "iata": "DAL", "name": "Dallas Love Field", "shortName": "Love Field", "municipalityName": "Dallas", "location": {"lat": 32.8471, "lon": -96.8518}, "countryCode": "US"}, "averageDailyFlights": 14.29, "operators": [{"name": "Southwest Airlines", "iata": "WN", "icao": "SWA"}, {"name": "CNS"}, {"name": "NetJets Aviation", "iata": "1I", "icao": "EJA"}, {"name": "LXJ"}, {"name": "Delta Air Lines", "iata": "DL", "icao": "DAL"}, {"name": "Nolinor", "iata": "N5", "icao": "NRL"}, {"name": "XSR"}, {"name": "FTH"}, {"name": "HKR"}, {"name": "SCM"}, {"name": "N2"}, {"name": "Allegiant Air", "iata": "G4", "icao": "AAY"}, {"name": "DCM"}]}, {"destination": {"icao": "KDFW", "iata": "DFW", "name": "Dallas-Fort Worth ", "shortName": "Dallas-Fort Worth", "municipalityName": "Dallas-Fort Worth", "location": {"lat": 32.8968, "lon": -97.038}, "countryCode": "US"}, "averageDailyFlights": 14.14, "operators": [{"name": "American Airlines", "iata": "AA", "icao": "AAL"}, {"name": "Envoy Air", "iata": "MQ", "icao": "ENY"}]}, {"destination": {"icao": "KLAX", "iata": "LAX", "name": "Los Angeles ", "shortName": "Los Angeles", "municipalityName": "Los Angeles", "location": {"lat": 33.9425, "lon": -118.408}, "countryCode": "US"}, "averageDailyFlights": 13.57, "operators": [{"name": "Southwest Airlines", "iata": "WN", "icao": "SWA"}, {"name": "American Airlines", "iata": "AA", "icao": "AAL"}, {"name": "Delta Air Lines", "iata": "DL", "icao": "DAL"}, {"name": "United Airlines", "iata": "UA", "icao": "UAL"}, {"name": "Spirit Airlines", "iata": "NK", "icao": "NKS"}, {"name": "ARINC", "iata": "XA", "icao": "XAA"}]}, {"destination": {"icao": "KATL", "iata": "ATL", "name": "Atlanta Hartsfield Jackson", "shortName": "Hartsfield Jackson", "municipalityName": "Atlanta", "location": {"lat": 33.6367, "lon": -84.4281}, "countryCode": "US"}, "averageDailyFlights": 13.43, "operators": [{"name": "Southwest Airlines", "iata": "WN", "icao": "SWA"}, {"name": "Delta Air Lines", "iata": "DL", "icao": "DAL"}]}, {"destination": {"icao": "KLAS", "iata": "LAS", "name": "Las Vegas McCarran", "shortName": "McCarran", "municipalityName": "Las Vegas", "location": {"lat": 36.0801, "lon": -115.152}, "countryCode": "US"}, "averageDailyFlights": 12.43, "operators": [{"name": "Southwest Airlines", "iata": "WN", "icao": "SWA"}, {"name": "American Airlines", "iata": "AA", "icao": "AAL"}, {"name": "Spirit Airlines", "iata": "NK", "icao": "NKS"}, {"name": "NetJets Aviation", "iata": "1I", "icao": "EJA"}, {"name": "Delta Air Lines", "iata": "DL", "icao": "DAL"}, {"name": "Allegiant Air", "iata": "G4", "icao": "AAY"}, {"name": "WDY"}, {"name": "NWF"}, {"name": "Jet Linx Aviation", "iata": "JL", "icao": "JTL"}]}, {"destination": {"icao": "KPHX", "iata": "PHX", "name": "Phoenix Sky Harbor", "shortName": "Sky Harbor", "municipalityName": "Phoenix", "location": {"lat": 33.4343, "lon": -112.012}, "countryCode": "US"}, "averageDailyFlights": 10.43, "operators": [{"name": "American Airlines", "iata": "AA", "icao": "AAL"}, {"name": "Southwest Airlines", "iata": "WN", "icao": "SWA"}, {"name": "RGY"}]}, {"destination": {"icao": "KMCO", "iata": "MCO", "name": "Orlando ", "shortName": "Orlando", "municipalityName": "Orlando", "location": {"lat": 28.4294, "lon": -81.309}, "countryCode": "US"}, "averageDailyFlights": 10.14, "operators": [{"name": "Southwest Airlines", "iata": "WN", "icao": "SWA"}, {"name": "Delta Air Lines", "iata": "DL", "icao": "DAL"}, {"name": "American Airlines", "iata": "AA", "icao": "AAL"}, {"name": "Spirit Airlines", "iata": "NK", "icao": "NKS"}, {"name": "Kabo Air", "iata": "N9", "icao": "QNK"}, {"name": "NetJets Aviation", "iata": "1I", "icao": "EJA"}]}, {"destination": {"icao": "KBNA", "iata": "BNA", "name": "Nashville ", "shortName": "Nashville", "municipalityName": "Nashville", "location": {"lat": 36.1245, "lon": -86.6782}, "countryCode": "US"}, "averageDailyFlights": 9.71, "operators": [{"name": "Southwest Airlines", "iata": "WN", "icao": "SWA"}, {"name": "Envoy Air", "iata": "MQ", "icao": "ENY"}, {"name": "NetJets Aviation", "iata": "1I", "icao": "EJA"}]}, {"destination": {"icao": "KJFK", "iata": "JFK", "name": "New York John F Kennedy", "shortName": "John F Kennedy", "municipalityName": "New York", "location": {"lat": 40.6398, "lon": -73.7789}, "countryCode": "US"}, "averageDailyFlights": 8.86, "operators": [{"name": "JetBlue Airways", "iata": "B6", "icao": "JBU"}, {"name": "Delta Air Lines", "iata": "DL", "icao": "DAL"}, {"name": "American Airlines", "iata": "AA", "icao": "AAL"}]}, {"destination": {"icao": "KMSY", "iata": "MSY", "name": "New Orleans Louis Armstrong", "shortName": "Louis Armstrong", "municipalityName": "New Orleans", "location": {"lat": 29.9934, "lon": -90.258}, "countryCode": "US"}, "averageDailyFlights": 8.57, "operators": [{"name": "Southwest Airlines", "iata": "WN", "icao": "SWA"}, {"name": "American Airlines", "iata": "AA", "icao": "AAL"}, {"name": "Envoy Air", "iata": "MQ", "icao": "ENY"}, {"name": "Breeze Airways", "iata": "MX", "icao": "MXY"}, {"name": "NetJets Aviation", "iata": "1I", "icao": "EJA"}]}, {"destination": {"icao": "KORD", "iata": "ORD", "name": "Chicago O'Hare", "shortName": "O'Hare", "municipalityName": "Chicago", "location": {"lat": 41.9786, "lon": -87.9048}, "countryCode": "US"}, "averageDailyFlights": 8.43, "operators": [{"name": "American Airlines", "iata": "AA", "icao": "AAL"}, {"name": "United Airlines", "iata": "UA", "icao": "UAL"}, {"name": "Envoy Air", "iata": "MQ", "icao": "ENY"}]}, {"destination": {"icao": "KIAH", "iata": "IAH", "name": "Houston George Bush", "shortName": "George Bush", "municipalityName": "Houston", "location": {"lat": 29.9844, "lon": -95.3414}, "countryCode": "US"}, "averageDailyFlights": 7.57, "operators": [{"name": "United Airlines", "iata": "UA", "icao": "UAL"}]}, {"destination": {"icao": "KMIA", "iata": "MIA", "name": "Miami ", "shortName": "Miami", "municipalityName": "Miami", "location": {"lat": 25.7932, "lon": -80.2906}, "countryCode": "US"}, "averageDailyFlights": 6.86, "operators": [{"name": "American Airlines", "iata": "AA", "icao": "AAL"}, {"name": "Atlas Air", "iata": "5Y", "icao": "GTI"}, {"name": "Southwest Airlines", "iata": "WN", "icao": "SWA"}, {"name": "Envoy Air", "iata": "MQ", "icao": "ENY"}, {"name": "NetJets Aviation", "iata": "1I", "icao": "EJA"}]}, {"destination": {"icao": "KSEA", "iata": "SEA", "name": "Seattle Tacoma", "shortName": "Tacoma", "municipalityName": "Seattle", "location": {"lat": 47.449, "lon": -122.309}, "countryCode": "US"}, "averageDailyFlights": 6.71, "operators": [{"name": "Delta Air Lines", "iata": "DL", "icao": "DAL"}, {"name": "Alaska Airlines", "iata": "AS", "icao": "ASA"}]}, {"destination": {"icao": "KSFO", "iata": "SFO", "name": "San Francisco ", "shortName": "San Francisco", "municipalityName": "San Francisco", "location": {"lat": 37.619, "lon": -122.375}, "countryCode": "US"}, "averageDailyFlights": 6.57, "operators": [{"name": "Alaska Airlines", "iata": "AS", "icao": "ASA"}, {"name": "United Airlines", "iata": "UA", "icao": "UAL"}, {"name": "TWY"}]}, {"destination": {"icao": "KHOU", "iata": "HOU", "name": "Houston William P Hobby", "shortName": "William P Hobby", "municipalityName": "Houston", "location": {"lat": 29.6454, "lon": -95.2789}, "countryCode": "US"}, "averageDailyFlights": 6.43, "operators": [{"name": "Southwest Airlines", "iata": "WN", "icao": "SWA"}, {"name": "LXJ"}, {"name": "NetJets Aviation", "iata": "1I", "icao": "EJA"}, {"name": "STV"}, {"name": "FTH"}]}, {"destination": {"icao": "KELP", "iata": "ELP", "name": "El Paso ", "shortName": "El Paso", "municipalityName": "El Paso", "location": {"lat": 31.8072, "lon": -106.378}, "countryCode": "US"}, "averageDailyFlights": 6.29, "operators": [{"name": "Envoy Air", "iata": "MQ", "icao": "ENY"}, {"name": "Southwest Airlines", "iata": "WN", "icao": "SWA"}, {"name": "SkyWest Airlines", "iata": "OO", "icao": "SKW"}, {"name": "American Airlines", "iata": "AA", "icao": "AAL"}]}, {"destination": {"icao": "KEWR", "iata": "EWR", "name": "Newark Liberty", "shortName": "Liberty", "municipalityName": "Newark", "location": {"lat": 40.6925, "lon": -74.1687}, "countryCode": "US"}, "averageDailyFlights": 6.29, "operators": [{"name": "United Airlines", "iata": "UA", "icao": "UAL"}, {"name": "Spirit Airlines", "iata": "NK", "icao": "NKS"}]}, {"destination": {"icao": "KSAN", "iata": "SAN", "name": "San Diego ", "shortName": "San Diego", "municipalityName": "San Diego", "location": {"lat": 32.7336, "lon": -117.19}, "countryCode": "US"}, "averageDailyFlights": 6.29, "operators": [{"name": "Alaska Airlines", "iata": "AS", "icao": "ASA"}, {"name": "Southwest Airlines", "iata": "WN", "icao": "SWA"}]}, {"destination": {"icao": "KSJC", "iata": "SJC", "name": "San Jose Norman Y. Mineta", "shortName": "Norman Y. Mineta", "municipalityName": "San Jose", "location": {"lat": 37.3626, "lon": -121.929}, "countryCode": "US"}, "averageDailyFlights": 6.29, "operators": [{"name": "Southwest Airlines", "iata": "WN", "icao": "SWA"}, {"name": "Alaska Airlines", "iata": "AS", "icao": "ASA"}, {"name": "LXJ"}, {"name": "NJZ"}, {"name": "Allegiant Air", "iata": "G4", "icao": "AAY"}, {"name": "TWY"}]}, {"destination": {"icao": "KRDU", "iata": "RDU", "name": "Raleigh/Durham Raleigh Durham", "shortName": "Raleigh Durham", "municipalityName": "Raleigh/Durham", "location": {"lat": 35.8776, "lon": -78.7875}, "countryCode": "US"}, "averageDailyFlights": 5.71, "operators": [{"name": "Envoy Air", "iata": "MQ", "icao": "ENY"}, {"name": "Delta Air Lines", "iata": "DL", "icao": "DAL"}, {"name": "Southwest Airlines", "iata": "WN", "icao": "SWA"}, {"name": "American Airlines", "iata": "AA", "icao": "AAL"}, {"name": "LXJ"}, {"name": "NetJets Aviation", "iata": "1I", "icao": "EJA"}]}, {"destination": {"icao": "KIAD", "iata": "IAD", "name": "District of Columbia Washington Dulles", "shortName": "Washington Dulles", "municipalityName": "District of Columbia", "location": {"lat": 38.9445, "lon": -77.4558}, "countryCode": "US"}, "averageDailyFlights": 5.29, "operators": [{"name": "Allegiant Air", "iata": "G4", "icao": "AAY"}, {"name": "United Airlines", "iata": "UA", "icao": "UAL"}, {"name": "American Airlines", "iata": "AA", "icao": "AAL"}, {"name": "Envoy Air", "iata": "MQ", "icao": "ENY"}, {"name": "NetJets Aviation", "iata": "1I", "icao": "EJA"}, {"name": "RDN"}]}, {"destination": {"icao": "KMSP", "iata": "MSP", "name": "Minneapolis Wold-Chamberlain", "shortName": "Wold-Chamberlain", "municipalityName": "Minneapolis", "location": {"lat": 44.882, "lon": -93.2218}, "countryCode": "US"}, "averageDailyFlights": 5.29, "operators": [{"name": "Delta Air Lines", "iata": "DL", "icao": "DAL"}, {"name": "Southwest Airlines", "iata": "WN", "icao": "SWA"}]}, {"destination": {"icao": "KCLT", "iata": "CLT", "name": "Charlotte Douglas", "shortName": "Douglas", "municipalityName": "Charlotte", "location": {"lat": 35.214, "lon": -80.9431}, "countryCode": "US"}, "averageDailyFlights": 5.14, "operators": [{"name": "American Airlines", "iata": "AA", "icao": "AAL"}]}, {"destination": {"icao": "KBOS", "iata": "BOS", "name": "Boston General Edward Lawrence Logan", "shortName": "General Edward Lawrence Logan", "municipalityName": "Boston", "location": {"lat": 42.3643, "lon": -71.0052}, "countryCode": "US"}, "averageDailyFlights": 4.86, "operators": [{"name": "Delta Air Lines", "iata": "DL", "icao": "DAL"}, {"name": "American Airlines", "iata": "AA", "icao": "AAL"}, {"name": "JetBlue Airways", "iata": "B6", "icao": "JBU"}]}, {"destination": {"icao": "KSLC", "iata": "SLC", "name": "Salt Lake City ", "shortName": "Salt Lake City", "municipalityName": "Salt Lake City", "location": {"lat": 40.7884, "lon": -111.978}, "countryCode": "US"}, "averageDailyFlights": 4.86, "operators": [{"name": "Delta Air Lines", "iata": "DL", "icao": "DAL"}, {"name": "Southwest Airlines", "iata": "WN", "icao": "SWA"}, {"name": "CBC"}]}, {"destination": {"icao": "KMDW", "iata": "MDW", "name": "Chicago Midway", "shortName": "Midway", "municipalityName": "Chicago", "location": {"lat": 41.786, "lon": -87.7524}, "countryCode": "US"}, "averageDailyFlights": 4.71, "operators": [{"name": "Southwest Airlines", "iata": "WN", "icao": "SWA"}, {"name": "NetJets Aviation", "iata": "1I", "icao": "EJA"}]}, {"destination": {"icao": "KTPA", "iata": "TPA", "name": "Tampa ", "shortName": "Tampa", "municipalityName": "Tampa", "location": {"lat": 27.9755, "lon": -82.5332}, "countryCode": "US"}, "averageDailyFlights": 4.71, "operators": [{"name": "Southwest Airlines", "iata": "WN", "icao": "SWA"}, {"name": "American Airlines", "iata": "AA", "icao": "AAL"}, {"name": "NetJets Aviation", "iata": "1I", "icao": "EJA"}, {"name": "FTH"}]}, {"destination": {"icao": "KFLL", "iata": "FLL", "name": "Fort Lauderdale Hollywood", "shortName": "Hollywood", "municipalityName": "Fort Lauderdale", "location": {"lat": 26.0726, "lon": -80.1527}, "countryCode": "US"}, "averageDailyFlights": 4.57, "operators": [{"name": "Southwest Airlines", "iata": "WN", "icao": "SWA"}, {"name": "JetBlue Airways", "iata": "B6", "icao": "JBU"}, {"name": "Spirit Airlines", "iata": "NK", "icao": "NKS"}, {"name": "XOJ"}]}, {"destination": {"icao": "KBWI", "iata": "BWI", "name": "Baltimore Washington  Thurgood Marshall", "shortName": "Washington  Thurgood Marshall", "municipalityName": "Baltimore", "location": {"lat": 39.1754, "lon": -76.6683}, "countryCode": "US"}, "averageDailyFlights": 4.43, "operators": [{"name": "Southwest Airlines", "iata": "WN", "icao": "SWA"}]}, {"destination": {"icao": "KCVG", "iata": "CVG", "name": "Cincinnati Northern Kentucky", "shortName": "Northern Kentucky", "municipalityName": "Cincinnati", "location": {"lat": 39.0488, "lon": -84.6678}, "countryCode": "US"}, "averageDailyFlights": 3.71, "operators": [{"name": "ATI", "iata": "8C", "icao": "ATN"}, {"name": "Delta Air Lines", "iata": "DL", "icao": "DAL"}, {"name": "Envoy Air", "iata": "MQ", "icao": "ENY"}, {"name": "iAero Airways", "iata": "WQ", "icao": "SWQ"}]}, {"destination": {"icao": "MMUN", "iata": "CUN", "name": "Canc\u00fan ", "shortName": "Canc\u00fan", "municipalityName": "Canc\u00fan", "location": {"lat": 21.0365, "lon": -86.8771}, "countryCode": "MX"}, "averageDailyFlights": 3.57, "operators": [{"name": "American Airlines", "iata": "AA", "icao": "AAL"}, {"name": "Southwest Airlines", "iata": "WN", "icao": "SWA"}]}, {"destination": {"icao": "KDTW", "iata": "DTW", "name": "Detroit Metropolitan Wayne County", "shortName": "Metropolitan Wayne County", "municipalityName": "Detroit", "location": {"lat": 42.2124, "lon": -83.3534}, "countryCode": "US"}, "averageDailyFlights": 3.57, "operators": [{"name": "Delta Air Lines", "iata": "DL", "icao": "DAL"}]}, {"destination": {"icao": "KABQ", "iata": "ABQ", "name": "The Duke City Albuquerque  Sunport", "shortName": "Albuquerque  Sunport", "municipalityName": "The Duke City", "location": {"lat": 35.0402, "lon": -106.609}, "countryCode": "US"}, "averageDailyFlights": 3.57, "operators": [{"name": "Envoy Air", "iata": "MQ", "icao": "ENY"}, {"name": "Southwest Airlines", "iata": "WN", "icao": "SWA"}, {"name": "N2"}]}, {"destination": {"icao": "KSNA", "iata": "SNA", "name": "Santa Ana John Wayne -Orange County", "shortName": "John Wayne -Orange County", "municipalityName": "Santa Ana", "location": {"lat": 33.6757, "lon": -117.868}, "countryCode": "US"}, "averageDailyFlights": 3.29, "operators": [{"name": "American Airlines", "iata": "AA", "icao": "AAL"}, {"name": "Southwest Airlines", "iata": "WN", "icao": "SWA"}, {"name": "Allegiant Air", "iata": "G4", "icao": "AAY"}, {"name": "Jet Linx Aviation", "iata": "JL", "icao": "JTL"}, {"name": "NetJets Aviation", "iata": "1I", "icao": "EJA"}, {"name": "SIS"}, {"name": "HKR"}]}, {"destination": {"icao": "KMCI", "iata": "MCI", "name": "Kansas City ", "shortName": "Kansas City", "municipalityName": "Kansas City", "location": {"lat": 39.2976, "lon": -94.7139}, "countryCode": "US"}, "averageDailyFlights": 3.14, "operators": [{"name": "Southwest Airlines", "iata": "WN", "icao": "SWA"}, {"name": "American Airlines", "iata": "AA", "icao": "AAL"}, {"name": "XSR"}]}, {"destination": {"icao": "KIND", "iata": "IND", "name": "Indianapolis ", "shortName": "Indianapolis", "municipalityName": "Indianapolis", "location": {"lat": 39.7173, "lon": -86.2944}, "countryCode": "US"}, "averageDailyFlights": 3.0, "operators": [{"name": "Envoy Air", "iata": "MQ", "icao": "ENY"}, {"name": "Southwest Airlines", "iata": "WN", "icao": "SWA"}]}, {"destination": {"icao": "KPHL", "iata": "PHL", "name": "Philadelphia ", "shortName": "Philadelphia", "municipalityName": "Philadelphia", "location": {"lat": 39.8719, "lon": -75.2411}, "countryCode": "US"}, "averageDailyFlights": 2.86, "operators": [{"name": "American Airlines", "iata": "AA", "icao": "AAL"}]}, {"destination": {"icao": "KOKC", "iata": "OKC", "name": "Oklahoma City Will Rogers World", "shortName": "Will Rogers World", "municipalityName": "Oklahoma City", "location": {"lat": 35.3931, "lon": -97.6007}, "countryCode": "US"}, "averageDailyFlights": 2.57, "operators": [{"name": "Southwest Airlines", "iata": "WN", "icao": "SWA"}, {"name": "SkyWest Airlines", "iata": "OO", "icao": "SKW"}, {"name": "JRE"}, {"name": "NetJets Aviation", "iata": "1I", "icao": "EJA"}]}, {"destination": {"icao": "KAUS", "iata": "AUS", "name": "Austin Bergstrom", "shortName": "Bergstrom", "municipalityName": "Austin", "location": {"lat": 30.194498, "lon": -97.6699}, "countryCode": "US"}, "averageDailyFlights": 2.43, "operators": [{"name": "CXK"}, {"name": "Global Feeder Services", "iata": "GC"}]}, {"destination": {"icao": "KSTL", "iata": "STL", "name": "Saint Louis Lambert St Louis", "shortName": "Lambert St Louis", "municipalityName": "Saint Louis", "location": {"lat": 38.7487, "lon": -90.37}, "countryCode": "US"}, "averageDailyFlights": 2.43, "operators": [{"name": "Southwest Airlines", "iata": "WN", "icao": "SWA"}, {"name": "Jet Linx Aviation", "iata": "JL", "icao": "JTL"}]}, {"destination": {"icao": "KHRL", "iata": "HRL", "name": "Harlingen Valley", "shortName": "Valley", "municipalityName": "Harlingen", "location": {"lat": 26.2285, "lon": -97.6544}, "countryCode": "US"}, "averageDailyFlights": 2.29, "operators": [{"name": "Southwest Airlines", "iata": "WN", "icao": "SWA"}, {"name": "TCA", "iata": "N6", "icao": "TZS"}]}, {"destination": {"icao": "KLGB", "iata": "LGB", "name": "Long Beach Daugherty Field/", "shortName": "Daugherty Field/", "municipalityName": "Long Beach", "location": {"lat": 33.8177, "lon": -118.152}, "countryCode": "US"}, "averageDailyFlights": 2.14, "operators": [{"name": "Southwest Airlines", "iata": "WN", "icao": "SWA"}]}, {"destination": {"icao": "KSMF", "iata": "SMF", "name": "Sacramento ", "shortName": "Sacramento", "municipalityName": "Sacramento", "location": {"lat": 38.6954, "lon": -121.591}, "countryCode": "US"}, "averageDailyFlights": 2.14, "operators": [{"name": "Envoy Air", "iata": "MQ", "icao": "ENY"}, {"name": "Southwest Airlines", "iata": "WN", "icao": "SWA"}]}, {"destination": {"icao": "KMAF", "iata": "MAF", "name": "Midland ", "shortName": "Midland", "municipalityName": "Midland", "location": {"lat": 31.9425, "lon": -102.202}, "countryCode": "US"}, "averageDailyFlights": 1.86, "operators": [{"name": "Southwest Airlines", "iata": "WN", "icao": "SWA"}, {"name": "CSI"}, {"name": "NetJets Aviation", "iata": "1I", "icao": "EJA"}, {"name": "EJM"}]}, {"destination": {"icao": "EGLL", "iata": "LHR", "name": "London Heathrow", "shortName": "Heathrow", "municipalityName": "London", "location": {"lat": 51.4706, "lon": -0.461941}, "countryCode": "GB"}, "averageDailyFlights": 1.71, "operators": [{"name": "British Airways", "iata": "BA", "icao": "BAW"}, {"name": "Virgin Atlantic", "iata": "VS", "icao": "VIR"}]}, {"destination": {"icao": "KLAL", "iata": "LAL", "name": "Lakeland Linder Regional", "shortName": "Linder Regional", "municipalityName": "Lakeland", "location": {"lat": 27.9889, "lon": -82.0186}, "countryCode": "US"}, "averageDailyFlights": 1.57, "operators": [{"name": "Sun Country Airlines", "iata": "SY", "icao": "SCX"}, {"name": "NetJets Aviation", "iata": "1I", "icao": "EJA"}, {"name": "JRE"}]}, {"destination": {"icao": "KCMH", "iata": "CMH", "name": "Columbus Port", "shortName": "Port", "municipalityName": "Columbus", "location": {"lat": 39.998, "lon": -82.8919}, "countryCode": "US"}, "averageDailyFlights": 1.29, "operators": [{"name": "Southwest Airlines", "iata": "WN", "icao": "SWA"}, {"name": "NetJets Aviation", "iata": "1I", "icao": "EJA"}]}, {"destination": {"icao": "KDCA", "iata": "DCA", "name": "District of Columbia Ronald Reagan Washington National", "shortName": "Ronald Reagan Washington National", "municipalityName": "District of Columbia", "location": {"lat": 38.8521, "lon": -77.0377}, "countryCode": "US"}, "averageDailyFlights": 1.29, "operators": [{"name": "Southwest Airlines", "iata": "WN", "icao": "SWA"}]}, {"destination": {"icao": "KSJT", "iata": "SJT", "name": "San Angelo Regional Mathis Field", "shortName": "Regional Mathis Field", "municipalityName": "San Angelo", "location": {"lat": 31.3577, "lon": -100.496}, "countryCode": "US"}, "averageDailyFlights": 1.29, "operators": [{"name": "BVN"}]}, {"destination": {"icao": "KSAT", "iata": "SAT", "name": "San Antonio ", "shortName": "San Antonio", "municipalityName": "San Antonio", "location": {"lat": 29.5337, "lon": -98.4698}, "countryCode": "US"}, "averageDailyFlights": 1.29, "operators": [{"name": "NetJets Aviation", "iata": "1I", "icao": "EJA"}, {"name": "My Jet Xpress Airlines", "iata": "N7", "icao": "NEP"}, {"name": "Vuela El Salvador", "iata": "N3", "icao": "VOS"}, {"name": "PSAVF"}, {"name": "EJM"}, {"name": "DRL"}]}, {"destination": {"icao": "KSBD", "iata": "SBD", "name": "San Bernardino ", "shortName": "San Bernardino", "municipalityName": "San Bernardino", "location": {"lat": 34.0954, "lon": -117.235}, "countryCode": "US"}, "averageDailyFlights": 1.29, "operators": [{"name": "ATI", "iata": "8C", "icao": "ATN"}]}, {"destination": {"icao": "MMSD", "iata": "SJD", "name": "San Jos\u00e9 del Cabo Los Cabos", "shortName": "Los Cabos", "municipalityName": "San Jos\u00e9 del Cabo", "location": {"lat": 23.1518, "lon": -109.721}, "countryCode": "MX"}, "averageDailyFlights": 1.29, "operators": [{"name": "American Airlines", "iata": "AA", "icao": "AAL"}, {"name": "Southwest Airlines", "iata": "WN", "icao": "SWA"}]}, {"destination": {"icao": "KBUR", "iata": "BUR", "name": "Burbank Bob Hope", "shortName": "Bob Hope", "municipalityName": "Burbank", "location": {"lat": 34.2007, "lon": -118.359}, "countryCode": "US"}, "averageDailyFlights": 1.14, "operators": [{"name": "Southwest Airlines", "iata": "WN", "icao": "SWA"}]}, {"destination": {"icao": "KAFW", "iata": "AFW", "name": "Fort Worth Alliance", "shortName": "Alliance", "municipalityName": "Fort Worth", "location": {"lat": 32.9876, "lon": -97.3188}, "countryCode": "US"}, "averageDailyFlights": 1.14, "operators": [{"name": "BVN"}, {"name": "Kabo Air", "iata": "N9", "icao": "QNK"}, {"name": "TWY"}]}, {"destination": {"icao": "KLBB", "iata": "LBB", "name": "Lubbock Preston Smith", "shortName": "Preston Smith", "municipalityName": "Lubbock", "location": {"lat": 33.6636, "lon": -101.823}, "countryCode": "US"}, "averageDailyFlights": 1.14, "operators": [{"name": "Southwest Airlines", "iata": "WN", "icao": "SWA"}, {"name": "EMD"}]}, {"destination": {"icao": "MMMX", "iata": "MEX", "name": "Mexico City Licenciado Benito Juarez", "shortName": "Licenciado Benito Juarez", "municipalityName": "Mexico City", "location": {"lat": 19.4363, "lon": -99.0721}, "countryCode": "MX"}, "averageDailyFlights": 1.14, "operators": [{"name": "Aeromexico", "iata": "AM", "icao": "AMX"}]}, {"destination": {"icao": "KOAK", "iata": "OAK", "name": "Oakland Metropolitan", "shortName": "Metropolitan", "municipalityName": "Oakland", "location": {"lat": 37.7213, "lon": -122.221}, "countryCode": "US"}, "averageDailyFlights": 1.14, "operators": [{"name": "Southwest Airlines", "iata": "WN", "icao": "SWA"}]}, {"destination": {"icao": "KONT", "iata": "ONT", "name": "Ontario ", "shortName": "Ontario", "municipalityName": "Ontario", "location": {"lat": 34.056, "lon": -117.601}, "countryCode": "US"}, "averageDailyFlights": 1.14, "operators": [{"name": "Southwest Airlines", "iata": "WN", "icao": "SWA"}]}, {"destination": {"icao": "KPIT", "iata": "PIT", "name": "Pittsburgh ", "shortName": "Pittsburgh", "municipalityName": "Pittsburgh", "location": {"lat": 40.4915, "lon": -80.2329}, "countryCode": "US"}, "averageDailyFlights": 1.14, "operators": [{"name": "Southwest Airlines", "iata": "WN", "icao": "SWA"}]}, {"destination": {"icao": "KSDL", "iata": "SCF", "name": "Scottsdale ", "shortName": "Scottsdale", "municipalityName": "Scottsdale", "location": {"lat": 33.6229, "lon": -111.911}, "countryCode": "US"}, "averageDailyFlights": 1.14, "operators": [{"name": "NetJets Aviation", "iata": "1I", "icao": "EJA"}, {"name": "JRE"}, {"name": "Libyan Airlines", "iata": "LN", "icao": "LAA"}, {"name": "NJZ"}]}, {"destination": {"icao": "KTEB", "iata": "TEB", "name": "Teterboro ", "shortName": "Teterboro", "municipalityName": "Teterboro", "location": {"lat": 40.8501, "lon": -74.0608}, "countryCode": "US"}, "averageDailyFlights": 1.14, "operators": [{"name": "EJM"}, {"name": "Jet Linx Aviation", "iata": "JL", "icao": "JTL"}, {"name": "MJS"}, {"name": "FFL"}, {"name": "NetJets Aviation", "iata": "1I", "icao": "EJA"}, {"name": "HPJ"}, {"name": "LXJ"}]}, {"destination": {"icao": "CYYZ", "iata": "YYZ", "name": "Toronto Pearson", "shortName": "Pearson", "municipalityName": "Toronto", "location": {"lat": 43.6772, "lon": -79.6306}, "countryCode": "CA"}, "averageDailyFlights": 1.14, "operators": [{"name": "Air Canada", "iata": "AC", "icao": "ACA"}]}, {"destination": {"icao": "KTUL", "iata": "TUL", "name": "Tulsa ", "shortName": "Tulsa", "municipalityName": "Tulsa", "location": {"lat": 36.1984, "lon": -95.8881}, "countryCode": "US"}, "averageDailyFlights": 1.14, "operators": [{"name": "Southwest Airlines", "iata": "WN", "icao": "SWA"}]}, {"destination": {"icao": "KAMA", "iata": "AMA", "name": "Amarillo Rick Husband", "shortName": "Rick Husband", "municipalityName": "Amarillo", "location": {"lat": 35.2194, "lon": -101.706}, "countryCode": "US"}, "averageDailyFlights": 1.0, "operators": [{"name": "Southwest Airlines", "iata": "WN", "icao": "SWA"}]}, {"destination": {"icao": "KFTW", "iata": "FTW", "name": "Fort Worth Meacham", "shortName": "Meacham", "municipalityName": "Fort Worth", "location": {"lat": 32.8198, "lon": -97.3624}, "countryCode": "US"}, "averageDailyFlights": 1.0, "operators": [{"name": "CNS"}, {"name": "CYO"}, {"name": "Jet Linx Aviation", "iata": "JL", "icao": "JTL"}, {"name": "NetJets Aviation", "iata": "1I", "icao": "EJA"}, {"name": "XSR"}]}, {"destination": {"icao": "KPSP", "iata": "PSP", "name": "Palm Springs ", "shortName": "Palm Springs", "municipalityName": "Palm Springs", "location": {"lat": 33.8297, "lon": -116.507}, "countryCode": "US"}, "averageDailyFlights": 1.0, "operators": [{"name": "NetJets Aviation", "iata": "1I", "icao": "EJA"}, {"name": "Envoy Air", "iata": "MQ", "icao": "ENY"}]}, {"destination": {"icao": "KPDX", "iata": "PDX", "name": "Portland ", "shortName": "Portland", "municipalityName": "Portland", "location": {"lat": 45.5887, "lon": -122.598}, "countryCode": "US"}, "averageDailyFlights": 1.0, "operators": [{"name": "Alaska Airlines", "iata": "AS", "icao": "ASA"}]}, {"destination": {"icao": "MMPR", "iata": "PVR", "name": "Puerto Vallarta Licenciado Gustavo D\u00edaz Ordaz", "shortName": "Licenciado Gustavo D\u00edaz Ordaz", "municipalityName": "Puerto Vallarta", "location": {"lat": 20.6801, "lon": -105.254}, "countryCode": "MX"}, "averageDailyFlights": 1.0, "operators": [{"name": "Jet Linx Aviation", "iata": "JL", "icao": "JTL"}, {"name": "HPJ"}, {"name": "American Airlines", "iata": "AA", "icao": "AAL"}, {"name": "Nordwind Airlines", "iata": "N4", "icao": "NWS"}]}, {"destination": {"icao": "KVNY", "iata": "VNY", "name": "Van Nuys ", "shortName": "Van Nuys", "municipalityName": "Van Nuys", "location": {"lat": 34.2098, "lon": -118.49}, "countryCode": "US"}, "averageDailyFlights": 1.0, "operators": [{"name": "PEG"}, {"name": "STV"}, {"name": "NetJets Aviation", "iata": "1I", "icao": "EJA"}, {"name": "DJR"}, {"name": "LXJ"}]}, {"destination": {"icao": "KBWD", "iata": "BWD", "name": "Brownwood Regional", "shortName": "Regional", "municipalityName": "Brownwood", "location": {"lat": 31.7936, "lon": -98.9565}, "countryCode": "US"}, "averageDailyFlights": 0.86, "operators": [{"name": "BVN"}]}, {"destination": {"icao": "KJAX", "iata": "JAX", "name": "Jacksonville ", "shortName": "Jacksonville", "municipalityName": "Jacksonville", "location": {"lat": 30.4941, "lon": -81.6879}, "countryCode": "US"}, "averageDailyFlights": 0.86, "operators": [{"name": "American Airlines", "iata": "AA", "icao": "AAL"}, {"name": "Envoy Air", "iata": "MQ", "icao": "ENY"}]}, {"destination": {"icao": "MRLB", "iata": "LIR", "name": "Liberia Daniel Oduber Quiros", "shortName": "Daniel Oduber Quiros", "municipalityName": "Liberia", "location": {"lat": 10.593299, "lon": -85.5444}, "countryCode": "CR"}, "averageDailyFlights": 0.86, "operators": [{"name": "American Airlines", "iata": "AA", "icao": "AAL"}, {"name": "CWG"}]}, {"destination": {"icao": "KSDF", "iata": "SDF", "name": "Louisville Standiford Field", "shortName": "Standiford Field", "municipalityName": "Louisville", "location": {"lat": 38.1744, "lon": -85.736}, "countryCode": "US"}, "averageDailyFlights": 0.86, "operators": [{"name": "ATI", "iata": "8C", "icao": "ATN"}, {"name": "NetJets Aviation", "iata": "1I", "icao": "EJA"}]}, {"destination": {"icao": "KMEM", "iata": "MEM", "name": "Memphis ", "shortName": "Memphis", "municipalityName": "Memphis", "location": {"lat": 35.0424, "lon": -89.9767}, "countryCode": "US"}, "averageDailyFlights": 0.71, "operators": [{"name": "Envoy Air", "iata": "MQ", "icao": "ENY"}]}, {"destination": {"icao": "KRNO", "iata": "RNO", "name": "Reno Tahoe", "shortName": "Tahoe", "municipalityName": "Reno", "location": {"lat": 39.4991, "lon": -119.768}, "countryCode": "US"}, "averageDailyFlights": 0.71, "operators": [{"name": "American Airlines", "iata": "AA", "icao": "AAL"}, {"name": "Envoy Air", "iata": "MQ", "icao": "ENY"}]}, {"destination": {"icao": "MPTO", "iata": "PTY", "name": "Tocumen ", "shortName": "Tocumen", "municipalityName": "Tocumen", "location": {"lat": 9.071359, "lon": -79.3835}, "countryCode": "PA"}, "averageDailyFlights": 0.71, "operators": [{"name": "Copa Airlines", "iata": "CM", "icao": "CMP"}]}, {"destination": {"icao": "EHAM", "iata": "AMS", "name": "Amsterdam Schiphol", "shortName": "Schiphol", "municipalityName": "Amsterdam", "location": {"lat": 52.3086, "lon": 4.763889}, "countryCode": "NL"}, "averageDailyFlights": 0.57, "operators": [{"name": "KLM", "iata": "KL", "icao": "KLM"}]}, {"destination": {"icao": "KCLL", "iata": "CLL", "name": "College Station Easterwood Field", "shortName": "Easterwood Field", "municipalityName": "College Station", "location": {"lat": 30.5886, "lon": -96.3638}, "countryCode": "US"}, "averageDailyFlights": 0.57, "operators": [{"name": "XSR"}, {"name": "FTD"}, {"name": "NetJets Aviation", "iata": "1I", "icao": "EJA"}, {"name": "LXJ"}]}, {"destination": {"icao": "EDDF", "iata": "FRA", "name": "Frankfurt-am-Main ", "shortName": "Frankfurt-am-Main", "municipalityName": "Frankfurt-am-Main", "location": {"lat": 50.0264, "lon": 8.543129}, "countryCode": "DE"}, "averageDailyFlights": 0.57, "operators": [{"name": "Lufthansa", "iata": "LH", "icao": "DLH"}]}, {"destination": {"icao": "KTYS", "iata": "TYS", "name": "Knoxville McGhee Tyson", "shortName": "McGhee Tyson", "municipalityName": "Knoxville", "location": {"lat": 35.811, "lon": -83.994}, "countryCode": "US"}, "averageDailyFlights": 0.57, "operators": [{"name": "Allegiant Air", "iata": "G4", "icao": "AAY"}, {"name": "JRT"}]}, {"destination": {"icao": "KBCT", "iata": "BCT", "name": "Boca Raton ", "shortName": "Boca Raton", "municipalityName": "Boca Raton", "location": {"lat": 26.378498, "lon": -80.1077}, "countryCode": "US"}, "averageDailyFlights": 0.43, "operators": [{"name": "NetJets Aviation", "iata": "1I", "icao": "EJA"}]}, {"destination": {"icao": "KRBD", "iata": "RBD", "name": "Dallas Executive", "shortName": "Executive", "municipalityName": "Dallas", "location": {"lat": 32.6809, "lon": -96.8682}, "countryCode": "US"}, "averageDailyFlights": 0.43, "operators": [{"name": "CYC"}, {"name": "JRE"}]}, {"destination": {"icao": "KAPA", "iata": "APA", "name": "Denver Centennial", "shortName": "Centennial", "municipalityName": "Denver", "location": {"lat": 39.5701, "lon": -104.849}, "countryCode": "US"}, "averageDailyFlights": 0.43, "operators": [{"name": "LXJ"}, {"name": "NetJets Aviation", "iata": "1I", "icao": "EJA"}, {"name": "PRE"}]}, {"destination": {"icao": "KDSM", "iata": "DSM", "name": "Des Moines ", "shortName": "Des Moines", "municipalityName": "Des Moines", "location": {"lat": 41.534, "lon": -93.6631}, "countryCode": "US"}, "averageDailyFlights": 0.43, "operators": [{"name": "Allegiant Air", "iata": "G4", "icao": "AAY"}]}, {"destination": {"icao": "PHNL", "iata": "HNL", "name": "Honolulu ", "shortName": "Honolulu", "municipalityName": "Honolulu", "location": {"lat": 21.3187, "lon": -157.922}, "countryCode": "US"}, "averageDailyFlights": 0.43, "operators": [{"name": "Hawaiian Airlines", "iata": "HA", "icao": "HAL"}]}, {"destination": {"icao": "KSGR", "iata": "SGR", "name": "Houston Sugar Land Regional", "shortName": "Sugar Land Regional", "municipalityName": "Houston", "location": {"lat": 29.6223, "lon": -95.6565}, "countryCode": "US"}, "averageDailyFlights": 0.43, "operators": [{"name": "HKR"}, {"name": "CWG"}]}, {"destination": {"icao": "KLFT", "iata": "LFT", "name": "Lafayette Regional", "shortName": "Regional", "municipalityName": "Lafayette", "location": {"lat": 30.2053, "lon": -91.9876}, "countryCode": "US"}, "averageDailyFlights": 0.43, "operators": [{"name": "NetJets Aviation", "iata": "1I", "icao": "EJA"}, {"name": "LXJ"}, {"name": "JTZ"}]}, {"destination": {"icao": "KOMA", "iata": "OMA", "name": "Omaha Eppley Airfield", "shortName": "Eppley Airfield", "municipalityName": "Omaha", "location": {"lat": 41.3032, "lon": -95.8941}, "countryCode": "US"}, "averageDailyFlights": 0.43, "operators": [{"name": "Allegiant Air", "iata": "G4", "icao": "AAY"}]}, {"destination": {"icao": "KSTS", "iata": "STS", "name": "Santa Rosa Charles M. Schulz Sonoma County", "shortName": "Charles M. Schulz Sonoma County", "municipalityName": "Santa Rosa", "location": {"lat": 38.509, "lon": -122.813}, "countryCode": "US"}, "averageDailyFlights": 0.43, "operators": [{"name": "TWY"}]}, {"destination": {"icao": "KTCL", "iata": "TCL", "name": "Tuscaloosa Regional", "shortName": "Regional", "municipalityName": "Tuscaloosa", "location": {"lat": 33.2206, "lon": -87.6114}, "countryCode": "US"}, "averageDailyFlights": 0.43, "operators": [{"name": "NetJets Aviation", "iata": "1I", "icao": "EJA"}, {"name": "Jet Linx Aviation", "iata": "JL", "icao": "JTL"}]}, {"destination": {"icao": "KVCT", "iata": "VCT", "name": "Victoria Regional", "shortName": "Regional", "municipalityName": "Victoria", "location": {"lat": 28.8526, "lon": -96.9185}, "countryCode": "US"}, "averageDailyFlights": 0.43, "operators": [{"name": "CXK"}]}, {"destination": {"icao": "KHPN", "iata": "HPN", "name": "White Plains Westchester County", "shortName": "Westchester County", "municipalityName": "White Plains", "location": {"lat": 41.067, "lon": -73.7076}, "countryCode": "US"}, "averageDailyFlights": 0.43, "operators": [{"name": "NetJets Aviation", "iata": "1I", "icao": "EJA"}]}, {"destination": {"name": "Provo"}, "averageDailyFlights": 0.43, "operators": [{"name": "Allegiant Air", "iata": "G4", "icao": "AAY"}]}, {"destination": {"icao": "KAVL", "iata": "AVL", "name": "Asheville Regional", "shortName": "Regional", "municipalityName": "Asheville", "location": {"lat": 35.4362, "lon": -82.5418}, "countryCode": "US"}, "averageDailyFlights": 0.29, "operators": [{"name": "Allegiant Air", "iata": "G4", "icao": "AAY"}]}, {"destination": {"icao": "KAHN", "iata": "AHN", "name": "Athens Ben Epps", "shortName": "Ben Epps", "municipalityName": "Athens", "location": {"lat": 33.9486, "lon": -83.3263}, "countryCode": "US"}, "averageDailyFlights": 0.29, "operators": [{"name": "TWY"}]}, {"destination": {"icao": "KBHM", "iata": "BHM", "name": "Birmingham -Shuttlesworth", "shortName": "-Shuttlesworth", "municipalityName": "Birmingham", "location": {"lat": 33.5629, "lon": -86.7535}, "countryCode": "US"}, "averageDailyFlights": 0.29, "operators": [{"name": "NetJets Aviation", "iata": "1I", "icao": "EJA"}, {"name": "STV"}]}, {"destination": {"icao": "KBZN", "iata": "BZN", "name": "Bozeman Gallatin Field", "shortName": "Gallatin Field", "municipalityName": "Bozeman", "location": {"lat": 45.7775, "lon": -111.153}, "countryCode": "US"}, "averageDailyFlights": 0.29, "operators": [{"name": "NetJets Aviation", "iata": "1I", "icao": "EJA"}, {"name": "KOW"}]}, {"destination": {"icao": "KADS", "iata": "ADS", "name": "Dallas Addison", "shortName": "Addison", "municipalityName": "Dallas", "location": {"lat": 32.9686, "lon": -96.8364}, "countryCode": "US"}, "averageDailyFlights": 0.29, "operators": [{"name": "DRL"}, {"name": "Kabo Air", "iata": "N9", "icao": "QNK"}]}, {"destination": {"icao": "KFXE", "iata": "FXE", "name": "Fort Lauderdale Executive", "shortName": "Executive", "municipalityName": "Fort Lauderdale", "location": {"lat": 26.197298, "lon": -80.1707}, "countryCode": "US"}, "averageDailyFlights": 0.29, "operators": [{"name": "Libyan Airlines", "iata": "LN", "icao": "LAA"}]}, {"destination": {"icao": "KGRR", "iata": "GRR", "name": "Grand Rapids Gerald R. Ford", "shortName": "Gerald R. Ford", "municipalityName": "Grand Rapids", "location": {"lat": 42.8808, "lon": -85.5228}, "countryCode": "US"}, "averageDailyFlights": 0.29, "operators": [{"name": "Allegiant Air", "iata": "G4", "icao": "AAY"}]}, {"destination": {"icao": "KPIB", "iata": "PIB", "name": "Hattiesburg/Laurel Hattiesburg Laurel Regional", "shortName": "Hattiesburg Laurel Regional", "municipalityName": "Hattiesburg/Laurel", "location": {"lat": 31.4671, "lon": -89.3371}, "countryCode": "US"}, "averageDailyFlights": 0.29, "operators": [{"name": "PWR"}]}, {"destination": {"icao": "KHDN", "iata": "HDN", "name": "Hayden Yampa Valley", "shortName": "Yampa Valley", "municipalityName": "Hayden", "location": {"lat": 40.4812, "lon": -107.218}, "countryCode": "US"}, "averageDailyFlights": 0.29, "operators": [{"name": "Jet Linx Aviation", "iata": "JL", "icao": "JTL"}, {"name": "Nolinor", "iata": "N5", "icao": "NRL"}]}, {"destination": {"icao": "KHOT", "iata": "HOT", "name": "Hot Springs Memorial Field", "shortName": "Memorial Field", "municipalityName": "Hot Springs", "location": {"lat": 34.478, "lon": -93.0962}, "countryCode": "US"}, "averageDailyFlights": 0.29, "operators": [{"name": "VJA"}]}, {"destination": {"icao": "KDWH", "iata": "DWH", "name": "Houston David Wayne Hooks Memorial", "shortName": "David Wayne Hooks Memorial", "municipalityName": "Houston", "location": {"lat": 30.0618, "lon": -95.5528}, "countryCode": "US"}, "averageDailyFlights": 0.29, "operators": [{"name": "EJM"}, {"name": "TMB"}]}, {"destination": {"icao": "MMLP", "iata": "LAP", "name": "La Paz Manuel M\u00e1rquez de Le\u00f3n", "shortName": "Manuel M\u00e1rquez de Le\u00f3n", "municipalityName": "La Paz", "location": {"lat": 24.0727, "lon": -110.362}, "countryCode": "MX"}, "averageDailyFlights": 0.29, "operators": [{"name": "JAS"}, {"name": "Nordwind Airlines", "iata": "N4", "icao": "NWS"}]}, {"destination": {"icao": "KLCH", "iata": "LCH", "name": "Lake Charles Regional", "shortName": "Regional", "municipalityName": "Lake Charles", "location": {"lat": 30.1261, "lon": -93.2233}, "countryCode": "US"}, "averageDailyFlights": 0.29, "operators": [{"name": "N3JG"}]}, {"destination": {"icao": "KHND", "iata": "HSH", "name": "Las Vegas Henderson Executive", "shortName": "Henderson Executive", "municipalityName": "Las Vegas", "location": {"lat": 35.9728, "lon": -115.134}, "countryCode": "US"}, "averageDailyFlights": 0.29, "operators": [{"name": "DCM"}]}, {"destination": {"icao": "KLWC", "iata": "LWC", "name": "Lawrence Municipal", "shortName": "Municipal", "municipalityName": "Lawrence", "location": {"lat": 39.0112, "lon": -95.2166}, "countryCode": "US"}, "averageDailyFlights": 0.29, "operators": [{"name": "NetJets Aviation", "iata": "1I", "icao": "EJA"}, {"name": "DCM"}]}, {"destination": {"icao": "KLIT", "iata": "LIT", "name": "Little Rock Adams Field", "shortName": "Adams Field", "municipalityName": "Little Rock", "location": {"lat": 34.7294, "lon": -92.2243}, "countryCode": "US"}, "averageDailyFlights": 0.29, "operators": [{"name": "NetJets Aviation", "iata": "1I", "icao": "EJA"}, {"name": "FTH"}]}, {"destination": {"icao": "EGGW", "iata": "LTN", "name": "London Luton", "shortName": "Luton", "municipalityName": "London", "location": {"lat": 51.8747, "lon": -0.368333}, "countryCode": "GB"}, "averageDailyFlights": 0.29, "operators": [{"name": "CWG"}]}, {"destination": {"icao": "MDPC", "iata": "PUJ", "name": "Punta Cana ", "shortName": "Punta Cana", "municipalityName": "Punta Cana", "location": {"lat": 18.567398, "lon": -68.3634}, "countryCode": "DO"}, "averageDailyFlights": 0.29, "operators": [{"name": "MTS"}, {"name": "American Airlines", "iata": "AA", "icao": "AAL"}]}, {"destination": {"icao": "MMCZ", "iata": "CZM", "name": "San Miguel de Cozumel Cozumel", "shortName": "Cozumel", "municipalityName": "San Miguel de Cozumel", "location": {"lat": 20.5224, "lon": -86.9256}, "countryCode": "MX"}, "averageDailyFlights": 0.29, "operators": [{"name": "American Airlines", "iata": "AA", "icao": "AAL"}, {"name": "Envoy Air", "iata": "MQ", "icao": "ENY"}]}, {"destination": {"icao": "KSAF", "iata": "SAF", "name": "Santa Fe Municipal", "shortName": "Municipal", "municipalityName": "Santa Fe", "location": {"lat": 35.6171, "lon": -106.089}, "countryCode": "US"}, "averageDailyFlights": 0.29, "operators": [{"name": "TMB"}]}, {"destination": {"icao": "KPIE", "iata": "PIE", "name": "St Petersburg-Clearwater St Petersburg Clearwater", "shortName": "St Petersburg Clearwater", "municipalityName": "St Petersburg-Clearwater", "location": {"lat": 27.9102, "lon": -82.6874}, "countryCode": "US"}, "averageDailyFlights": 0.29, "operators": [{"name": "HER"}, {"name": "NetJets Aviation", "iata": "1I", "icao": "EJA"}]}, {"destination": {"icao": "KPBI", "iata": "PBI", "name": "West Palm Beach Palm Beach", "shortName": "Palm Beach", "municipalityName": "West Palm Beach", "location": {"lat": 26.6832, "lon": -80.0956}, "countryCode": "US"}, "averageDailyFlights": 0.29, "operators": [{"name": "NetJets Aviation", "iata": "1I", "icao": "EJA"}, {"name": "LXJ"}]}, {"destination": {"icao": "KICT", "iata": "ICT", "name": "Wichita Mid Continent", "shortName": "Mid Continent", "municipalityName": "Wichita", "location": {"lat": 37.6499, "lon": -97.4331}, "countryCode": "US"}, "averageDailyFlights": 0.29, "operators": [{"name": "CYC"}]}, {"destination": {"icao": "KABI", "iata": "ABI", "name": "Abilene Regional", "shortName": "Regional", "municipalityName": "Abilene", "location": {"lat": 32.4113, "lon": -99.6819}, "countryCode": "US"}, "averageDailyFlights": 0.14, "operators": [{"name": "Nordwind Airlines", "iata": "N4", "icao": "NWS"}]}, {"destination": {"icao": "KABY", "iata": "ABY", "name": "Albany Southwest Georgia Regional", "shortName": "Southwest Georgia Regional", "municipalityName": "Albany", "location": {"lat": 31.5355, "lon": -84.1945}, "countryCode": "US"}, "averageDailyFlights": 0.14, "operators": [{"name": "EJM"}]}, {"destination": {"icao": "KALX", "iata": "ALX", "name": "Alexander City Thomas C Russell Field", "shortName": "Thomas C Russell Field", "municipalityName": "Alexander City", "location": {"lat": 32.9147, "lon": -85.963}, "countryCode": "US"}, "averageDailyFlights": 0.14, "operators": [{"name": "XSR"}]}, {"destination": {"icao": "KTDW", "iata": "TDW", "name": "Amarillo Tradewind", "shortName": "Tradewind", "municipalityName": "Amarillo", "location": {"lat": 35.1699, "lon": -101.826}, "countryCode": "US"}, "averageDailyFlights": 0.14, "operators": [{"name": "Nolinor", "iata": "N5", "icao": "NRL"}]}, {"destination": {"icao": "KASE", "iata": "ASE", "name": "Aspen Sardy Field", "shortName": "Sardy Field", "municipalityName": "Aspen", "location": {"lat": 39.2232, "lon": -106.869}, "countryCode": "US"}, "averageDailyFlights": 0.14, "operators": [{"name": "NetJets Aviation", "iata": "1I", "icao": "EJA"}]}, {"destination": {"icao": "KAUO", "iata": "AUO", "name": "Auburn Opelika Robert G. Pitts", "shortName": "Opelika Robert G. Pitts", "municipalityName": "Auburn", "location": {"lat": 32.6151, "lon": -85.434}, "countryCode": "US"}, "averageDailyFlights": 0.14, "operators": [{"name": "Jet Linx Aviation", "iata": "JL", "icao": "JTL"}]}, {"destination": {"icao": "KAGS", "iata": "AGS", "name": "Augusta Regional At Bush Field", "shortName": "Regional At Bush Field", "municipalityName": "Augusta", "location": {"lat": 33.3699, "lon": -81.9645}, "countryCode": "US"}, "averageDailyFlights": 0.14, "operators": [{"name": "Nordwind Airlines", "iata": "N4", "icao": "NWS"}]}, {"destination": {"icao": "KBTR", "iata": "BTR", "name": "Baton Rouge Ryan Field", "shortName": "Ryan Field", "municipalityName": "Baton Rouge", "location": {"lat": 30.5332, "lon": -91.1496}, "countryCode": "US"}, "averageDailyFlights": 0.14, "operators": [{"name": "N1D"}]}, {"destination": {"icao": "KBED", "iata": "BED", "name": "Bedford Laurence G Hanscom Field", "shortName": "Laurence G Hanscom Field", "municipalityName": "Bedford", "location": {"lat": 42.47, "lon": -71.289}, "countryCode": "US"}, "averageDailyFlights": 0.14, "operators": [{"name": "NetJets Aviation", "iata": "1I", "icao": "EJA"}]}, {"destination": {"icao": "KCHA", "iata": "CHA", "name": "Chattanooga Lovell Field", "shortName": "Lovell Field", "municipalityName": "Chattanooga", "location": {"lat": 35.0353, "lon": -85.2038}, "countryCode": "US"}, "averageDailyFlights": 0.14, "operators": [{"name": "EDG"}]}, {"destination": {"icao": "KCDS", "iata": "CDS", "name": "Childress Municipal", "shortName": "Municipal", "municipalityName": "Childress", "location": {"lat": 34.4338, "lon": -100.288}, "countryCode": "US"}, "averageDailyFlights": 0.14, "operators": [{"name": "NetJets Aviation", "iata": "1I", "icao": "EJA"}]}, {"destination": {"icao": "KLUK", "iata": "LUK", "name": "Cincinnati Municipal  Lunken Field", "shortName": "Municipal  Lunken Field", "municipalityName": "Cincinnati", "location": {"lat": 39.1033, "lon": -84.4186}, "countryCode": "US"}, "averageDailyFlights": 0.14, "operators": [{"name": "EJM"}]}, {"destination": {"icao": "KCLE", "iata": "CLE", "name": "Cleveland Hopkins", "shortName": "Hopkins", "municipalityName": "Cleveland", "location": {"lat": 41.4117, "lon": -81.8498}, "countryCode": "US"}, "averageDailyFlights": 0.14, "operators": [{"name": "NetJets Aviation", "iata": "1I", "icao": "EJA"}]}, {"destination": {"icao": "KDAY", "iata": "DAY", "name": "Dayton James M Cox", "shortName": "James M Cox", "municipalityName": "Dayton", "location": {"lat": 39.9024, "lon": -84.2194}, "countryCode": "US"}, "averageDailyFlights": 0.14, "operators": [{"name": "NetJets Aviation", "iata": "1I", "icao": "EJA"}]}, {"destination": {"icao": "KBJC", "iata": "BJC", "name": "Denver Rocky Mountain Metropolitan", "shortName": "Rocky Mountain Metropolitan", "municipalityName": "Denver", "location": {"lat": 39.9088, "lon": -105.117}, "countryCode": "US"}, "averageDailyFlights": 0.14, "operators": [{"name": "FTH"}]}, {"destination": {"icao": "KRSW", "iata": "RSW", "name": "Fort Myers Southwest Florida", "shortName": "Southwest Florida", "municipalityName": "Fort Myers", "location": {"lat": 26.5362, "lon": -81.7552}, "countryCode": "US"}, "averageDailyFlights": 0.14, "operators": [{"name": "LXJ"}]}, {"destination": {"icao": "KBDL", "iata": "BDL", "name": "Hartford Bradley", "shortName": "Bradley", "municipalityName": "Hartford", "location": {"lat": 41.9389, "lon": -72.6832}, "countryCode": "US"}, "averageDailyFlights": 0.14, "operators": [{"name": "iAero Airways", "iata": "WQ", "icao": "SWQ"}]}, {"destination": {"icao": "MMHO", "iata": "HMO", "name": "Hermosillo General Ignacio P. Garcia", "shortName": "General Ignacio P. Garcia", "municipalityName": "Hermosillo", "location": {"lat": 29.0959, "lon": -111.048}, "countryCode": "MX"}, "averageDailyFlights": 0.14, "operators": [{"name": "CBC"}]}, {"destination": {"icao": "KCXO", "iata": "CXO", "name": "Houston Lone Star Executive", "shortName": "Lone Star Executive", "municipalityName": "Houston", "location": {"lat": 30.3518, "lon": -95.4145}, "countryCode": "US"}, "averageDailyFlights": 0.14, "operators": [{"name": "My Jet Xpress Airlines", "iata": "N7", "icao": "NEP"}]}, {"destination": {"icao": "KEFD", "iata": "EFD", "name": "Houston Ellington", "shortName": "Ellington", "municipalityName": "Houston", "location": {"lat": 29.6073, "lon": -95.1588}, "countryCode": "US"}, "averageDailyFlights": 0.14, "operators": [{"name": "CXK"}]}, {"destination": {"icao": "MMZH", "iata": "ZIH", "name": "Ixtapa Zihuatanejo", "shortName": "Zihuatanejo", "municipalityName": "Ixtapa", "location": {"lat": 17.6016, "lon": -101.461}, "countryCode": "MX"}, "averageDailyFlights": 0.14, "operators": [{"name": "JRE"}]}, {"destination": {"icao": "KILE", "iata": "ILE", "name": "Killeen Skylark Field", "shortName": "Skylark Field", "municipalityName": "Killeen", "location": {"lat": 31.0858, "lon": -97.6865}, "countryCode": "US"}, "averageDailyFlights": 0.14, "operators": [{"name": "FFL"}]}, {"destination": {"icao": "KLRU", "iata": "LRU", "name": "Las Cruces ", "shortName": "Las Cruces", "municipalityName": "Las Cruces", "location": {"lat": 32.2894, "lon": -106.922}, "countryCode": "US"}, "averageDailyFlights": 0.14, "operators": [{"name": "CBC"}]}, {"destination": {"icao": "KLEB", "iata": "LEB", "name": "Lebanon Municipal", "shortName": "Municipal", "municipalityName": "Lebanon", "location": {"lat": 43.6261, "lon": -72.3042}, "countryCode": "US"}, "averageDailyFlights": 0.14, "operators": [{"name": "NetJets Aviation", "iata": "1I", "icao": "EJA"}]}, {"destination": {"icao": "MYAM", "iata": "MHH", "name": "Marsh Harbour ", "shortName": "Marsh Harbour", "municipalityName": "Marsh Harbour", "location": {"lat": 26.5114, "lon": -77.0835}, "countryCode": "BS"}, "averageDailyFlights": 0.14, "operators": [{"name": "Jet Linx Aviation", "iata": "JL", "icao": "JTL"}]}, {"destination": {"icao": "KMDD", "iata": "MDD", "name": "Midland Airpark", "shortName": "Airpark", "municipalityName": "Midland", "location": {"lat": 32.0365, "lon": -102.101}, "countryCode": "US"}, "averageDailyFlights": 0.14, "operators": [{"name": "Nolinor", "iata": "N5", "icao": "NRL"}]}, {"destination": {"icao": "KMKE", "iata": "MKE", "name": "Milwaukee General Mitchell", "shortName": "General Mitchell", "municipalityName": "Milwaukee", "location": {"lat": 42.9472, "lon": -87.8966}, "countryCode": "US"}, "averageDailyFlights": 0.14, "operators": [{"name": "HWA"}]}, {"destination": {"icao": "KECP", "iata": "ECP", "name": "Panama City Beach Northwest Florida Beaches", "shortName": "Northwest Florida Beaches", "municipalityName": "Panama City Beach", "location": {"lat": 30.3417, "lon": -85.7973}, "countryCode": "US"}, "averageDailyFlights": 0.14, "operators": [{"name": "JTZ"}]}, {"destination": {"icao": "KIWA", "iata": "AZA", "name": "Phoenix -Mesa-Gateway", "shortName": "-Mesa-Gateway", "municipalityName": "Phoenix", "location": {"lat": 33.3078, "lon": -111.655}, "countryCode": "US"}, "averageDailyFlights": 0.14, "operators": [{"name": "FTH"}]}, {"destination": {"icao": "KRTN", "iata": "RTN", "name": "Raton Municipal-Crews Field", "shortName": "Municipal-Crews Field", "municipalityName": "Raton", "location": {"lat": 36.7415, "lon": -104.502}, "countryCode": "US"}, "averageDailyFlights": 0.14, "operators": [{"name": "PRE"}]}, {"destination": {"icao": "KROG", "iata": "ROG", "name": "Rogers Municipal -Carter Field", "shortName": "Municipal -Carter Field", "municipalityName": "Rogers", "location": {"lat": 36.3723, "lon": -94.1069}, "countryCode": "US"}, "averageDailyFlights": 0.14, "operators": [{"name": "FTH"}]}, {"destination": {"icao": "KSUS", "iata": "SUS", "name": "Saint Louis Spirit of St Louis", "shortName": "Spirit of St Louis", "municipalityName": "Saint Louis", "location": {"lat": 38.6621, "lon": -90.652}, "countryCode": "US"}, "averageDailyFlights": 0.14, "operators": [{"name": "NetJets Aviation", "iata": "1I", "icao": "EJA"}]}, {"destination": {"icao": "KBFF", "iata": "BFF", "name": "Scottsbluff William B. Heilig", "shortName": "William B. Heilig", "municipalityName": "Scottsbluff", "location": {"lat": 41.874, "lon": -103.596}, "countryCode": "US"}, "averageDailyFlights": 0.14, "operators": [{"name": "NetJets Aviation", "iata": "1I", "icao": "EJA"}]}, {"destination": {"icao": "KSTC", "iata": "STC", "name": "St Cloud Regional", "shortName": "Regional", "municipalityName": "St Cloud", "location": {"lat": 45.5466, "lon": -94.0599}, "countryCode": "US"}, "averageDailyFlights": 0.14, "operators": [{"name": "PWR"}]}, {"destination": {"icao": "KTOL", "iata": "TOL", "name": "Toledo Express", "shortName": "Express", "municipalityName": "Toledo", "location": {"lat": 41.5868, "lon": -83.8078}, "countryCode": "US"}, "averageDailyFlights": 0.14, "operators": [{"name": "SIS"}]}, {"destination": {"icao": "MMTO", "iata": "TLC", "name": "Toluca Licenciado Adolfo Lopez Mateos", "shortName": "Licenciado Adolfo Lopez Mateos", "municipalityName": "Toluca", "location": {"lat": 19.3371, "lon": -99.566}, "countryCode": "MX"}, "averageDailyFlights": 0.14, "operators": [{"name": "LET"}]}, {"destination": {"icao": "KTUS", "iata": "TUS", "name": "Tucson ", "shortName": "Tucson", "municipalityName": "Tucson", "location": {"lat": 32.1161, "lon": -110.941}, "countryCode": "US"}, "averageDailyFlights": 0.14, "operators": [{"name": "FTH"}]}, {"destination": {"icao": "KTYR", "iata": "TYR", "name": "Tyler Pounds Regional", "shortName": "Pounds Regional", "municipalityName": "Tyler", "location": {"lat": 32.3541, "lon": -95.4024}, "countryCode": "US"}, "averageDailyFlights": 0.14, "operators": [{"name": "CYO"}]}, {"destination": {"icao": "KCNW", "iata": "CNW", "name": "Waco TSTC", "shortName": "TSTC", "municipalityName": "Waco", "location": {"lat": 31.6378, "lon": -97.0741}, "countryCode": "US"}, "averageDailyFlights": 0.14, "operators": [{"name": "RSP"}]}, {"destination": {"icao": "KACT", "iata": "ACT", "name": "Waco Regional", "shortName": "Regional", "municipalityName": "Waco", "location": {"lat": 31.6113, "lon": -97.2305}, "countryCode": "US"}, "averageDailyFlights": 0.14, "operators": [{"name": "FLC"}]}, {"destination": {"icao": "CYWG", "iata": "YWG", "name": "Winnipeg James Armstrong Richardson", "shortName": "James Armstrong Richardson", "municipalityName": "Winnipeg", "location": {"lat": 49.91, "lon": -97.2399}, "countryCode": "CA"}, "averageDailyFlights": 0.14, "operators": [{"name": "PBR"}]}]}