{"routes": [{"destination": {"icao": "KDFW", "iata": "DFW", "name": "Dallas-Fort Worth ", "shortName": "Dallas-Fort Worth", "municipalityName": "Dallas-Fort Worth", "location": {"lat": 32.8968, "lon": -97.038}, "countryCode": "US"}, "averageDailyFlights": 1.86, "operators": [{"name": "Southern Airways Express", "iata": "9X", "icao": "FDY"}]}, {"destination": {"icao": "KJAC", "iata": "JAC", "name": "Jackson Hole", "shortName": "Hole", "municipalityName": "Jackson", "location": {"lat": 43.6073, "lon": -110.738}, "countryCode": "US"}, "averageDailyFlights": 0.43, "operators": [{"name": "VJA"}]}, {"destination": {"icao": "KMEM", "iata": "MEM", "name": "Memphis ", "shortName": "Memphis", "municipalityName": "Memphis", "location": {"lat": 35.0424, "lon": -89.9767}, "countryCode": "US"}, "averageDailyFlights": 0.43, "operators": [{"name": "Southern Airways Express", "iata": "9X", "icao": "FDY"}]}, {"destination": {"icao": "KELD", "iata": "ELD", "name": "El Dorado South Arkansas Regional At Goodwin Field", "shortName": "South Arkansas Regional At Goodwin Field", "municipalityName": "El Dorado", "location": {"lat": 33.221, "lon": -92.8133}, "countryCode": "US"}, "averageDailyFlights": 0.29, "operators": [{"name": "Southern Airways Express", "iata": "9X", "icao": "FDY"}]}, {"destination": {"icao": "KRVS", "iata": "RVS", "name": "Tulsa Richard Lloyd Jones Jr", "shortName": "Richard Lloyd Jones Jr", "municipalityName": "Tulsa", "location": {"lat": 36.0396, "lon": -95.9846}, "countryCode": "US"}, "averageDailyFlights": 0.29, "operators": [{"name": "SCU"}]}, {"destination": {"icao": "KTUL", "iata": "TUL", "name": "Tulsa ", "shortName": "Tulsa", "municipalityName": "Tulsa", "location": {"lat": 36.1984, "lon": -95.8881}, "countryCode": "US"}, "averageDailyFlights": 0.14, "operators": [{"name": "NetJets Aviation", "iata": "1I", "icao": "EJA"}]}, {"destination": {"icao": "KHPN", "iata": "HPN", "name": "White Plains Westchester County", "shortName": "Westchester County", "municipalityName": "White Plains", "location": {"lat": 41.067, "lon": -73.7076}, "countryCode": "US"}, "averageDailyFlights": 0.14, "operators": [{"name": "NetJets Aviation", "iata": "1I", "icao": "EJA"}]}]}