{"routes": [{"destination": {"icao": "KFAR", "iata": "FAR", "name": "Fargo Hector", "shortName": "Hector", "municipalityName": "Fargo", "location": {"lat": 46.9207, "lon": -96.8158}, "countryCode": "US"}, "averageDailyFlights": 1.57, "operators": [{"name": "Bemidji Aviation", "iata": "CH", "icao": "BMJ"}, {"name": "NDU"}]}, {"destination": {"icao": "KDEN", "iata": "DEN", "name": "Denver ", "shortName": "Denver", "municipalityName": "Denver", "location": {"lat": 39.8617, "lon": -104.673}, "countryCode": "US"}, "averageDailyFlights": 1.5, "operators": [{"name": "SkyWest Airlines", "iata": "OO", "icao": "SKW"}, {"name": "United Airlines", "iata": "UA", "icao": "UAL"}]}, {"destination": {"icao": "KDVL", "iata": "DVL", "name": "Devils Lake Regional", "shortName": "Regional", "municipalityName": "Devils Lake", "location": {"lat": 48.1142, "lon": -98.9088}, "countryCode": "US"}, "averageDailyFlights": 1.14, "operators": [{"name": "SkyWest Airlines", "iata": "OO", "icao": "SKW"}]}, {"destination": {"icao": "KGFK", "iata": "GFK", "name": "Grand Forks ", "shortName": "Grand Forks", "municipalityName": "Grand Forks", "location": {"lat": 47.9493, "lon": -97.1761}, "countryCode": "US"}, "averageDailyFlights": 0.57, "operators": [{"name": "NDU"}]}, {"destination": {"icao": "KDTL", "iata": "DTL", "name": "Detroit Lakes - Wething Field", "shortName": "- Wething Field", "municipalityName": "Detroit Lakes", "location": {"lat": 46.8252, "lon": -95.8857}, "countryCode": "US"}, "averageDailyFlights": 0.43, "operators": [{"name": "NDU"}]}, {"destination": {"icao": "KBIS", "iata": "BIS", "name": "Bismarck Municipal", "shortName": "Municipal", "municipalityName": "Bismarck", "location": {"lat": 46.7727, "lon": -100.746}, "countryCode": "US"}, "averageDailyFlights": 0.14, "operators": [{"name": "NDU"}]}]}