{"routes": [{"destination": {"icao": "KBOS", "iata": "BOS", "name": "Boston General Edward Lawrence Logan", "shortName": "General Edward Lawrence Logan", "municipalityName": "Boston", "location": {"lat": 42.3643, "lon": -71.0052}, "countryCode": "US"}, "averageDailyFlights": 3.57, "operators": [{"name": "Cape Air", "iata": "9K", "icao": "KAP"}]}, {"destination": {"icao": "KHPN", "iata": "HPN", "name": "White Plains Westchester County", "shortName": "Westchester County", "municipalityName": "White Plains", "location": {"lat": 41.067, "lon": -73.7076}, "countryCode": "US"}, "averageDailyFlights": 1.86, "operators": [{"name": "Cape Air", "iata": "9K", "icao": "KAP"}]}, {"destination": {"icao": "KTEB", "iata": "TEB", "name": "Teterboro ", "shortName": "Teterboro", "municipalityName": "Teterboro", "location": {"lat": 40.8501, "lon": -74.0608}, "countryCode": "US"}, "averageDailyFlights": 0.43, "operators": [{"name": "NetJets Aviation", "iata": "1I", "icao": "EJA"}, {"name": "DPJ"}, {"name": "CYC"}]}, {"destination": {"icao": "KIWA", "iata": "AZA", "name": "Phoenix -Mesa-Gateway", "shortName": "-Mesa-Gateway", "municipalityName": "Phoenix", "location": {"lat": 33.3078, "lon": -111.655}, "countryCode": "US"}, "averageDailyFlights": 0.29, "operators": [{"name": "JRE"}]}, {"destination": {"icao": "KABE", "iata": "ABE", "name": "Allentown Lehigh Valley", "shortName": "Lehigh Valley", "municipalityName": "Allentown", "location": {"lat": 40.6521, "lon": -75.4408}, "countryCode": "US"}, "averageDailyFlights": 0.14, "operators": [{"name": "RLI"}]}, {"destination": {"icao": "KBHB", "iata": "BHB", "name": "Bar Harbor Hancock County-", "shortName": "Hancock County-", "municipalityName": "Bar Harbor", "location": {"lat": 44.45, "lon": -68.3615}, "countryCode": "US"}, "averageDailyFlights": 0.14, "operators": [{"name": "CNS"}]}, {"destination": {"icao": "KBTV", "iata": "BTV", "name": "Burlington ", "shortName": "Burlington", "municipalityName": "Burlington", "location": {"lat": 44.4719, "lon": -73.1533}, "countryCode": "US"}, "averageDailyFlights": 0.14, "operators": [{"name": "VJA"}]}, {"destination": {"icao": "KCDS", "iata": "CDS", "name": "Childress Municipal", "shortName": "Municipal", "municipalityName": "Childress", "location": {"lat": 34.4338, "lon": -100.288}, "countryCode": "US"}, "averageDailyFlights": 0.14, "operators": [{"name": "NetJets Aviation", "iata": "1I", "icao": "EJA"}]}, {"destination": {"icao": "KDXR", "iata": "DXR", "name": "Danbury Municipal", "shortName": "Municipal", "municipalityName": "Danbury", "location": {"lat": 41.3715, "lon": -73.4822}, "countryCode": "US"}, "averageDailyFlights": 0.14, "operators": [{"name": "RLI"}]}, {"destination": {"icao": "KHFD", "iata": "HFD", "name": "Hartford Brainard", "shortName": "Brainard", "municipalityName": "Hartford", "location": {"lat": 41.7367, "lon": -72.6494}, "countryCode": "US"}, "averageDailyFlights": 0.14, "operators": [{"name": "CXK"}]}, {"destination": {"icao": "KHYA", "iata": "HYA", "name": "Hyannis Barnstable Municipal Boardman Polando Field", "shortName": "Barnstable Municipal Boardman Polando Field", "municipalityName": "Hyannis", "location": {"lat": 41.6693, "lon": -70.2804}, "countryCode": "US"}, "averageDailyFlights": 0.14, "operators": [{"name": "Cape Air", "iata": "9K", "icao": "KAP"}]}, {"destination": {"icao": "KPSM", "iata": "PSM", "name": "Portsmouth at Pease", "shortName": "at Pease", "municipalityName": "Portsmouth", "location": {"lat": 43.0779, "lon": -70.8233}, "countryCode": "US"}, "averageDailyFlights": 0.14, "operators": [{"name": "NetJets Aviation", "iata": "1I", "icao": "EJA"}]}, {"destination": {"icao": "KRUT", "iata": "RUT", "name": "Rutland - Southern Vermont Regional", "shortName": "- Southern Vermont Regional", "municipalityName": "Rutland", "location": {"lat": 43.5294, "lon": -72.9496}, "countryCode": "US"}, "averageDailyFlights": 0.14, "operators": [{"name": "Cape Air", "iata": "9K", "icao": "KAP"}]}]}