{"routes": [{"destination": {"icao": "KDFW", "iata": "DFW", "name": "Dallas-Fort Worth ", "shortName": "Dallas-Fort Worth", "municipalityName": "Dallas-Fort Worth", "location": {"lat": 32.8968, "lon": -97.038}, "countryCode": "US"}, "averageDailyFlights": 9.14, "operators": [{"name": "Envoy Air", "iata": "MQ", "icao": "ENY"}, {"name": "American Airlines", "iata": "AA", "icao": "AAL"}]}, {"destination": {"icao": "KATL", "iata": "ATL", "name": "Atlanta Hartsfield Jackson", "shortName": "Hartsfield Jackson", "municipalityName": "Atlanta", "location": {"lat": 33.6367, "lon": -84.4281}, "countryCode": "US"}, "averageDailyFlights": 5.86, "operators": [{"name": "Delta Air Lines", "iata": "DL", "icao": "DAL"}, {"name": "Southwest Airlines", "iata": "WN", "icao": "SWA"}]}, {"destination": {"icao": "KDEN", "iata": "DEN", "name": "Denver ", "shortName": "Denver", "municipalityName": "Denver", "location": {"lat": 39.8617, "lon": -104.673}, "countryCode": "US"}, "averageDailyFlights": 5.57, "operators": [{"name": "United Airlines", "iata": "UA", "icao": "UAL"}, {"name": "Delta Air Lines", "iata": "DL", "icao": "DAL"}, {"name": "Southwest Airlines", "iata": "WN", "icao": "SWA"}, {"name": "Frontier Airlines", "iata": "F9", "icao": "FFT"}]}, {"destination": {"icao": "KIAH", "iata": "IAH", "name": "Houston George Bush", "shortName": "George Bush", "municipalityName": "Houston", "location": {"lat": 29.9844, "lon": -95.3414}, "countryCode": "US"}, "averageDailyFlights": 5.43, "operators": [{"name": "United Airlines", "iata": "UA", "icao": "UAL"}]}, {"destination": {"icao": "KORD", "iata": "ORD", "name": "Chicago O'Hare", "shortName": "O'Hare", "municipalityName": "Chicago", "location": {"lat": 41.9786, "lon": -87.9048}, "countryCode": "US"}, "averageDailyFlights": 4.43, "operators": [{"name": "Envoy Air", "iata": "MQ", "icao": "ENY"}, {"name": "United Airlines", "iata": "UA", "icao": "UAL"}, {"name": "Air Wisconsin", "iata": "ZW", "icao": "AWI"}]}, {"destination": {"icao": "KCLT", "iata": "CLT", "name": "Charlotte Douglas", "shortName": "Douglas", "municipalityName": "Charlotte", "location": {"lat": 35.214, "lon": -80.9431}, "countryCode": "US"}, "averageDailyFlights": 4.0, "operators": [{"name": "American Airlines", "iata": "AA", "icao": "AAL"}, {"name": "Envoy Air", "iata": "MQ", "icao": "ENY"}]}, {"destination": {"icao": "KDAL", "iata": "DAL", "name": "Dallas Love Field", "shortName": "Love Field", "municipalityName": "Dallas", "location": {"lat": 32.8471, "lon": -96.8518}, "countryCode": "US"}, "averageDailyFlights": 4.0, "operators": [{"name": "Southwest Airlines", "iata": "WN", "icao": "SWA"}, {"name": "NetJets Aviation", "iata": "1I", "icao": "EJA"}, {"name": "RKK"}]}, {"destination": {"icao": "KSTL", "iata": "STL", "name": "Saint Louis Lambert St Louis", "shortName": "Lambert St Louis", "municipalityName": "Saint Louis", "location": {"lat": 38.7487, "lon": -90.37}, "countryCode": "US"}, "averageDailyFlights": 2.43, "operators": [{"name": "Southwest Airlines", "iata": "WN", "icao": "SWA"}, {"name": "WUP"}, {"name": "Jet Linx Aviation", "iata": "JL", "icao": "JTL"}]}, {"destination": {"icao": "KLGA", "iata": "LGA", "name": "New York La Guardia", "shortName": "La Guardia", "municipalityName": "New York", "location": {"lat": 40.7772, "lon": -73.8726}, "countryCode": "US"}, "averageDailyFlights": 2.0, "operators": [{"name": "Delta Air Lines", "iata": "DL", "icao": "DAL"}, {"name": "American Airlines", "iata": "AA", "icao": "AAL"}]}, {"destination": {"icao": "KLIT", "iata": "LIT", "name": "Little Rock Adams Field", "shortName": "Adams Field", "municipalityName": "Little Rock", "location": {"lat": 34.7294, "lon": -92.2243}, "countryCode": "US"}, "averageDailyFlights": 1.86, "operators": [{"name": "CVF"}, {"name": "CXK"}]}, {"destination": {"icao": "KDCA", "iata": "DCA", "name": "District of Columbia Ronald Reagan Washington National", "shortName": "Ronald Reagan Washington National", "municipalityName": "District of Columbia", "location": {"lat": 38.8521, "lon": -77.0377}, "countryCode": "US"}, "averageDailyFlights": 1.71, "operators": [{"name": "Envoy Air", "iata": "MQ", "icao": "ENY"}, {"name": "American Airlines", "iata": "AA", "icao": "AAL"}]}, {"destination": {"icao": "KLAS", "iata": "LAS", "name": "Las Vegas McCarran", "shortName": "McCarran", "municipalityName": "Las Vegas", "location": {"lat": 36.0801, "lon": -115.152}, "countryCode": "US"}, "averageDailyFlights": 1.14, "operators": [{"name": "Southwest Airlines", "iata": "WN", "icao": "SWA"}]}, {"destination": {"icao": "KDPA", "iata": "DPA", "name": "Chicago/West Chicago Dupage", "shortName": "Dupage", "municipalityName": "Chicago/West Chicago", "location": {"lat": 41.9078, "lon": -88.2486}, "countryCode": "US"}, "averageDailyFlights": 1.02, "operators": [{"name": "NetJets Aviation", "iata": "1I", "icao": "EJA"}, {"name": "American Airlines", "iata": "AA", "icao": "AAL"}]}, {"destination": {"icao": "KHOU", "iata": "HOU", "name": "Houston William P Hobby", "shortName": "William P Hobby", "municipalityName": "Houston", "location": {"lat": 29.6454, "lon": -95.2789}, "countryCode": "US"}, "averageDailyFlights": 1.0, "operators": [{"name": "SCM"}, {"name": "Libyan Airlines", "iata": "LN", "icao": "LAA"}, {"name": "RKK"}, {"name": "JTZ"}, {"name": "CNS"}]}, {"destination": {"icao": "KBNA", "iata": "BNA", "name": "Nashville ", "shortName": "Nashville", "municipalityName": "Nashville", "location": {"lat": 36.1245, "lon": -86.6782}, "countryCode": "US"}, "averageDailyFlights": 0.71, "operators": [{"name": "NetJets Aviation", "iata": "1I", "icao": "EJA"}, {"name": "JRE"}, {"name": "JTZ"}]}, {"destination": {"icao": "KLRD", "iata": "LRD", "name": "Laredo ", "shortName": "Laredo", "municipalityName": "Laredo", "location": {"lat": 27.5438, "lon": -99.4616}, "countryCode": "US"}, "averageDailyFlights": 0.43, "operators": [{"name": "USA Jet Airlines", "iata": "UJ", "icao": "JUS"}, {"name": "Ameriflight", "iata": "A8", "icao": "AMF"}, {"name": "KCR"}]}, {"destination": {"icao": "KSFB", "iata": "SFB", "name": "Orlando Sanford", "shortName": "Sanford", "municipalityName": "Orlando", "location": {"lat": 28.7776, "lon": -81.2375}, "countryCode": "US"}, "averageDailyFlights": 0.43, "operators": [{"name": "Allegiant Air", "iata": "G4", "icao": "AAY"}]}, {"destination": {"icao": "KTEB", "iata": "TEB", "name": "Teterboro ", "shortName": "Teterboro", "municipalityName": "Teterboro", "location": {"lat": 40.8501, "lon": -74.0608}, "countryCode": "US"}, "averageDailyFlights": 0.43, "operators": [{"name": "NetJets Aviation", "iata": "1I", "icao": "EJA"}, {"name": "EJM"}]}, {"destination": {"icao": "KAUS", "iata": "AUS", "name": "Austin Bergstrom", "shortName": "Bergstrom", "municipalityName": "Austin", "location": {"lat": 30.194498, "lon": -97.6699}, "countryCode": "US"}, "averageDailyFlights": 0.29, "operators": [{"name": "CYC"}]}, {"destination": {"icao": "KBHM", "iata": "BHM", "name": "Birmingham -Shuttlesworth", "shortName": "-Shuttlesworth", "municipalityName": "Birmingham", "location": {"lat": 33.5629, "lon": -86.7535}, "countryCode": "US"}, "averageDailyFlights": 0.29, "operators": [{"name": "Libyan Airlines", "iata": "LN", "icao": "LAA"}, {"name": "N1"}]}, {"destination": {"icao": "KYIP", "iata": "YIP", "name": "Detroit Willow Run", "shortName": "Willow Run", "municipalityName": "Detroit", "location": {"lat": 42.2379, "lon": -83.5304}, "countryCode": "US"}, "averageDailyFlights": 0.29, "operators": [{"name": "YEL"}]}, {"destination": {"icao": "KFYV", "iata": "FYV", "name": "Fayetteville Drake Field", "shortName": "Drake Field", "municipalityName": "Fayetteville", "location": {"lat": 36.0051, "lon": -94.1701}, "countryCode": "US"}, "averageDailyFlights": 0.29, "operators": [{"name": "JTZ"}, {"name": "RKK"}]}, {"destination": {"icao": "KAFW", "iata": "AFW", "name": "Fort Worth Alliance", "shortName": "Alliance", "municipalityName": "Fort Worth", "location": {"lat": 32.9876, "lon": -97.3188}, "countryCode": "US"}, "averageDailyFlights": 0.29, "operators": [{"name": "WUP"}]}, {"destination": {"icao": "KMKC", "iata": "MKC", "name": "Kansas City Charles B. Wheeler Downtown", "shortName": "Charles B. Wheeler Downtown", "municipalityName": "Kansas City", "location": {"lat": 39.1232, "lon": -94.5928}, "countryCode": "US"}, "averageDailyFlights": 0.29, "operators": [{"name": "CTL"}]}, {"destination": {"icao": "KMHK", "iata": "MHK", "name": "Manhattan Regional", "shortName": "Regional", "municipalityName": "Manhattan", "location": {"lat": 39.141, "lon": -96.6708}, "countryCode": "US"}, "averageDailyFlights": 0.29, "operators": [{"name": "OUA"}]}, {"destination": {"icao": "KROG", "iata": "ROG", "name": "Rogers Municipal -Carter Field", "shortName": "Municipal -Carter Field", "municipalityName": "Rogers", "location": {"lat": 36.3723, "lon": -94.1069}, "countryCode": "US"}, "averageDailyFlights": 0.29, "operators": [{"name": "CNS"}, {"name": "EJM"}]}, {"destination": {"icao": "KASG", "iata": "SPZ", "name": "Springdale Municipal", "shortName": "Municipal", "municipalityName": "Springdale", "location": {"lat": 36.1764, "lon": -94.1193}, "countryCode": "US"}, "averageDailyFlights": 0.29, "operators": [{"name": "N1"}]}, {"destination": {"icao": "KBVX", "iata": "BVX", "name": "Batesville Regional", "shortName": "Regional", "municipalityName": "Batesville", "location": {"lat": 35.7262, "lon": -91.6473}, "countryCode": "US"}, "averageDailyFlights": 0.14, "operators": [{"name": "National Airlines", "iata": "N8", "icao": "NCR"}]}, {"destination": {"icao": "KBCT", "iata": "BCT", "name": "Boca Raton ", "shortName": "Boca Raton", "municipalityName": "Boca Raton", "location": {"lat": 26.378498, "lon": -80.1077}, "countryCode": "US"}, "averageDailyFlights": 0.14, "operators": [{"name": "NetJets Aviation", "iata": "1I", "icao": "EJA"}]}, {"destination": {"icao": "KBVU", "iata": "BLD", "name": "Boulder City Municipal", "shortName": "Municipal", "municipalityName": "Boulder City", "location": {"lat": 35.9475, "lon": -114.861}, "countryCode": "US"}, "averageDailyFlights": 0.14, "operators": [{"name": "CNS"}]}, {"destination": {"icao": "KBBG", "iata": "BKG", "name": "Branson ", "shortName": "Branson", "municipalityName": "Branson", "location": {"lat": 36.53208, "lon": -93.20055}, "countryCode": "US"}, "averageDailyFlights": 0.14, "operators": [{"name": "National Airlines", "iata": "N8", "icao": "NCR"}]}, {"destination": {"icao": "KBQK", "iata": "BQK", "name": "Brunswick Golden Isles", "shortName": "Golden Isles", "municipalityName": "Brunswick", "location": {"lat": 31.2588, "lon": -81.4665}, "countryCode": "US"}, "averageDailyFlights": 0.14, "operators": [{"name": "JTZ"}]}, {"destination": {"icao": "KMDW", "iata": "MDW", "name": "Chicago Midway", "shortName": "Midway", "municipalityName": "Chicago", "location": {"lat": 41.786, "lon": -87.7524}, "countryCode": "US"}, "averageDailyFlights": 0.14, "operators": [{"name": "NetJets Aviation", "iata": "1I", "icao": "EJA"}]}, {"destination": {"icao": "KLUK", "iata": "LUK", "name": "Cincinnati Municipal  Lunken Field", "shortName": "Municipal  Lunken Field", "municipalityName": "Cincinnati", "location": {"lat": 39.1033, "lon": -84.4186}, "countryCode": "US"}, "averageDailyFlights": 0.14, "operators": [{"name": "JSL"}]}, {"destination": {"icao": "KELD", "iata": "ELD", "name": "El Dorado South Arkansas Regional At Goodwin Field", "shortName": "South Arkansas Regional At Goodwin Field", "municipalityName": "El Dorado", "location": {"lat": 33.221, "lon": -92.8133}, "countryCode": "US"}, "averageDailyFlights": 0.14, "operators": [{"name": "XSR"}]}, {"destination": {"icao": "KFAM", "iata": "FAM", "name": "Farmington Regional", "shortName": "Regional", "municipalityName": "Farmington", "location": {"lat": 37.7611, "lon": -90.4286}, "countryCode": "US"}, "averageDailyFlights": 0.14, "operators": [{"name": "FFL"}]}, {"destination": {"icao": "KXNA", "iata": "XNA", "name": "Fayetteville/Springdale/ Northwest Arkansas Regional", "shortName": "Northwest Arkansas Regional", "municipalityName": "Fayetteville/Springdale/", "location": {"lat": 36.2819, "lon": -94.3068}, "countryCode": "US"}, "averageDailyFlights": 0.14, "operators": [{"name": "Nolinor", "iata": "N5", "icao": "NRL"}]}, {"destination": {"icao": "KFSM", "iata": "FSM", "name": "Fort Smith Regional", "shortName": "Regional", "municipalityName": "Fort Smith", "location": {"lat": 35.3366, "lon": -94.3674}, "countryCode": "US"}, "averageDailyFlights": 0.14, "operators": [{"name": "Nolinor", "iata": "N5", "icao": "NRL"}]}, {"destination": {"icao": "KFTW", "iata": "FTW", "name": "Fort Worth Meacham", "shortName": "Meacham", "municipalityName": "Fort Worth", "location": {"lat": 32.8198, "lon": -97.3624}, "countryCode": "US"}, "averageDailyFlights": 0.14, "operators": [{"name": "NetJets Aviation", "iata": "1I", "icao": "EJA"}]}, {"destination": {"icao": "MWCR", "iata": "GCM", "name": "Georgetown Owen Roberts", "shortName": "Owen Roberts", "municipalityName": "Georgetown", "location": {"lat": 19.2928, "lon": -81.3577}, "countryCode": "KY"}, "averageDailyFlights": 0.14, "operators": [{"name": "WDY"}]}, {"destination": {"icao": "KGRR", "iata": "GRR", "name": "Grand Rapids Gerald R. Ford", "shortName": "Gerald R. Ford", "municipalityName": "Grand Rapids", "location": {"lat": 42.8808, "lon": -85.5228}, "countryCode": "US"}, "averageDailyFlights": 0.14, "operators": [{"name": "Sun Country Airlines", "iata": "SY", "icao": "SCX"}]}, {"destination": {"icao": "KGPT", "iata": "GPT", "name": "Gulfport Biloxi", "shortName": "Biloxi", "municipalityName": "Gulfport", "location": {"lat": 30.4073, "lon": -89.0701}, "countryCode": "US"}, "averageDailyFlights": 0.14, "operators": [{"name": "Sun Country Airlines", "iata": "SY", "icao": "SCX"}]}, {"destination": {"icao": "KCXO", "iata": "CXO", "name": "Houston Lone Star Executive", "shortName": "Lone Star Executive", "municipalityName": "Houston", "location": {"lat": 30.3518, "lon": -95.4145}, "countryCode": "US"}, "averageDailyFlights": 0.14, "operators": [{"name": "CXK"}]}, {"destination": {"icao": "KSGR", "iata": "SGR", "name": "Houston Sugar Land Regional", "shortName": "Sugar Land Regional", "municipalityName": "Houston", "location": {"lat": 29.6223, "lon": -95.6565}, "countryCode": "US"}, "averageDailyFlights": 0.14, "operators": [{"name": "XSR"}]}, {"destination": {"icao": "KIND", "iata": "IND", "name": "Indianapolis ", "shortName": "Indianapolis", "municipalityName": "Indianapolis", "location": {"lat": 39.7173, "lon": -86.2944}, "countryCode": "US"}, "averageDailyFlights": 0.14, "operators": [{"name": "Jet Linx Aviation", "iata": "JL", "icao": "JTL"}]}, {"destination": {"icao": "KHKS", "iata": "HKS", "name": "Jackson Hawkins Field", "shortName": "Hawkins Field", "municipalityName": "Jackson", "location": {"lat": 32.3345, "lon": -90.2222}, "countryCode": "US"}, "averageDailyFlights": 0.14, "operators": [{"name": "Libyan Airlines", "iata": "LN", "icao": "LAA"}]}, {"destination": {"icao": "KJAX", "iata": "JAX", "name": "Jacksonville ", "shortName": "Jacksonville", "municipalityName": "Jacksonville", "location": {"lat": 30.4941, "lon": -81.6879}, "countryCode": "US"}, "averageDailyFlights": 0.14, "operators": [{"name": "EDG"}]}, {"destination": {"icao": "KTYS", "iata": "TYS", "name": "Knoxville McGhee Tyson", "shortName": "McGhee Tyson", "municipalityName": "Knoxville", "location": {"lat": 35.811, "lon": -83.994}, "countryCode": "US"}, "averageDailyFlights": 0.14, "operators": [{"name": "LXJ"}]}, {"destination": {"icao": "KHND", "iata": "HSH", "name": "Las Vegas Henderson Executive", "shortName": "Henderson Executive", "municipalityName": "Las Vegas", "location": {"lat": 35.9728, "lon": -115.134}, "countryCode": "US"}, "averageDailyFlights": 0.14, "operators": [{"name": "EDG"}]}, {"destination": {"icao": "KSDF", "iata": "SDF", "name": "Louisville Standiford Field", "shortName": "Standiford Field", "municipalityName": "Louisville", "location": {"lat": 38.1744, "lon": -85.736}, "countryCode": "US"}, "averageDailyFlights": 0.14, "operators": [{"name": "FFL"}]}, {"destination": {"icao": "KMEM", "iata": "MEM", "name": "Memphis ", "shortName": "Memphis", "municipalityName": "Memphis", "location": {"lat": 35.0424, "lon": -89.9767}, "countryCode": "US"}, "averageDailyFlights": 0.14, "operators": [{"name": "Sun Country Airlines", "iata": "SY", "icao": "SCX"}]}, {"destination": {"icao": "KMIA", "iata": "MIA", "name": "Miami ", "shortName": "Miami", "municipalityName": "Miami", "location": {"lat": 25.7932, "lon": -80.2906}, "countryCode": "US"}, "averageDailyFlights": 0.14, "operators": [{"name": "American Airlines", "iata": "AA", "icao": "AAL"}]}, {"destination": {"icao": "KMDD", "iata": "MDD", "name": "Midland Airpark", "shortName": "Airpark", "municipalityName": "Midland", "location": {"lat": 32.0365, "lon": -102.101}, "countryCode": "US"}, "averageDailyFlights": 0.14, "operators": [{"name": "LXJ"}]}, {"destination": {"icao": "KBFM", "iata": "BFM", "name": "Mobile Downtown", "shortName": "Downtown", "municipalityName": "Mobile", "location": {"lat": 30.6268, "lon": -88.0681}, "countryCode": "US"}, "averageDailyFlights": 0.14, "operators": [{"name": "NetJets Aviation", "iata": "1I", "icao": "EJA"}]}, {"destination": {"icao": "KAPF", "iata": "APF", "name": "Naples Municipal", "shortName": "Municipal", "municipalityName": "Naples", "location": {"lat": 26.1526, "lon": -81.7753}, "countryCode": "US"}, "averageDailyFlights": 0.14, "operators": [{"name": "N1"}]}, {"destination": {"icao": "KOKC", "iata": "OKC", "name": "Oklahoma City Will Rogers World", "shortName": "Will Rogers World", "municipalityName": "Oklahoma City", "location": {"lat": 35.3931, "lon": -97.6007}, "countryCode": "US"}, "averageDailyFlights": 0.14, "operators": [{"name": "NetJets Aviation", "iata": "1I", "icao": "EJA"}]}, {"destination": {"icao": "KPSP", "iata": "PSP", "name": "Palm Springs ", "shortName": "Palm Springs", "municipalityName": "Palm Springs", "location": {"lat": 33.8297, "lon": -116.507}, "countryCode": "US"}, "averageDailyFlights": 0.14, "operators": [{"name": "NetJets Aviation", "iata": "1I", "icao": "EJA"}]}, {"destination": {"icao": "KPNS", "iata": "PNS", "name": "Pensacola Regional", "shortName": "Regional", "municipalityName": "Pensacola", "location": {"lat": 30.4734, "lon": -87.1866}, "countryCode": "US"}, "averageDailyFlights": 0.14, "operators": [{"name": "CXK"}]}, {"destination": {"icao": "KPHX", "iata": "PHX", "name": "Phoenix Sky Harbor", "shortName": "Sky Harbor", "municipalityName": "Phoenix", "location": {"lat": 33.4343, "lon": -112.012}, "countryCode": "US"}, "averageDailyFlights": 0.14, "operators": [{"name": "Southwest Airlines", "iata": "WN", "icao": "SWA"}]}, {"destination": {"icao": "KAGC", "iata": "AGC", "name": "Pittsburgh Allegheny County", "shortName": "Allegheny County", "municipalityName": "Pittsburgh", "location": {"lat": 40.3544, "lon": -79.9302}, "countryCode": "US"}, "averageDailyFlights": 0.14, "operators": [{"name": "PJC"}]}, {"destination": {"icao": "KPSM", "iata": "PSM", "name": "Portsmouth at Pease", "shortName": "at Pease", "municipalityName": "Portsmouth", "location": {"lat": 43.0779, "lon": -70.8233}, "countryCode": "US"}, "averageDailyFlights": 0.14, "operators": [{"name": "KOW"}]}, {"destination": {"icao": "MMIO", "iata": "SLW", "name": "Saltillo Plan De Guadalupe", "shortName": "Plan De Guadalupe", "municipalityName": "Saltillo", "location": {"lat": 25.5495, "lon": -100.929}, "countryCode": "MX"}, "averageDailyFlights": 0.14, "operators": [{"name": "Ameriflight", "iata": "A8", "icao": "AMF"}]}, {"destination": {"icao": "KSAT", "iata": "SAT", "name": "San Antonio ", "shortName": "San Antonio", "municipalityName": "San Antonio", "location": {"lat": 29.5337, "lon": -98.4698}, "countryCode": "US"}, "averageDailyFlights": 0.14, "operators": [{"name": "Libyan Airlines", "iata": "LN", "icao": "LAA"}]}, {"destination": {"icao": "KSNA", "iata": "SNA", "name": "Santa Ana John Wayne -Orange County", "shortName": "John Wayne -Orange County", "municipalityName": "Santa Ana", "location": {"lat": 33.6757, "lon": -117.868}, "countryCode": "US"}, "averageDailyFlights": 0.14, "operators": [{"name": "EDG"}]}, {"destination": {"icao": "KSAF", "iata": "SAF", "name": "Santa Fe Municipal", "shortName": "Municipal", "municipalityName": "Santa Fe", "location": {"lat": 35.6171, "lon": -106.089}, "countryCode": "US"}, "averageDailyFlights": 0.14, "operators": [{"name": "CNS"}]}, {"destination": {"icao": "KSAV", "iata": "SAV", "name": "Savannah Hilton Head", "shortName": "Hilton Head", "municipalityName": "Savannah", "location": {"lat": 32.1276, "lon": -81.2021}, "countryCode": "US"}, "averageDailyFlights": 0.14, "operators": [{"name": "NetJets Aviation", "iata": "1I", "icao": "EJA"}]}, {"destination": {"icao": "KSME", "iata": "SME", "name": "Somerset Lake Cumberland Regional", "shortName": "Lake Cumberland Regional", "municipalityName": "Somerset", "location": {"lat": 37.0534, "lon": -84.6159}, "countryCode": "US"}, "averageDailyFlights": 0.14, "operators": [{"name": "YEL"}]}, {"destination": {"icao": "KSGF", "iata": "SGF", "name": "Springfield Branson National", "shortName": "Branson National", "municipalityName": "Springfield", "location": {"lat": 37.2457, "lon": -93.3886}, "countryCode": "US"}, "averageDailyFlights": 0.14, "operators": [{"name": "CXK"}]}, {"destination": {"icao": "KSLB", "iata": "SLB", "name": "Storm Lake Municipal", "shortName": "Municipal", "municipalityName": "Storm Lake", "location": {"lat": 42.5973, "lon": -95.2407}, "countryCode": "US"}, "averageDailyFlights": 0.14, "operators": [{"name": "N1"}]}, {"destination": {"icao": "KRVS", "iata": "RVS", "name": "Tulsa Richard Lloyd Jones Jr", "shortName": "Richard Lloyd Jones Jr", "municipalityName": "Tulsa", "location": {"lat": 36.0396, "lon": -95.9846}, "countryCode": "US"}, "averageDailyFlights": 0.14, "operators": [{"name": "Nolinor", "iata": "N5", "icao": "NRL"}]}, {"destination": {"icao": "KBDH", "iata": "ILL", "name": "Willmar Municipal -John L Rice Field", "shortName": "Municipal -John L Rice Field", "municipalityName": "Willmar", "location": {"lat": 45.1177, "lon": -95.1304}, "countryCode": "US"}, "averageDailyFlights": 0.14, "operators": [{"name": "NetJets Aviation", "iata": "1I", "icao": "EJA"}]}, {"destination": {"icao": "KORH", "iata": "ORH", "name": "Worcester Regional", "shortName": "Regional", "municipalityName": "Worcester", "location": {"lat": 42.2673, "lon": -71.8757}, "countryCode": "US"}, "averageDailyFlights": 0.14, "operators": [{"name": "FTH"}]}]}