{"routes": [{"destination": {"icao": "KJFK", "iata": "JFK", "name": "New York John F Kennedy", "shortName": "John F Kennedy", "municipalityName": "New York", "location": {"lat": 40.6398, "lon": -73.7789}, "countryCode": "US"}, "averageDailyFlights": 5.71, "operators": [{"name": "JetBlue Airways", "iata": "B6", "icao": "JBU"}, {"name": "Delta Air Lines", "iata": "DL", "icao": "DAL"}]}, {"destination": {"icao": "KORD", "iata": "ORD", "name": "Chicago O'Hare", "shortName": "O'Hare", "municipalityName": "Chicago", "location": {"lat": 41.9786, "lon": -87.9048}, "countryCode": "US"}, "averageDailyFlights": 5.0, "operators": [{"name": "United Airlines", "iata": "UA", "icao": "UAL"}, {"name": "American Airlines", "iata": "AA", "icao": "AAL"}, {"name": "Envoy Air", "iata": "MQ", "icao": "ENY"}, {"name": "SkyWest Airlines", "iata": "OO", "icao": "SKW"}]}, {"destination": {"icao": "KBWI", "iata": "BWI", "name": "Baltimore Washington  Thurgood Marshall", "shortName": "Washington  Thurgood Marshall", "municipalityName": "Baltimore", "location": {"lat": 39.1754, "lon": -76.6683}, "countryCode": "US"}, "averageDailyFlights": 4.43, "operators": [{"name": "Southwest Airlines", "iata": "WN", "icao": "SWA"}]}, {"destination": {"icao": "KIAD", "iata": "IAD", "name": "District of Columbia Washington Dulles", "shortName": "Washington Dulles", "municipalityName": "District of Columbia", "location": {"lat": 38.9445, "lon": -77.4558}, "countryCode": "US"}, "averageDailyFlights": 4.29, "operators": [{"name": "United Airlines", "iata": "UA", "icao": "UAL"}, {"name": "Libyan Airlines", "iata": "LN", "icao": "LAA"}, {"name": "NetJets Aviation", "iata": "1I", "icao": "EJA"}, {"name": "GTX"}, {"name": "LXJ"}]}, {"destination": {"icao": "KDTW", "iata": "DTW", "name": "Detroit Metropolitan Wayne County", "shortName": "Metropolitan Wayne County", "municipalityName": "Detroit", "location": {"lat": 42.2124, "lon": -83.3534}, "countryCode": "US"}, "averageDailyFlights": 3.86, "operators": [{"name": "Delta Air Lines", "iata": "DL", "icao": "DAL"}]}, {"destination": {"icao": "KDCA", "iata": "DCA", "name": "District of Columbia Ronald Reagan Washington National", "shortName": "Ronald Reagan Washington National", "municipalityName": "District of Columbia", "location": {"lat": 38.8521, "lon": -77.0377}, "countryCode": "US"}, "averageDailyFlights": 3.14, "operators": [{"name": "American Airlines", "iata": "AA", "icao": "AAL"}]}, {"destination": {"icao": "KEWR", "iata": "EWR", "name": "Newark Liberty", "shortName": "Liberty", "municipalityName": "Newark", "location": {"lat": 40.6925, "lon": -74.1687}, "countryCode": "US"}, "averageDailyFlights": 3.14, "operators": [{"name": "United Airlines", "iata": "UA", "icao": "UAL"}]}, {"destination": {"icao": "KCLT", "iata": "CLT", "name": "Charlotte Douglas", "shortName": "Douglas", "municipalityName": "Charlotte", "location": {"lat": 35.214, "lon": -80.9431}, "countryCode": "US"}, "averageDailyFlights": 2.86, "operators": [{"name": "American Airlines", "iata": "AA", "icao": "AAL"}]}, {"destination": {"icao": "KPHL", "iata": "PHL", "name": "Philadelphia ", "shortName": "Philadelphia", "municipalityName": "Philadelphia", "location": {"lat": 39.8719, "lon": -75.2411}, "countryCode": "US"}, "averageDailyFlights": 2.71, "operators": [{"name": "American Airlines", "iata": "AA", "icao": "AAL"}]}, {"destination": {"icao": "KATL", "iata": "ATL", "name": "Atlanta Hartsfield Jackson", "shortName": "Hartsfield Jackson", "municipalityName": "Atlanta", "location": {"lat": 33.6367, "lon": -84.4281}, "countryCode": "US"}, "averageDailyFlights": 2.43, "operators": [{"name": "Delta Air Lines", "iata": "DL", "icao": "DAL"}]}, {"destination": {"icao": "KBOS", "iata": "BOS", "name": "Boston General Edward Lawrence Logan", "shortName": "General Edward Lawrence Logan", "municipalityName": "Boston", "location": {"lat": 42.3643, "lon": -71.0052}, "countryCode": "US"}, "averageDailyFlights": 2.43, "operators": [{"name": "American Airlines", "iata": "AA", "icao": "AAL"}, {"name": "Libyan Airlines", "iata": "LN", "icao": "LAA"}, {"name": "NetJets Aviation", "iata": "1I", "icao": "EJA"}]}, {"destination": {"icao": "KMCO", "iata": "MCO", "name": "Orlando ", "shortName": "Orlando", "municipalityName": "Orlando", "location": {"lat": 28.4294, "lon": -81.309}, "countryCode": "US"}, "averageDailyFlights": 2.29, "operators": [{"name": "Spirit Airlines", "iata": "NK", "icao": "NKS"}, {"name": "Southwest Airlines", "iata": "WN", "icao": "SWA"}]}, {"destination": {"icao": "KELM", "iata": "ELM", "name": "Elmira/Corning Elmira Corning Regional", "shortName": "Elmira Corning Regional", "municipalityName": "Elmira/Corning", "location": {"lat": 42.1599, "lon": -76.8916}, "countryCode": "US"}, "averageDailyFlights": 1.14, "operators": [{"name": "WIG"}, {"name": "WOG"}]}, {"destination": {"icao": "KMDW", "iata": "MDW", "name": "Chicago Midway", "shortName": "Midway", "municipalityName": "Chicago", "location": {"lat": 41.786, "lon": -87.7524}, "countryCode": "US"}, "averageDailyFlights": 1.0, "operators": [{"name": "Southwest Airlines", "iata": "WN", "icao": "SWA"}]}, {"destination": {"icao": "KCVG", "iata": "CVG", "name": "Cincinnati Northern Kentucky", "shortName": "Northern Kentucky", "municipalityName": "Cincinnati", "location": {"lat": 39.0488, "lon": -84.6678}, "countryCode": "US"}, "averageDailyFlights": 0.86, "operators": [{"name": "iAero Airways", "iata": "WQ", "icao": "SWQ"}]}, {"destination": {"icao": "KIAG", "iata": "IAG", "name": "Niagara Falls ", "shortName": "Niagara Falls", "municipalityName": "Niagara Falls", "location": {"lat": 43.1073, "lon": -78.9462}, "countryCode": "US"}, "averageDailyFlights": 0.86, "operators": [{"name": "LBQ"}]}, {"destination": {"icao": "KTEB", "iata": "TEB", "name": "Teterboro ", "shortName": "Teterboro", "municipalityName": "Teterboro", "location": {"lat": 40.8501, "lon": -74.0608}, "countryCode": "US"}, "averageDailyFlights": 0.86, "operators": [{"name": "Libyan Airlines", "iata": "LN", "icao": "LAA"}, {"name": "TMB"}, {"name": "NetJets Aviation", "iata": "1I", "icao": "EJA"}, {"name": "WUP"}]}, {"destination": {"icao": "KRDU", "iata": "RDU", "name": "Raleigh/Durham Raleigh Durham", "shortName": "Raleigh Durham", "municipalityName": "Raleigh/Durham", "location": {"lat": 35.8776, "lon": -78.7875}, "countryCode": "US"}, "averageDailyFlights": 0.57, "operators": [{"name": "VXP"}, {"name": "LXJ"}, {"name": "Kabo Air", "iata": "N9", "icao": "QNK"}]}, {"destination": {"icao": "KRST", "iata": "RST", "name": "Rochester ", "shortName": "Rochester", "municipalityName": "Rochester", "location": {"lat": 43.9083, "lon": -92.5}, "countryCode": "US"}, "averageDailyFlights": 0.43, "operators": [{"name": "PJC"}]}, {"destination": {"icao": "KHPN", "iata": "HPN", "name": "White Plains Westchester County", "shortName": "Westchester County", "municipalityName": "White Plains", "location": {"lat": 41.067, "lon": -73.7076}, "countryCode": "US"}, "averageDailyFlights": 0.43, "operators": [{"name": "NetJets Aviation", "iata": "1I", "icao": "EJA"}]}, {"destination": {"icao": "KBGM", "iata": "BGM", "name": "Binghamton Edwin A Link field", "shortName": "Edwin A Link field", "municipalityName": "Binghamton", "location": {"lat": 42.2087, "lon": -75.9798}, "countryCode": "US"}, "averageDailyFlights": 0.29, "operators": [{"name": "TMB"}]}, {"destination": {"icao": "KBUF", "iata": "BUF", "name": "Buffalo Niagara", "shortName": "Niagara", "municipalityName": "Buffalo", "location": {"lat": 42.9405, "lon": -78.7322}, "countryCode": "US"}, "averageDailyFlights": 0.29, "operators": [{"name": "Libyan Airlines", "iata": "LN", "icao": "LAA"}]}, {"destination": {"icao": "KMIA", "iata": "MIA", "name": "Miami ", "shortName": "Miami", "municipalityName": "Miami", "location": {"lat": 25.7932, "lon": -80.2906}, "countryCode": "US"}, "averageDailyFlights": 0.29, "operators": [{"name": "American Airlines", "iata": "AA", "icao": "AAL"}, {"name": "FTH"}]}, {"destination": {"icao": "KMMU", "iata": "MMU", "name": "Morristown Municipal", "shortName": "Municipal", "municipalityName": "Morristown", "location": {"lat": 40.7994, "lon": -74.4149}, "countryCode": "US"}, "averageDailyFlights": 0.29, "operators": [{"name": "NetJets Aviation", "iata": "1I", "icao": "EJA"}, {"name": "GTX"}]}, {"destination": {"icao": "KPIT", "iata": "PIT", "name": "Pittsburgh ", "shortName": "Pittsburgh", "municipalityName": "Pittsburgh", "location": {"lat": 40.4915, "lon": -80.2329}, "countryCode": "US"}, "averageDailyFlights": 0.29, "operators": [{"name": "CYC"}]}, {"destination": {"icao": "KTPA", "iata": "TPA", "name": "Tampa ", "shortName": "Tampa", "municipalityName": "Tampa", "location": {"lat": 27.9755, "lon": -82.5332}, "countryCode": "US"}, "averageDailyFlights": 0.29, "operators": [{"name": "Southwest Airlines", "iata": "WN", "icao": "SWA"}, {"name": "NetJets Aviation", "iata": "1I", "icao": "EJA"}]}, {"destination": {"icao": "CYWG", "iata": "YWG", "name": "Winnipeg James Armstrong Richardson", "shortName": "James Armstrong Richardson", "municipalityName": "Winnipeg", "location": {"lat": 49.91, "lon": -97.2399}, "countryCode": "CA"}, "averageDailyFlights": 0.29, "operators": [{"name": "NJE"}, {"name": "CGAPC"}]}, {"destination": {"icao": "KABE", "iata": "ABE", "name": "Allentown Lehigh Valley", "shortName": "Lehigh Valley", "municipalityName": "Allentown", "location": {"lat": 40.6521, "lon": -75.4408}, "countryCode": "US"}, "averageDailyFlights": 0.14, "operators": [{"name": "TEK"}]}, {"destination": {"icao": "KBLM", "iata": "BLM", "name": "Belmar/Farmingdale Monmouth Executive", "shortName": "Monmouth Executive", "municipalityName": "Belmar/Farmingdale", "location": {"lat": 40.1869, "lon": -74.1249}, "countryCode": "US"}, "averageDailyFlights": 0.14, "operators": [{"name": "Nordwind Airlines", "iata": "N4", "icao": "NWS"}]}, {"destination": {"icao": "KCLE", "iata": "CLE", "name": "Cleveland Hopkins", "shortName": "Hopkins", "municipalityName": "Cleveland", "location": {"lat": 41.4117, "lon": -81.8498}, "countryCode": "US"}, "averageDailyFlights": 0.14, "operators": [{"name": "ERY"}]}, {"destination": {"icao": "KFRG", "iata": "FRG", "name": "Farmingdale Republic", "shortName": "Republic", "municipalityName": "Farmingdale", "location": {"lat": 40.7288, "lon": -73.4134}, "countryCode": "US"}, "averageDailyFlights": 0.14, "operators": [{"name": "NetJets Aviation", "iata": "1I", "icao": "EJA"}]}, {"destination": {"icao": "KRSW", "iata": "RSW", "name": "Fort Myers Southwest Florida", "shortName": "Southwest Florida", "municipalityName": "Fort Myers", "location": {"lat": 26.5362, "lon": -81.7552}, "countryCode": "US"}, "averageDailyFlights": 0.14, "operators": [{"name": "UWD"}]}, {"destination": {"icao": "KHYA", "iata": "HYA", "name": "Hyannis Barnstable Municipal Boardman Polando Field", "shortName": "Barnstable Municipal Boardman Polando Field", "municipalityName": "Hyannis", "location": {"lat": 41.6693, "lon": -70.2804}, "countryCode": "US"}, "averageDailyFlights": 0.14, "operators": [{"name": "DCM"}]}, {"destination": {"icao": "KMSN", "iata": "MSN", "name": "Madison Dane County Regional Truax Field", "shortName": "Dane County Regional Truax Field", "municipalityName": "Madison", "location": {"lat": 43.1399, "lon": -89.3375}, "countryCode": "US"}, "averageDailyFlights": 0.14, "operators": [{"name": "American Airlines", "iata": "AA", "icao": "AAL"}]}, {"destination": {"icao": "KOCF", "iata": "OCF", "name": "Ocala - Jim Taylor Field", "shortName": "- Jim Taylor Field", "municipalityName": "Ocala", "location": {"lat": 29.1726, "lon": -82.2242}, "countryCode": "US"}, "averageDailyFlights": 0.14, "operators": [{"name": "DPJ"}]}, {"destination": {"icao": "KPWM", "iata": "PWM", "name": "Portland Jetport", "shortName": "Jetport", "municipalityName": "Portland", "location": {"lat": 43.6462, "lon": -70.3093}, "countryCode": "US"}, "averageDailyFlights": 0.14, "operators": [{"name": "NetJets Aviation", "iata": "1I", "icao": "EJA"}]}, {"destination": {"icao": "KFOK", "iata": "FOK", "name": "Westhampton Beach Francis S Gabreski", "shortName": "Francis S Gabreski", "municipalityName": "Westhampton Beach", "location": {"lat": 40.8437, "lon": -72.6318}, "countryCode": "US"}, "averageDailyFlights": 0.14, "operators": [{"name": "FTH"}]}]}