{"routes": [{"destination": {"icao": "LEMD", "iata": "MAD", "name": "Madrid Adolfo Su\u00e1rez \u2013Barajas", "shortName": "Adolfo Su\u00e1rez \u2013Barajas", "municipalityName": "Madrid", "location": {"lat": 40.4936, "lon": -3.56676}, "countryCode": "ES"}, "averageDailyFlights": 3.29, "operators": [{"name": "Iberia", "iata": "IB", "icao": "IBE"}]}, {"destination": {"icao": "LEBL", "iata": "BCN", "name": "Barcelona ", "shortName": "Barcelona", "municipalityName": "Barcelona", "location": {"lat": 41.2971, "lon": 2.078459}, "countryCode": "ES"}, "averageDailyFlights": 1.43, "operators": [{"name": "Ryanair", "iata": "FR", "icao": "RYR"}, {"name": "Vueling", "iata": "VY", "icao": "VLG"}]}, {"destination": {"icao": "LEPA", "iata": "PMI", "name": "Palma De Mallorca ", "shortName": "Palma De Mallorca", "municipalityName": "Palma De Mallorca", "location": {"lat": 39.5517, "lon": 2.73881}, "countryCode": "ES"}, "averageDailyFlights": 0.57, "operators": [{"name": "Vueling", "iata": "VY", "icao": "VLG"}, {"name": "Iberia", "iata": "IB", "icao": "IBE"}]}, {"destination": {"icao": "GCLP", "iata": "LPA", "name": "Gran Canaria Island Gran Canaria", "shortName": "Gran Canaria", "municipalityName": "Gran Canaria Island", "location": {"lat": 27.9319, "lon": -15.386599}, "countryCode": "ES"}, "averageDailyFlights": 0.43, "operators": [{"name": "Binter Canarias", "iata": "NT", "icao": "IBB"}]}, {"destination": {"icao": "LEBG", "iata": "RGS", "name": "Burgos ", "shortName": "Burgos", "municipalityName": "Burgos", "location": {"lat": 42.3576, "lon": -3.620759}, "countryCode": "ES"}, "averageDailyFlights": 0.14, "operators": [{"name": "Iberia", "iata": "IB", "icao": "IBE"}]}, {"destination": {"icao": "EDDL", "iata": "DUS", "name": "Duesseldorf D\u00fcsseldorf", "shortName": "D\u00fcsseldorf", "municipalityName": "Duesseldorf", "location": {"lat": 51.2895, "lon": 6.766779}, "countryCode": "DE"}, "averageDailyFlights": 0.14, "operators": [{"name": "TUIfly", "iata": "X3", "icao": "TUI"}]}, {"destination": {"icao": "EDDF", "iata": "FRA", "name": "Frankfurt-am-Main ", "shortName": "Frankfurt-am-Main", "municipalityName": "Frankfurt-am-Main", "location": {"lat": 50.0264, "lon": 8.543129}, "countryCode": "DE"}, "averageDailyFlights": 0.14, "operators": [{"name": "TUIfly", "iata": "X3", "icao": "TUI"}]}, {"destination": {"icao": "LEVX", "iata": "VGO", "name": "Vigo ", "shortName": "Vigo", "municipalityName": "Vigo", "location": {"lat": 42.2318, "lon": -8.62677}, "countryCode": "ES"}, "averageDailyFlights": 0.14, "operators": [{"name": "Iberia", "iata": "IB", "icao": "IBE"}]}]}