{"routes": [{"destination": {"icao": "EGSS", "iata": "STN", "name": "London Stansted", "shortName": "Stansted", "municipalityName": "London", "location": {"lat": 51.885, "lon": 0.234999}, "countryCode": "GB"}, "averageDailyFlights": 5.29, "operators": [{"name": "Ryanair", "iata": "FR", "icao": "RYR"}]}, {"destination": {"icao": "LPPT", "iata": "LIS", "name": "Lisbon Portela", "shortName": "Portela", "municipalityName": "Lisbon", "location": {"lat": 38.7813, "lon": -9.135919}, "countryCode": "PT"}, "averageDailyFlights": 2.29, "operators": [{"name": "Ryanair", "iata": "FR", "icao": "RYR"}]}, {"destination": {"icao": "LFOB", "iata": "BVA", "name": "Beauvais/Till\u00e9 Paris Beauvais Till\u00e9", "shortName": "Paris Beauvais Till\u00e9", "municipalityName": "Beauvais/Till\u00e9", "location": {"lat": 49.4544, "lon": 2.11278}, "countryCode": "FR"}, "averageDailyFlights": 1.86, "operators": [{"name": "Ryanair", "iata": "FR", "icao": "RYR"}]}, {"destination": {"icao": "EBCI", "iata": "CRL", "name": "Brussels South Charleroi", "shortName": "South Charleroi", "municipalityName": "Brussels", "location": {"lat": 50.4592, "lon": 4.45382}, "countryCode": "BE"}, "averageDailyFlights": 1.71, "operators": [{"name": "Ryanair", "iata": "FR", "icao": "RYR"}]}, {"destination": {"icao": "LROP", "iata": "OTP", "name": "Bucharest Henri Coand\u0103", "shortName": "Henri Coand\u0103", "municipalityName": "Bucharest", "location": {"lat": 44.5722, "lon": 26.1022}, "countryCode": "RO"}, "averageDailyFlights": 1.71, "operators": [{"name": "Ryanair", "iata": "FR", "icao": "RYR"}]}, {"destination": {"icao": "LMML", "iata": "MLA", "name": "Luqa Malta", "shortName": "Malta", "municipalityName": "Luqa", "location": {"lat": 35.8575, "lon": 14.4775}, "countryCode": "MT"}, "averageDailyFlights": 1.71, "operators": [{"name": "Ryanair", "iata": "FR", "icao": "RYR"}]}, {"destination": {"icao": "LBSF", "iata": "SOF", "name": "Sofia ", "shortName": "Sofia", "municipalityName": "Sofia", "location": {"lat": 42.696693, "lon": 23.411436}, "countryCode": "BG"}, "averageDailyFlights": 1.71, "operators": [{"name": "Ryanair", "iata": "FR", "icao": "RYR"}, {"name": "Wizz Air", "iata": "W6", "icao": "WZZ"}]}, {"destination": {"icao": "LHBP", "iata": "BUD", "name": "Budapest Ferenc Liszt", "shortName": "Ferenc Liszt", "municipalityName": "Budapest", "location": {"lat": 47.4369, "lon": 19.255598}, "countryCode": "HU"}, "averageDailyFlights": 1.57, "operators": [{"name": "Ryanair", "iata": "FR", "icao": "RYR"}]}, {"destination": {"icao": "LEZL", "iata": "SVQ", "name": "Seville Sevilla", "shortName": "Sevilla", "municipalityName": "Seville", "location": {"lat": 37.418, "lon": -5.893109}, "countryCode": "ES"}, "averageDailyFlights": 1.57, "operators": [{"name": "Ryanair", "iata": "FR", "icao": "RYR"}]}, {"destination": {"icao": "EPKK", "iata": "KRK", "name": "Krak\u00f3w John Paul II   -Balice", "shortName": "John Paul II   -Balice", "municipalityName": "Krak\u00f3w", "location": {"lat": 50.0777, "lon": 19.7848}, "countryCode": "PL"}, "averageDailyFlights": 1.43, "operators": [{"name": "Ryanair", "iata": "FR", "icao": "RYR"}]}, {"destination": {"icao": "EGCC", "iata": "MAN", "name": "Manchester ", "shortName": "Manchester", "municipalityName": "Manchester", "location": {"lat": 53.3537, "lon": -2.27495}, "countryCode": "GB"}, "averageDailyFlights": 1.43, "operators": [{"name": "Ryanair", "iata": "FR", "icao": "RYR"}]}, {"destination": {"icao": "LATI", "iata": "TIA", "name": "Tirana Mother Teresa", "shortName": "Mother Teresa", "municipalityName": "Tirana", "location": {"lat": 41.4147, "lon": 19.7206}, "countryCode": "AL"}, "averageDailyFlights": 1.43, "operators": [{"name": "Ryanair", "iata": "FR", "icao": "RYR"}]}, {"destination": {"icao": "EPMO", "iata": "WMI", "name": "Warsaw Modlin", "shortName": "Modlin", "municipalityName": "Warsaw", "location": {"lat": 52.4511, "lon": 20.6518}, "countryCode": "PL"}, "averageDailyFlights": 1.29, "operators": [{"name": "Ryanair", "iata": "FR", "icao": "RYR"}]}, {"destination": {"icao": "LIEE", "iata": "CAG", "name": "Cagliari Elmas", "shortName": "Elmas", "municipalityName": "Cagliari", "location": {"lat": 39.2515, "lon": 9.05428}, "countryCode": "IT"}, "averageDailyFlights": 1.14, "operators": [{"name": "Ryanair", "iata": "FR", "icao": "RYR"}]}, {"destination": {"icao": "LRIA", "iata": "IAS", "name": "Ia\u015fi ", "shortName": "Ia\u015fi", "municipalityName": "Ia\u015fi", "location": {"lat": 47.1785, "lon": 27.6206}, "countryCode": "RO"}, "averageDailyFlights": 1.0, "operators": [{"name": "Wizz Air Malta", "iata": "W4", "icao": "WMT"}]}, {"destination": {"icao": "LPPR", "iata": "OPO", "name": "Porto Francisco de S\u00e1 Carneiro", "shortName": "Francisco de S\u00e1 Carneiro", "municipalityName": "Porto", "location": {"lat": 41.2481, "lon": -8.681389}, "countryCode": "PT"}, "averageDailyFlights": 0.86, "operators": [{"name": "Ryanair", "iata": "FR", "icao": "RYR"}]}, {"destination": {"icao": "LGTS", "iata": "SKG", "name": "Thessaloniki Macedonia", "shortName": "Macedonia", "municipalityName": "Thessaloniki", "location": {"lat": 40.5197, "lon": 22.9709}, "countryCode": "GR"}, "averageDailyFlights": 0.86, "operators": [{"name": "Ryanair", "iata": "FR", "icao": "RYR"}]}, {"destination": {"icao": "LRCL", "iata": "CLJ", "name": "Cluj-Napoca ", "shortName": "Cluj-Napoca", "municipalityName": "Cluj-Napoca", "location": {"lat": 46.7852, "lon": 23.6862}, "countryCode": "RO"}, "averageDailyFlights": 0.71, "operators": [{"name": "Wizz Air Malta", "iata": "W4", "icao": "WMT"}]}, {"destination": {"icao": "EDDP", "iata": "LEJ", "name": "Leipzig Halle", "shortName": "Halle", "municipalityName": "Leipzig", "location": {"lat": 51.4324, "lon": 12.2416}, "countryCode": "DE"}, "averageDailyFlights": 0.71, "operators": [{"name": "EAT Leipzig", "iata": "QY", "icao": "BCS"}]}, {"destination": {"icao": "GMMX", "iata": "RAK", "name": "Marrakech Menara", "shortName": "Menara", "municipalityName": "Marrakech", "location": {"lat": 31.6069, "lon": -8.036299}, "countryCode": "MA"}, "averageDailyFlights": 0.71, "operators": [{"name": "Ryanair", "iata": "FR", "icao": "RYR"}]}, {"destination": {"icao": "LCPH", "iata": "PFO", "name": "Paphos ", "shortName": "Paphos", "municipalityName": "Paphos", "location": {"lat": 34.718, "lon": 32.4857}, "countryCode": "CY"}, "averageDailyFlights": 0.57, "operators": [{"name": "Ryanair", "iata": "FR", "icao": "RYR"}]}, {"destination": {"icao": "LZIB", "iata": "BTS", "name": "Bratislava M. R. \u0160tef\u00e1nik", "shortName": "M. R. \u0160tef\u00e1nik", "municipalityName": "Bratislava", "location": {"lat": 48.1702, "lon": 17.2127}, "countryCode": "SK"}, "averageDailyFlights": 0.43, "operators": [{"name": "Ryanair", "iata": "FR", "icao": "RYR"}]}, {"destination": {"icao": "EGPH", "iata": "EDI", "name": "Edinburgh ", "shortName": "Edinburgh", "municipalityName": "Edinburgh", "location": {"lat": 55.95, "lon": -3.372499}, "countryCode": "GB"}, "averageDailyFlights": 0.43, "operators": [{"name": "Ryanair", "iata": "FR", "icao": "RYR"}]}, {"destination": {"icao": "OJAI", "iata": "AMM", "name": "Amman Queen Alia", "shortName": "Queen Alia", "municipalityName": "Amman", "location": {"lat": 31.7226, "lon": 35.9932}, "countryCode": "JO"}, "averageDailyFlights": 0.29, "operators": [{"name": "Ryanair", "iata": "FR", "icao": "RYR"}]}, {"destination": {"icao": "EPKT", "iata": "KTW", "name": "Katowice ", "shortName": "Katowice", "municipalityName": "Katowice", "location": {"lat": 50.4743, "lon": 19.08}, "countryCode": "PL"}, "averageDailyFlights": 0.29, "operators": [{"name": "Wizz Air", "iata": "W6", "icao": "WZZ"}]}, {"destination": {"icao": "EGGP", "iata": "LPL", "name": "Liverpool John Lennon", "shortName": "John Lennon", "municipalityName": "Liverpool", "location": {"lat": 53.3336, "lon": -2.84972}, "countryCode": "GB"}, "averageDailyFlights": 0.29, "operators": [{"name": "Ryanair", "iata": "FR", "icao": "RYR"}]}, {"destination": {"icao": "EGNX", "iata": "EMA", "name": "Nottingham East Midlands", "shortName": "East Midlands", "municipalityName": "Nottingham", "location": {"lat": 52.8311, "lon": -1.32806}, "countryCode": "GB"}, "averageDailyFlights": 0.29, "operators": [{"name": "Ryanair", "iata": "FR", "icao": "RYR"}]}, {"destination": {"icao": "GMME", "iata": "RBA", "name": "Rabat -Sal\u00e9", "shortName": "-Sal\u00e9", "municipalityName": "Rabat", "location": {"lat": 34.0515, "lon": -6.75152}, "countryCode": "MA"}, "averageDailyFlights": 0.29, "operators": [{"name": "Ryanair", "iata": "FR", "icao": "RYR"}]}, {"destination": {"icao": "GMTT", "iata": "TNG", "name": "Tangier Ibn Batouta", "shortName": "Ibn Batouta", "municipalityName": "Tangier", "location": {"lat": 35.7269, "lon": -5.91689}, "countryCode": "MA"}, "averageDailyFlights": 0.29, "operators": [{"name": "Ryanair", "iata": "FR", "icao": "RYR"}]}, {"destination": {"icao": "LFBT", "iata": "LDE", "name": "Tarbes/Lourdes/Pyr\u00e9n\u00e9es Tarbes-Lourdes-Pyr\u00e9n\u00e9es", "shortName": "Tarbes-Lourdes-Pyr\u00e9n\u00e9es", "municipalityName": "Tarbes/Lourdes/Pyr\u00e9n\u00e9es", "location": {"lat": 43.1787, "lon": -0.006438}, "countryCode": "FR"}, "averageDailyFlights": 0.29, "operators": [{"name": "Ryanair", "iata": "FR", "icao": "RYR"}]}, {"destination": {"icao": "EHAM", "iata": "AMS", "name": "Amsterdam Schiphol", "shortName": "Schiphol", "municipalityName": "Amsterdam", "location": {"lat": 52.3086, "lon": 4.763889}, "countryCode": "NL"}, "averageDailyFlights": 0.14, "operators": [{"name": "ECA"}]}, {"destination": {"icao": "EDDB", "iata": "BER", "name": "Berlin Brandenburg", "shortName": "Brandenburg", "municipalityName": "Berlin", "location": {"lat": 52.35139, "lon": 13.493889}, "countryCode": "DE"}, "averageDailyFlights": 0.14, "operators": [{"name": "UAG"}]}, {"destination": {"icao": "EKCH", "iata": "CPH", "name": "Copenhagen Kastrup", "shortName": "Kastrup", "municipalityName": "Copenhagen", "location": {"lat": 55.6179, "lon": 12.656}, "countryCode": "DK"}, "averageDailyFlights": 0.14, "operators": [{"name": "Air Explore", "iata": "ED", "icao": "AXE"}]}, {"destination": {"icao": "KIAD", "iata": "IAD", "name": "District of Columbia Washington Dulles", "shortName": "Washington Dulles", "municipalityName": "District of Columbia", "location": {"lat": 38.9445, "lon": -77.4558}, "countryCode": "US"}, "averageDailyFlights": 0.14, "operators": [{"name": "TJS"}]}, {"destination": {"icao": "EDDL", "iata": "DUS", "name": "Duesseldorf D\u00fcsseldorf", "shortName": "D\u00fcsseldorf", "municipalityName": "Duesseldorf", "location": {"lat": 51.2895, "lon": 6.766779}, "countryCode": "DE"}, "averageDailyFlights": 0.14, "operators": [{"name": "VJH"}]}, {"destination": {"icao": "LFMN", "iata": "NCE", "name": "Nice -C\u00f4te d'Azur", "shortName": "-C\u00f4te d'Azur", "municipalityName": "Nice", "location": {"lat": 43.6584, "lon": 7.215869}, "countryCode": "FR"}, "averageDailyFlights": 0.14, "operators": [{"name": "GAC"}]}, {"destination": {"icao": "EDDS", "iata": "STR", "name": "Stuttgart ", "shortName": "Stuttgart", "municipalityName": "Stuttgart", "location": {"lat": 48.6899, "lon": 9.22196}, "countryCode": "DE"}, "averageDailyFlights": 0.14, "operators": [{"name": "JSY"}]}, {"destination": {"icao": "LSZH", "iata": "ZRH", "name": "Zurich Kloten", "shortName": "Kloten", "municipalityName": "Zurich", "location": {"lat": 47.4647, "lon": 8.549169}, "countryCode": "CH"}, "averageDailyFlights": 0.14, "operators": [{"name": "VJT"}]}]}