{"routes": [{"destination": {"icao": "EHAM", "iata": "AMS", "name": "Amsterdam Schiphol", "shortName": "Schiphol", "municipalityName": "Amsterdam", "location": {"lat": 52.3086, "lon": 4.763889}, "countryCode": "NL"}, "averageDailyFlights": 10.0, "operators": [{"name": "Netjets"}, {"name": "Cat Air Service Ag"}, {"name": "KLM", "iata": "KL", "icao": "KLM"}, {"name": "SWISS", "iata": "LX", "icao": "SWR"}]}, {"destination": {"icao": "EDDB", "iata": "BER", "name": "Berlin Brandenburg", "shortName": "Brandenburg", "municipalityName": "Berlin", "location": {"lat": 52.35139, "lon": 13.493889}, "countryCode": "DE"}, "averageDailyFlights": 9.14, "operators": [{"name": "Cat Air Service Ag"}, {"name": "Netjets"}, {"name": "SWISS", "iata": "LX", "icao": "SWR"}, {"name": "easyJet", "iata": "U2", "icao": "EZY"}, {"name": "Execujet"}, {"name": "Windrose Air"}]}, {"destination": {"icao": "LOWW", "iata": "VIE", "name": "Vienna Schwechat", "shortName": "Schwechat", "municipalityName": "Vienna", "location": {"lat": 48.1103, "lon": 16.5697}, "countryCode": "AT"}, "averageDailyFlights": 9.14, "operators": [{"name": "SWISS", "iata": "LX", "icao": "SWR"}, {"name": "Austrian", "iata": "OS", "icao": "AUA"}, {"name": "Netjets"}, {"name": "Cat Air Service Ag"}, {"name": "Jet Aviation Ph"}]}, {"destination": {"icao": "LSGG", "iata": "GVA", "name": "Geneva Cointrin", "shortName": "Cointrin", "municipalityName": "Geneva", "location": {"lat": 46.2381, "lon": 6.10895}, "countryCode": "CH"}, "averageDailyFlights": 9.0, "operators": [{"name": "Execujet"}, {"name": "Jet Aviation Ph"}, {"name": "Netjets"}, {"name": "Jfa"}, {"name": "SWISS", "iata": "LX", "icao": "SWR"}, {"name": "Royal Jordanian", "iata": "RJ", "icao": "RJA"}, {"name": "Albinati Aeronautics"}]}, {"destination": {"icao": "EDDH", "iata": "HAM", "name": "Hamburg ", "shortName": "Hamburg", "municipalityName": "Hamburg", "location": {"lat": 53.6304, "lon": 9.988229}, "countryCode": "DE"}, "averageDailyFlights": 8.29, "operators": [{"name": "Eurowings", "iata": "EW", "icao": "EWG"}, {"name": "SWISS", "iata": "LX", "icao": "SWR"}, {"name": "Jet Aviation Ph"}]}, {"destination": {"icao": "LEMD", "iata": "MAD", "name": "Madrid Adolfo Su\u00e1rez \u2013Barajas", "shortName": "Adolfo Su\u00e1rez \u2013Barajas", "municipalityName": "Madrid", "location": {"lat": 40.4936, "lon": -3.56676}, "countryCode": "ES"}, "averageDailyFlights": 8.0, "operators": [{"name": "Air Europa", "iata": "UX", "icao": "AEA"}, {"name": "Iberia", "iata": "IB", "icao": "IBE"}, {"name": "SWISS", "iata": "LX", "icao": "SWR"}, {"name": "Cat Air Service Ag"}, {"name": "Netjets"}, {"name": "Execujet"}]}, {"destination": {"icao": "EDDF", "iata": "FRA", "name": "Frankfurt-am-Main ", "shortName": "Frankfurt-am-Main", "municipalityName": "Frankfurt-am-Main", "location": {"lat": 50.0264, "lon": 8.543129}, "countryCode": "DE"}, "averageDailyFlights": 7.57, "operators": [{"name": "SWISS", "iata": "LX", "icao": "SWR"}, {"name": "Lufthansa", "iata": "LH", "icao": "DLH"}, {"name": "Execujet"}, {"name": "Netjets"}]}, {"destination": {"icao": "EDDL", "iata": "DUS", "name": "Duesseldorf D\u00fcsseldorf", "shortName": "D\u00fcsseldorf", "municipalityName": "Duesseldorf", "location": {"lat": 51.2895, "lon": 6.766779}, "countryCode": "DE"}, "averageDailyFlights": 7.43, "operators": [{"name": "SWISS", "iata": "LX", "icao": "SWR"}, {"name": "Eurowings", "iata": "EW", "icao": "EWG"}, {"name": "Execujet"}, {"name": "Flying Service"}]}, {"destination": {"icao": "LFPG", "iata": "CDG", "name": "Paris Charles de Gaulle", "shortName": "Charles de Gaulle", "municipalityName": "Paris", "location": {"lat": 49.0128, "lon": 2.549999}, "countryCode": "FR"}, "averageDailyFlights": 7.29, "operators": [{"name": "Air France", "iata": "AF", "icao": "AFR"}, {"name": "SWISS", "iata": "LX", "icao": "SWR"}]}, {"destination": {"icao": "LYBE", "iata": "BEG", "name": "Belgrade Nikola Tesla", "shortName": "Nikola Tesla", "municipalityName": "Belgrade", "location": {"lat": 44.8184, "lon": 20.3091}, "countryCode": "RS"}, "averageDailyFlights": 7.14, "operators": [{"name": "JetSMART", "iata": "JA", "icao": "JAT"}, {"name": "Air Serbia", "iata": "JU", "icao": "ASL"}, {"name": "SWISS", "iata": "LX", "icao": "SWR"}, {"name": "Cat Air Service Ag"}, {"name": "Jet Aviation Ph"}]}, {"destination": {"icao": "EGLL", "iata": "LHR", "name": "London Heathrow", "shortName": "Heathrow", "municipalityName": "London", "location": {"lat": 51.4706, "lon": -0.461941}, "countryCode": "GB"}, "averageDailyFlights": 6.71, "operators": [{"name": "British Airways", "iata": "BA", "icao": "BAW"}]}, {"destination": {"icao": "LPPT", "iata": "LIS", "name": "Lisbon Portela", "shortName": "Portela", "municipalityName": "Lisbon", "location": {"lat": 38.7813, "lon": -9.135919}, "countryCode": "PT"}, "averageDailyFlights": 6.29, "operators": [{"name": "TAP Air Portugal", "iata": "TP", "icao": "TAP"}, {"name": "SWISS", "iata": "LX", "icao": "SWR"}, {"name": "easyJet", "iata": "U2", "icao": "EZY"}]}, {"destination": {"icao": "LEBL", "iata": "BCN", "name": "Barcelona ", "shortName": "Barcelona", "municipalityName": "Barcelona", "location": {"lat": 41.2971, "lon": 2.078459}, "countryCode": "ES"}, "averageDailyFlights": 6.14, "operators": [{"name": "Vueling", "iata": "VY", "icao": "VLG"}, {"name": "SWISS", "iata": "LX", "icao": "SWR"}]}, {"destination": {"icao": "EBBR", "iata": "BRU", "name": "Brussels ", "shortName": "Brussels", "municipalityName": "Brussels", "location": {"lat": 50.9014, "lon": 4.484439}, "countryCode": "BE"}, "averageDailyFlights": 5.43, "operators": [{"name": "Flying Service"}, {"name": "Jet Aviation Ph"}, {"name": "SWISS", "iata": "LX", "icao": "SWR"}, {"name": "Brussels Airlines", "iata": "SN", "icao": "BEL"}]}, {"destination": {"icao": "EKCH", "iata": "CPH", "name": "Copenhagen Kastrup", "shortName": "Kastrup", "municipalityName": "Copenhagen", "location": {"lat": 55.6179, "lon": 12.656}, "countryCode": "DK"}, "averageDailyFlights": 5.14, "operators": [{"name": "SWISS", "iata": "LX", "icao": "SWR"}, {"name": "SAS", "iata": "SK", "icao": "SAS"}]}, {"destination": {"icao": "LIRF", "iata": "FCO", "name": "Rome Leonardo da Vinci\u2013Fiumicino", "shortName": "Leonardo da Vinci\u2013Fiumicino", "municipalityName": "Rome", "location": {"lat": 41.8045, "lon": 12.2508}, "countryCode": "IT"}, "averageDailyFlights": 5.14, "operators": [{"name": "ITA Airways", "iata": "AZ", "icao": "ITY"}, {"name": "SWISS", "iata": "LX", "icao": "SWR"}]}, {"destination": {"icao": "LIMC", "iata": "MXP", "name": "Milan Malpensa", "shortName": "Malpensa", "municipalityName": "Milan", "location": {"lat": 45.6306, "lon": 8.72811}, "countryCode": "IT"}, "averageDailyFlights": 5.0, "operators": [{"name": "Cat Air Service Ag"}, {"name": "SWISS", "iata": "LX", "icao": "SWR"}, {"name": "Cat Aviation"}, {"name": "Ethiopian Airlines", "iata": "ET", "icao": "ETH"}]}, {"destination": {"icao": "EPWA", "iata": "WAW", "name": "Warsaw Chopin", "shortName": "Chopin", "municipalityName": "Warsaw", "location": {"lat": 52.1657, "lon": 20.9671}, "countryCode": "PL"}, "averageDailyFlights": 5.0, "operators": [{"name": "SWISS", "iata": "LX", "icao": "SWR"}, {"name": "LOT - Polish Airlines", "iata": "LO", "icao": "LOT"}, {"name": "Cat Air Service Ag"}]}, {"destination": {"icao": "LKPR", "iata": "PRG", "name": "Prague Ruzyn\u011b", "shortName": "Ruzyn\u011b", "municipalityName": "Prague", "location": {"lat": 50.1008, "lon": 14.26}, "countryCode": "CZ"}, "averageDailyFlights": 4.86, "operators": [{"name": "Execujet"}, {"name": "Cat Aviation"}, {"name": "SWISS", "iata": "LX", "icao": "SWR"}, {"name": "Abs Jets"}, {"name": "Cat Air Service Ag"}]}, {"destination": {"icao": "LGAV", "iata": "ATH", "name": "Athens Eleftherios Venizelos", "shortName": "Eleftherios Venizelos", "municipalityName": "Athens", "location": {"lat": 37.9364, "lon": 23.944498}, "countryCode": "GR"}, "averageDailyFlights": 4.71, "operators": [{"name": "Jet Aviation Ph"}, {"name": "Tyrolean Jet Service"}, {"name": "SWISS", "iata": "LX", "icao": "SWR"}, {"name": "Aegean Airlines", "iata": "A3", "icao": "AEE"}, {"name": "Cat Air Service Ag"}]}, {"destination": {"icao": "LTFM", "iata": "IST", "name": "Istanbul ", "shortName": "Istanbul", "municipalityName": "Istanbul", "location": {"lat": 41.275276, "lon": 28.751944}, "countryCode": "TR"}, "averageDailyFlights": 4.43, "operators": [{"name": "Turkish Airlines", "iata": "TK", "icao": "THY"}, {"name": "Cat Aviation"}]}, {"destination": {"icao": "LFMN", "iata": "NCE", "name": "Nice -C\u00f4te d'Azur", "shortName": "-C\u00f4te d'Azur", "municipalityName": "Nice", "location": {"lat": 43.6584, "lon": 7.215869}, "countryCode": "FR"}, "averageDailyFlights": 4.29, "operators": [{"name": "Cat Aviation"}, {"name": "SWISS", "iata": "LX", "icao": "SWR"}, {"name": "Execujet"}, {"name": "Jet Aviation Ph"}, {"name": "Vistajet Malta"}, {"name": "Globe Air"}, {"name": "Cat Air Service Ag"}]}, {"destination": {"icao": "ESSA", "iata": "ARN", "name": "Stockholm -Arlanda", "shortName": "-Arlanda", "municipalityName": "Stockholm", "location": {"lat": 59.6519, "lon": 17.9186}, "countryCode": "SE"}, "averageDailyFlights": 3.86, "operators": [{"name": "Execujet"}, {"name": "SWISS", "iata": "LX", "icao": "SWR"}, {"name": "SAS", "iata": "SK", "icao": "SAS"}]}, {"destination": {"icao": "OMDB", "iata": "DXB", "name": "Dubai ", "shortName": "Dubai", "municipalityName": "Dubai", "location": {"lat": 25.252798, "lon": 55.3644}, "countryCode": "AE"}, "averageDailyFlights": 3.57, "operators": [{"name": "SWISS", "iata": "LX", "icao": "SWR"}, {"name": "Emirates", "iata": "EK", "icao": "UAE"}, {"name": "Jet Aviation Ph"}]}, {"destination": {"icao": "LPPR", "iata": "OPO", "name": "Porto Francisco de S\u00e1 Carneiro", "shortName": "Francisco de S\u00e1 Carneiro", "municipalityName": "Porto", "location": {"lat": 41.2481, "lon": -8.681389}, "countryCode": "PT"}, "averageDailyFlights": 3.57, "operators": [{"name": "easyJet", "iata": "U2", "icao": "EZY"}, {"name": "SWISS", "iata": "LX", "icao": "SWR"}, {"name": "TAP Air Portugal", "iata": "TP", "icao": "TAP"}]}, {"destination": {"icao": "BKPR", "iata": "PRN", "name": "Prishtina Pri\u0161tina", "shortName": "Pri\u0161tina", "municipalityName": "Prishtina", "location": {"lat": 42.5728, "lon": 21.0358}, "countryCode": "KS"}, "averageDailyFlights": 3.57, "operators": [{"name": "Edelweiss Air", "iata": "WK", "icao": "EDW"}, {"name": "Tri-MG Intra Asia Airlines", "iata": "GM", "icao": "TMG"}, {"name": "Eurowings", "iata": "EW", "icao": "EWG"}]}, {"destination": {"icao": "EIDW", "iata": "DUB", "name": "Dublin ", "shortName": "Dublin", "municipalityName": "Dublin", "location": {"lat": 53.4213, "lon": -6.27007}, "countryCode": "IE"}, "averageDailyFlights": 3.43, "operators": [{"name": "Aer Lingus", "iata": "EI", "icao": "EIN"}, {"name": "SWISS", "iata": "LX", "icao": "SWR"}]}, {"destination": {"icao": "EGLC", "iata": "LCY", "name": "London City", "shortName": "City", "municipalityName": "London", "location": {"lat": 51.5053, "lon": 0.055277}, "countryCode": "GB"}, "averageDailyFlights": 3.43, "operators": [{"name": "SWISS", "iata": "LX", "icao": "SWR"}]}, {"destination": {"icao": "KJFK", "iata": "JFK", "name": "New York John F Kennedy", "shortName": "John F Kennedy", "municipalityName": "New York", "location": {"lat": 40.6398, "lon": -73.7789}, "countryCode": "US"}, "averageDailyFlights": 3.43, "operators": [{"name": "SWISS", "iata": "LX", "icao": "SWR"}, {"name": "Delta Air Lines", "iata": "DL", "icao": "DAL"}]}, {"destination": {"icao": "LHBP", "iata": "BUD", "name": "Budapest Ferenc Liszt", "shortName": "Ferenc Liszt", "municipalityName": "Budapest", "location": {"lat": 47.4369, "lon": 19.255598}, "countryCode": "HU"}, "averageDailyFlights": 3.14, "operators": [{"name": "Execujet"}, {"name": "SWISS", "iata": "LX", "icao": "SWR"}]}, {"destination": {"icao": "LIRQ", "iata": "FLR", "name": "Firenze Peretola", "shortName": "Peretola", "municipalityName": "Firenze", "location": {"lat": 43.81, "lon": 11.2051}, "countryCode": "IT"}, "averageDailyFlights": 3.0, "operators": [{"name": "Air Dolomiti", "iata": "EN", "icao": "DLA"}, {"name": "SWISS", "iata": "LX", "icao": "SWR"}, {"name": "Air Hamburg"}]}, {"destination": {"icao": "LIPZ", "iata": "VCE", "name": "Venice Marco Polo", "shortName": "Marco Polo", "municipalityName": "Venice", "location": {"lat": 45.5053, "lon": 12.3519}, "countryCode": "IT"}, "averageDailyFlights": 3.0, "operators": [{"name": "SWISS", "iata": "LX", "icao": "SWR"}]}, {"destination": {"icao": "ENGM", "iata": "OSL", "name": "Oslo Gardermoen", "shortName": "Gardermoen", "municipalityName": "Oslo", "location": {"lat": 60.1939, "lon": 11.100399}, "countryCode": "NO"}, "averageDailyFlights": 2.71, "operators": [{"name": "Cat Air Service Ag"}, {"name": "SAS", "iata": "SK", "icao": "SAS"}, {"name": "SWISS", "iata": "LX", "icao": "SWR"}]}, {"destination": {"icao": "LEPA", "iata": "PMI", "name": "Palma De Mallorca ", "shortName": "Palma De Mallorca", "municipalityName": "Palma De Mallorca", "location": {"lat": 39.5517, "lon": 2.73881}, "countryCode": "ES"}, "averageDailyFlights": 2.71, "operators": [{"name": "Cat Aviation"}, {"name": "Edelweiss Air", "iata": "WK", "icao": "EDW"}, {"name": "Jet Aviation Ph"}, {"name": "SWISS", "iata": "LX", "icao": "SWR"}, {"name": "Vueling", "iata": "VY", "icao": "VLG"}]}, {"destination": {"icao": "EDDS", "iata": "STR", "name": "Stuttgart ", "shortName": "Stuttgart", "municipalityName": "Stuttgart", "location": {"lat": 48.6899, "lon": 9.22196}, "countryCode": "DE"}, "averageDailyFlights": 2.71, "operators": [{"name": "SWISS", "iata": "LX", "icao": "SWR"}, {"name": "Jet Aviation Ph"}]}, {"destination": {"icao": "EFHK", "iata": "HEL", "name": "Helsinki Vantaa", "shortName": "Vantaa", "municipalityName": "Helsinki", "location": {"lat": 60.3172, "lon": 24.9633}, "countryCode": "FI"}, "averageDailyFlights": 2.43, "operators": [{"name": "Cat Air Service Ag"}, {"name": "Finnair", "iata": "AY", "icao": "FIN"}, {"name": "Vistajet Malta"}]}, {"destination": {"icao": "LEMG", "iata": "AGP", "name": "M\u00e1laga ", "shortName": "M\u00e1laga", "municipalityName": "M\u00e1laga", "location": {"lat": 36.6749, "lon": -4.49911}, "countryCode": "ES"}, "averageDailyFlights": 2.43, "operators": [{"name": "Cat Aviation"}, {"name": "Execujet"}, {"name": "SWISS", "iata": "LX", "icao": "SWR"}]}, {"destination": {"icao": "EGCC", "iata": "MAN", "name": "Manchester ", "shortName": "Manchester", "municipalityName": "Manchester", "location": {"lat": 53.3537, "lon": -2.27495}, "countryCode": "GB"}, "averageDailyFlights": 2.43, "operators": [{"name": "Globe Air"}, {"name": "SWISS", "iata": "LX", "icao": "SWR"}]}, {"destination": {"icao": "VTBS", "iata": "BKK", "name": "Bangkok Suvarnabhumi", "shortName": "Suvarnabhumi", "municipalityName": "Bangkok", "location": {"lat": 13.681099, "lon": 100.747}, "countryCode": "TH"}, "averageDailyFlights": 2.29, "operators": [{"name": "Thai Airways International", "iata": "TG", "icao": "THA"}, {"name": "SWISS", "iata": "LX", "icao": "SWR"}]}, {"destination": {"icao": "LIPE", "iata": "BLQ", "name": "Bologna Guglielmo Marconi", "shortName": "Guglielmo Marconi", "municipalityName": "Bologna", "location": {"lat": 44.5354, "lon": 11.2887}, "countryCode": "IT"}, "averageDailyFlights": 2.29, "operators": [{"name": "Cat Air Service Ag"}, {"name": "Cat Aviation"}, {"name": "SWISS", "iata": "LX", "icao": "SWR"}, {"name": "Globe Air"}]}, {"destination": {"icao": "LROP", "iata": "OTP", "name": "Bucharest Henri Coand\u0103", "shortName": "Henri Coand\u0103", "municipalityName": "Bucharest", "location": {"lat": 44.5722, "lon": 26.1022}, "countryCode": "RO"}, "averageDailyFlights": 2.29, "operators": [{"name": "SWISS", "iata": "LX", "icao": "SWR"}]}, {"destination": {"icao": "OTHH", "iata": "DOH", "name": "Doha Hamad", "shortName": "Hamad", "municipalityName": "Doha", "location": {"lat": 25.273056, "lon": 51.608055}, "countryCode": "QA"}, "averageDailyFlights": 2.29, "operators": [{"name": "Qatar Airways", "iata": "QR", "icao": "QTR"}]}, {"destination": {"icao": "EDDV", "iata": "HAJ", "name": "Hanover Hannover", "shortName": "Hannover", "municipalityName": "Hanover", "location": {"lat": 52.4611, "lon": 9.685079}, "countryCode": "DE"}, "averageDailyFlights": 2.29, "operators": [{"name": "SWISS", "iata": "LX", "icao": "SWR"}, {"name": "Globe Air"}]}, {"destination": {"icao": "ELLX", "iata": "LUX", "name": "Luxembourg -Findel", "shortName": "-Findel", "municipalityName": "Luxembourg", "location": {"lat": 49.6266, "lon": 6.21152}, "countryCode": "LU"}, "averageDailyFlights": 2.29, "operators": [{"name": "SWISS", "iata": "LX", "icao": "SWR"}, {"name": "Arcus Air"}]}, {"destination": {"icao": "EDDM", "iata": "MUC", "name": "Munich ", "shortName": "Munich", "municipalityName": "Munich", "location": {"lat": 48.3538, "lon": 11.7861}, "countryCode": "DE"}, "averageDailyFlights": 2.29, "operators": [{"name": "Aerodienst Gmbh"}, {"name": "Cat Air Service Ag"}, {"name": "Lufthansa", "iata": "LH", "icao": "DLH"}, {"name": "SWISS", "iata": "LX", "icao": "SWR"}, {"name": "Thai Airways International", "iata": "TG", "icao": "THA"}]}, {"destination": {"icao": "KEWR", "iata": "EWR", "name": "Newark Liberty", "shortName": "Liberty", "municipalityName": "Newark", "location": {"lat": 40.6925, "lon": -74.1687}, "countryCode": "US"}, "averageDailyFlights": 2.29, "operators": [{"name": "United Airlines", "iata": "UA", "icao": "UAL"}, {"name": "SWISS", "iata": "LX", "icao": "SWR"}]}, {"destination": {"icao": "WSSS", "iata": "SIN", "name": "Singapore Changi", "shortName": "Changi", "municipalityName": "Singapore", "location": {"lat": 1.35019, "lon": 103.994}, "countryCode": "SG"}, "averageDailyFlights": 2.29, "operators": [{"name": "Singapore Airlines", "iata": "SQ", "icao": "SIA"}, {"name": "SWISS", "iata": "LX", "icao": "SWR"}]}, {"destination": {"icao": "LDZA", "iata": "ZAG", "name": "Zagreb ", "shortName": "Zagreb", "municipalityName": "Zagreb", "location": {"lat": 45.7429, "lon": 16.068798}, "countryCode": "HR"}, "averageDailyFlights": 2.29, "operators": [{"name": "Croatia Airlines", "iata": "OU", "icao": "CTN"}]}, {"destination": {"icao": "KORD", "iata": "ORD", "name": "Chicago O'Hare", "shortName": "O'Hare", "municipalityName": "Chicago", "location": {"lat": 41.9786, "lon": -87.9048}, "countryCode": "US"}, "averageDailyFlights": 2.14, "operators": [{"name": "United Airlines", "iata": "UA", "icao": "UAL"}, {"name": "SWISS", "iata": "LX", "icao": "SWR"}]}, {"destination": {"icao": "EDDK", "iata": "CGN", "name": "Cologne Bonn", "shortName": "Bonn", "municipalityName": "Cologne", "location": {"lat": 50.8659, "lon": 7.142739}, "countryCode": "DE"}, "averageDailyFlights": 2.14, "operators": [{"name": "Jet Aviation Ph"}, {"name": "Eurowings", "iata": "EW", "icao": "EWG"}, {"name": "Netjets"}]}, {"destination": {"icao": "LJLJ", "iata": "LJU", "name": "Ljubljana Jo\u017ee Pu\u010dnik", "shortName": "Jo\u017ee Pu\u010dnik", "municipalityName": "Ljubljana", "location": {"lat": 46.2237, "lon": 14.457599}, "countryCode": "SI"}, "averageDailyFlights": 2.0, "operators": [{"name": "SWISS", "iata": "LX", "icao": "SWR"}]}, {"destination": {"icao": "LEVC", "iata": "VLC", "name": "Valencia ", "shortName": "Valencia", "municipalityName": "Valencia", "location": {"lat": 39.4893, "lon": -0.481624}, "countryCode": "ES"}, "averageDailyFlights": 2.0, "operators": [{"name": "SWISS", "iata": "LX", "icao": "SWR"}]}, {"destination": {"icao": "VHHH", "iata": "HKG", "name": "Hong Kong Chek Lap Kok", "shortName": "Chek Lap Kok", "municipalityName": "Hong Kong", "location": {"lat": 22.3089, "lon": 113.915}, "countryCode": "HK"}, "averageDailyFlights": 1.86, "operators": [{"name": "National Airlines", "iata": "N8", "icao": "NCR"}, {"name": "SWISS", "iata": "LX", "icao": "SWR"}, {"name": "Cathay Pacific", "iata": "CX", "icao": "CPA"}]}, {"destination": {"icao": "EGKK", "iata": "LGW", "name": "London Gatwick", "shortName": "Gatwick", "municipalityName": "London", "location": {"lat": 51.1481, "lon": -0.190277}, "countryCode": "GB"}, "averageDailyFlights": 1.86, "operators": [{"name": "easyJet", "iata": "U2", "icao": "EZY"}]}, {"destination": {"icao": "KMIA", "iata": "MIA", "name": "Miami ", "shortName": "Miami", "municipalityName": "Miami", "location": {"lat": 25.7932, "lon": -80.2906}, "countryCode": "US"}, "averageDailyFlights": 1.86, "operators": [{"name": "SWISS", "iata": "LX", "icao": "SWR"}]}, {"destination": {"icao": "LTFJ", "iata": "SAW", "name": "Istanbul Sabiha G\u00f6k\u00e7en", "shortName": "Sabiha G\u00f6k\u00e7en", "municipalityName": "Istanbul", "location": {"lat": 40.8986, "lon": 29.3092}, "countryCode": "TR"}, "averageDailyFlights": 1.71, "operators": [{"name": "Pegasus", "iata": "PC", "icao": "PGT"}, {"name": "Jet Aviation Ph"}]}, {"destination": {"name": "Cranfield"}, "averageDailyFlights": 1.71, "operators": [{"name": "Cat Air Service Ag"}, {"name": "Motorfluggruppe Zrh"}, {"name": "Execujet"}, {"name": "Jet Aviation Ph"}]}, {"destination": {"icao": "GCLP", "iata": "LPA", "name": "Gran Canaria Island Gran Canaria", "shortName": "Gran Canaria", "municipalityName": "Gran Canaria Island", "location": {"lat": 27.9319, "lon": -15.386599}, "countryCode": "ES"}, "averageDailyFlights": 1.43, "operators": [{"name": "Edelweiss Air", "iata": "WK", "icao": "EDW"}]}, {"destination": {"icao": "HEGN", "iata": "HRG", "name": "Hurghada ", "shortName": "Hurghada", "municipalityName": "Hurghada", "location": {"lat": 27.1783, "lon": 33.7994}, "countryCode": "EG"}, "averageDailyFlights": 1.43, "operators": [{"name": "Edelweiss Air", "iata": "WK", "icao": "EDW"}, {"name": "Tri-MG Intra Asia Airlines", "iata": "GM", "icao": "TMG"}, {"name": "Air Cairo", "iata": "SM", "icao": "MSC"}]}, {"destination": {"icao": "LEAL", "iata": "ALC", "name": "Alicante ", "shortName": "Alicante", "municipalityName": "Alicante", "location": {"lat": 38.2822, "lon": -0.558156}, "countryCode": "ES"}, "averageDailyFlights": 1.29, "operators": [{"name": "SWISS", "iata": "LX", "icao": "SWR"}, {"name": "Vueling", "iata": "VY", "icao": "VLG"}]}, {"destination": {"icao": "EGBB", "iata": "BHX", "name": "Birmingham ", "shortName": "Birmingham", "municipalityName": "Birmingham", "location": {"lat": 52.4539, "lon": -1.748029}, "countryCode": "GB"}, "averageDailyFlights": 1.29, "operators": [{"name": "SWISS", "iata": "LX", "icao": "SWR"}, {"name": "Lufthansa", "iata": "LH", "icao": "DLH"}, {"name": "Globe Air"}, {"name": "Jet Aviation Ph"}]}, {"destination": {"icao": "EDDW", "iata": "BRE", "name": "Bremen ", "shortName": "Bremen", "municipalityName": "Bremen", "location": {"lat": 53.0475, "lon": 8.786669}, "countryCode": "DE"}, "averageDailyFlights": 1.29, "operators": [{"name": "Cat Air Service Ag"}, {"name": "Execujet"}, {"name": "SWISS", "iata": "LX", "icao": "SWR"}, {"name": "Aerodienst Gmbh"}]}, {"destination": {"icao": "HECA", "iata": "CAI", "name": "Cairo ", "shortName": "Cairo", "municipalityName": "Cairo", "location": {"lat": 30.1219, "lon": 31.4056}, "countryCode": "EG"}, "averageDailyFlights": 1.29, "operators": [{"name": "MHS Aviation", "iata": "M2", "icao": "MHV"}, {"name": "SWISS", "iata": "LX", "icao": "SWR"}]}, {"destination": {"icao": "KIAD", "iata": "IAD", "name": "District of Columbia Washington Dulles", "shortName": "Washington Dulles", "municipalityName": "District of Columbia", "location": {"lat": 38.9445, "lon": -77.4558}, "countryCode": "US"}, "averageDailyFlights": 1.29, "operators": [{"name": "United Airlines", "iata": "UA", "icao": "UAL"}]}, {"destination": {"icao": "LMML", "iata": "MLA", "name": "Luqa Malta", "shortName": "Malta", "municipalityName": "Luqa", "location": {"lat": 35.8575, "lon": 14.4775}, "countryCode": "MT"}, "averageDailyFlights": 1.29, "operators": [{"name": "Air Malta", "iata": "KM", "icao": "AMC"}]}, {"destination": {"icao": "SBGR", "iata": "GRU", "name": "S\u00e3o Paulo Guarulhos - Governador Andr\u00e9 Franco Montoro", "shortName": "Guarulhos - Governador Andr\u00e9 Franco Montoro", "municipalityName": "S\u00e3o Paulo", "location": {"lat": -23.435556, "lon": -46.473057}, "countryCode": "BR"}, "averageDailyFlights": 1.29, "operators": [{"name": "SWISS", "iata": "LX", "icao": "SWR"}]}, {"destination": {"icao": "LLBG", "iata": "TLV", "name": "Tel Aviv Yafo Ben Gurion", "shortName": "Ben Gurion", "municipalityName": "Tel Aviv Yafo", "location": {"lat": 32.0114, "lon": 34.8867}, "countryCode": "IL"}, "averageDailyFlights": 1.29, "operators": [{"name": "El Al", "iata": "LY", "icao": "ELY"}]}, {"destination": {"icao": "GCTS", "iata": "TFS", "name": "Tenerife Island Tenerife South", "shortName": "Tenerife South", "municipalityName": "Tenerife Island", "location": {"lat": 28.0445, "lon": -16.5725}, "countryCode": "ES"}, "averageDailyFlights": 1.29, "operators": [{"name": "Edelweiss Air", "iata": "WK", "icao": "EDW"}]}, {"destination": {"icao": "OMAA", "iata": "AUH", "name": "Abu Dhabi Island and Internal Islands City Abu Dhabi", "shortName": "Abu Dhabi", "municipalityName": "Abu Dhabi Island and Internal Islands City", "location": {"lat": 24.433, "lon": 54.6511}, "countryCode": "AE"}, "averageDailyFlights": 1.14, "operators": [{"name": "Etihad Airways", "iata": "EY", "icao": "ETD"}]}, {"destination": {"icao": "KBOS", "iata": "BOS", "name": "Boston General Edward Lawrence Logan", "shortName": "General Edward Lawrence Logan", "municipalityName": "Boston", "location": {"lat": 42.3643, "lon": -71.0052}, "countryCode": "US"}, "averageDailyFlights": 1.14, "operators": [{"name": "SWISS", "iata": "LX", "icao": "SWR"}]}, {"destination": {"icao": "ESGG", "iata": "GOT", "name": "Goteborg Gothenburg-Landvetter", "shortName": "Gothenburg-Landvetter", "municipalityName": "Goteborg", "location": {"lat": 57.6628, "lon": 12.2798}, "countryCode": "SE"}, "averageDailyFlights": 1.14, "operators": [{"name": "SWISS", "iata": "LX", "icao": "SWR"}]}, {"destination": {"icao": "FAOR", "iata": "JNB", "name": "Jo'anna OR Tambo", "shortName": "OR Tambo", "municipalityName": "Jo'anna", "location": {"lat": -26.1392, "lon": 28.246}, "countryCode": "ZA"}, "averageDailyFlights": 1.14, "operators": [{"name": "SWISS", "iata": "LX", "icao": "SWR"}]}, {"destination": {"icao": "LCLK", "iata": "LCA", "name": "Larnarca Larnaca", "shortName": "Larnaca", "municipalityName": "Larnarca", "location": {"lat": 34.8751, "lon": 33.6249}, "countryCode": "CY"}, "averageDailyFlights": 1.14, "operators": [{"name": "CYP"}, {"name": "Edelweiss Air", "iata": "WK", "icao": "EDW"}, {"name": "Cyprus Airways", "iata": "CY"}, {"name": "Private Port"}]}, {"destination": {"icao": "VABB", "iata": "BOM", "name": "Mumbai Chhatrapati Shivaji", "shortName": "Chhatrapati Shivaji", "municipalityName": "Mumbai", "location": {"lat": 19.0887, "lon": 72.8679}, "countryCode": "IN"}, "averageDailyFlights": 1.14, "operators": [{"name": "SWISS", "iata": "LX", "icao": "SWR"}]}, {"destination": {"icao": "VIDP", "iata": "DEL", "name": "New Delhi Indira Gandhi", "shortName": "Indira Gandhi", "municipalityName": "New Delhi", "location": {"lat": 28.5665, "lon": 77.1031}, "countryCode": "IN"}, "averageDailyFlights": 1.14, "operators": [{"name": "SWISS", "iata": "LX", "icao": "SWR"}]}, {"destination": {"icao": "KPHL", "iata": "PHL", "name": "Philadelphia ", "shortName": "Philadelphia", "municipalityName": "Philadelphia", "location": {"lat": 39.8719, "lon": -75.2411}, "countryCode": "US"}, "averageDailyFlights": 1.14, "operators": [{"name": "American Airlines", "iata": "AA", "icao": "AAL"}]}, {"destination": {"icao": "BIKF", "iata": "KEF", "name": "Reykjavik Keflavik", "shortName": "Keflavik", "municipalityName": "Reykjavik", "location": {"lat": 63.985, "lon": -22.6056}, "countryCode": "IS"}, "averageDailyFlights": 1.14, "operators": [{"name": "Icelandair", "iata": "FI", "icao": "ICE"}, {"name": "Edelweiss Air", "iata": "WK", "icao": "EDW"}]}, {"destination": {"icao": "LWSK", "iata": "SKP", "name": "Skopje Alexander the Great", "shortName": "Alexander the Great", "municipalityName": "Skopje", "location": {"lat": 41.9616, "lon": 21.6214}, "countryCode": "MK"}, "averageDailyFlights": 1.14, "operators": [{"name": "Edelweiss Air", "iata": "WK", "icao": "EDW"}, {"name": "Tri-MG Intra Asia Airlines", "iata": "GM", "icao": "TMG"}]}, {"destination": {"icao": "LBSF", "iata": "SOF", "name": "Sofia ", "shortName": "Sofia", "municipalityName": "Sofia", "location": {"lat": 42.696693, "lon": 23.411436}, "countryCode": "BG"}, "averageDailyFlights": 1.14, "operators": [{"name": "Cat Air Service Ag"}, {"name": "Chair Airlines", "iata": "GM", "icao": "GSW"}, {"name": "SWISS", "iata": "LX", "icao": "SWR"}, {"name": "Bulgaria Air", "iata": "FB", "icao": "LZB"}]}, {"destination": {"icao": "CYYZ", "iata": "YYZ", "name": "Toronto Pearson", "shortName": "Pearson", "municipalityName": "Toronto", "location": {"lat": 43.6772, "lon": -79.6306}, "countryCode": "CA"}, "averageDailyFlights": 1.14, "operators": [{"name": "Air Canada", "iata": "AC", "icao": "ACA"}]}, {"destination": {"icao": "EDDC", "iata": "DRS", "name": "Dresden ", "shortName": "Dresden", "municipalityName": "Dresden", "location": {"lat": 51.1328, "lon": 13.7672}, "countryCode": "DE"}, "averageDailyFlights": 1.0, "operators": [{"name": "SWISS", "iata": "LX", "icao": "SWR"}]}, {"destination": {"icao": "EGLF", "iata": "FAB", "name": "Farnborough ", "shortName": "Farnborough", "municipalityName": "Farnborough", "location": {"lat": 51.2758, "lon": -0.776332}, "countryCode": "GB"}, "averageDailyFlights": 1.0, "operators": [{"name": "Netjets"}, {"name": "Vistajet Malta"}, {"name": "Execujet"}, {"name": "Cat Air Service Ag"}, {"name": "Jet Aviation Ph"}, {"name": "Int. Jet Management"}]}, {"destination": {"icao": "KLAX", "iata": "LAX", "name": "Los Angeles ", "shortName": "Los Angeles", "municipalityName": "Los Angeles", "location": {"lat": 33.9425, "lon": -118.408}, "countryCode": "US"}, "averageDailyFlights": 1.0, "operators": [{"name": "SWISS", "iata": "LX", "icao": "SWR"}]}, {"destination": {"icao": "CYUL", "iata": "YUL", "name": "Montreal Trudeau", "shortName": "Trudeau", "municipalityName": "Montreal", "location": {"lat": 45.4706, "lon": -73.7408}, "countryCode": "CA"}, "averageDailyFlights": 1.0, "operators": [{"name": "SWISS", "iata": "LX", "icao": "SWR"}]}, {"destination": {"icao": "EVRA", "iata": "RIX", "localCode": "\u0420\u0418\u0425", "name": "Riga ", "shortName": "Riga", "municipalityName": "Riga", "location": {"lat": 56.9236, "lon": 23.9711}, "countryCode": "LV"}, "averageDailyFlights": 1.0, "operators": [{"name": "airBaltic", "iata": "BT", "icao": "BTI"}]}, {"destination": {"icao": "LOWS", "iata": "SZG", "name": "Salzburg ", "shortName": "Salzburg", "municipalityName": "Salzburg", "location": {"lat": 47.7933, "lon": 13.0043}, "countryCode": "AT"}, "averageDailyFlights": 1.0, "operators": [{"name": "Air Alsie", "iata": "6I", "icao": "MMD"}, {"name": "Execujet"}, {"name": "Netjets"}, {"name": "Lufthansa", "iata": "LH", "icao": "DLH"}]}, {"destination": {"icao": "KSFO", "iata": "SFO", "name": "San Francisco ", "shortName": "San Francisco", "municipalityName": "San Francisco", "location": {"lat": 37.619, "lon": -122.375}, "countryCode": "US"}, "averageDailyFlights": 1.0, "operators": [{"name": "SWISS", "iata": "LX", "icao": "SWR"}]}, {"destination": {"icao": "EDNY", "iata": "FDH", "name": "Friedrichshafen ", "shortName": "Friedrichshafen", "municipalityName": "Friedrichshafen", "location": {"lat": 47.6713, "lon": 9.511489}, "countryCode": "DE"}, "averageDailyFlights": 0.86, "operators": [{"name": "Motorfluggruppe Zrh"}, {"name": "Fzag Gasc"}, {"name": "Jet Aviation Ph"}]}, {"destination": {"icao": "LIML", "iata": "LIN", "name": "Milan Linate", "shortName": "Linate", "municipalityName": "Milan", "location": {"lat": 45.4451, "lon": 9.27674}, "countryCode": "IT"}, "averageDailyFlights": 0.86, "operators": [{"name": "MHS Aviation", "iata": "M2", "icao": "MHV"}, {"name": "Jet Aviation Ph"}, {"name": "Execujet"}, {"name": "Jfa"}, {"name": "Vistajet Malta"}]}, {"destination": {"icao": "EDDN", "iata": "NUE", "name": "Nuremberg ", "shortName": "Nuremberg", "municipalityName": "Nuremberg", "location": {"lat": 49.4987, "lon": 11.0669}, "countryCode": "DE"}, "averageDailyFlights": 0.86, "operators": [{"name": "Execujet"}, {"name": "Motorfluggruppe Zrh"}, {"name": "Arcus Air"}, {"name": "Jet Aviation Ph"}]}, {"destination": {"icao": "ZSPD", "iata": "PVG", "name": "Shanghai Pudong", "shortName": "Pudong", "municipalityName": "Shanghai", "location": {"lat": 31.1434, "lon": 121.805}, "countryCode": "CN"}, "averageDailyFlights": 0.86, "operators": [{"name": "SWISS", "iata": "LX", "icao": "SWR"}]}, {"destination": {"icao": "LGTS", "iata": "SKG", "name": "Thessaloniki Macedonia", "shortName": "Macedonia", "municipalityName": "Thessaloniki", "location": {"lat": 40.5197, "lon": 22.9709}, "countryCode": "GR"}, "averageDailyFlights": 0.86, "operators": [{"name": "SWISS", "iata": "LX", "icao": "SWR"}, {"name": "Aegean Airlines", "iata": "A3", "icao": "AEE"}]}, {"destination": {"icao": "LSZR", "iata": "ACH", "name": "Altenrhein St Gallen", "shortName": "St Gallen", "municipalityName": "Altenrhein", "location": {"lat": 47.485, "lon": 9.56077}, "countryCode": "CH"}, "averageDailyFlights": 0.71, "operators": [{"name": "Motorfluggruppe Zrh"}, {"name": "Fzag Gasc"}, {"name": "Execujet"}, {"name": "Peoples", "iata": "PE", "icao": "PEV"}]}, {"destination": {"icao": "LTAI", "iata": "AYT", "name": "Antalya ", "shortName": "Antalya", "municipalityName": "Antalya", "location": {"lat": 36.8987, "lon": 30.8005}, "countryCode": "TR"}, "averageDailyFlights": 0.71, "operators": [{"name": "Sun Express", "iata": "XQ", "icao": "SXS"}]}, {"destination": {"icao": "EGPH", "iata": "EDI", "name": "Edinburgh ", "shortName": "Edinburgh", "municipalityName": "Edinburgh", "location": {"lat": 55.95, "lon": -3.372499}, "countryCode": "GB"}, "averageDailyFlights": 0.71, "operators": [{"name": "Edelweiss Air", "iata": "WK", "icao": "EDW"}]}, {"destination": {"icao": "EPKK", "iata": "KRK", "name": "Krak\u00f3w John Paul II   -Balice", "shortName": "John Paul II   -Balice", "municipalityName": "Krak\u00f3w", "location": {"lat": 50.0777, "lon": 19.7848}, "countryCode": "PL"}, "averageDailyFlights": 0.71, "operators": [{"name": "SWISS", "iata": "LX", "icao": "SWR"}]}, {"destination": {"icao": "EGKB", "iata": "BQH", "name": "London Biggin Hill", "shortName": "Biggin Hill", "municipalityName": "London", "location": {"lat": 51.3308, "lon": 0.032499}, "countryCode": "GB"}, "averageDailyFlights": 0.71, "operators": [{"name": "Cat Air Service Ag"}, {"name": "Execujet"}]}, {"destination": {"icao": "HEMA", "iata": "RMF", "name": "Marsa Alam ", "shortName": "Marsa Alam", "municipalityName": "Marsa Alam", "location": {"lat": 25.5571, "lon": 34.5837}, "countryCode": "EG"}, "averageDailyFlights": 0.71, "operators": [{"name": "Tri-MG Intra Asia Airlines", "iata": "GM", "icao": "TMG"}, {"name": "Edelweiss Air", "iata": "WK", "icao": "EDW"}]}, {"destination": {"icao": "LIRN", "iata": "NAP", "name": "N\u00e1poli Naples", "shortName": "Naples", "municipalityName": "N\u00e1poli", "location": {"lat": 40.886, "lon": 14.2908}, "countryCode": "IT"}, "averageDailyFlights": 0.71, "operators": [{"name": "SWISS", "iata": "LX", "icao": "SWR"}, {"name": "easyJet", "iata": "U2", "icao": "EZY"}]}, {"destination": {"icao": "OERK", "iata": "RUH", "name": "Riyadh King Khaled", "shortName": "King Khaled", "municipalityName": "Riyadh", "location": {"lat": 24.9576, "lon": 46.6988}, "countryCode": "SA"}, "averageDailyFlights": 0.71, "operators": [{"name": "Saudi Arabian Airlines", "iata": "SV", "icao": "SVA"}, {"name": "ZanAir", "iata": "B4", "icao": "TAN"}]}, {"destination": {"icao": "ESSB", "iata": "BMA", "name": "Stockholm -Bromma", "shortName": "-Bromma", "municipalityName": "Stockholm", "location": {"lat": 59.3544, "lon": 17.941698}, "countryCode": "SE"}, "averageDailyFlights": 0.71, "operators": [{"name": "Netjets"}, {"name": "Cat Air Service Ag"}, {"name": "Air Hamburg"}, {"name": "Jet Aviation Ph"}]}, {"destination": {"icao": "RJAA", "iata": "NRT", "name": "Tokyo Narita", "shortName": "Narita", "municipalityName": "Tokyo", "location": {"lat": 35.7647, "lon": 140.386}, "countryCode": "JP"}, "averageDailyFlights": 0.71, "operators": [{"name": "SWISS", "iata": "LX", "icao": "SWR"}]}, {"destination": {"icao": "MMUN", "iata": "CUN", "name": "Canc\u00fan ", "shortName": "Canc\u00fan", "municipalityName": "Canc\u00fan", "location": {"lat": 21.0365, "lon": -86.8771}, "countryCode": "MX"}, "averageDailyFlights": 0.57, "operators": [{"name": "Edelweiss Air", "iata": "WK", "icao": "EDW"}]}, {"destination": {"icao": "FACT", "iata": "CPT", "name": "Cape Town ", "shortName": "Cape Town", "municipalityName": "Cape Town", "location": {"lat": -33.9648, "lon": 18.6017}, "countryCode": "ZA"}, "averageDailyFlights": 0.57, "operators": [{"name": "Edelweiss Air", "iata": "WK", "icao": "EDW"}]}, {"destination": {"icao": "LOWG", "iata": "GRZ", "name": "Graz ", "shortName": "Graz", "municipalityName": "Graz", "location": {"lat": 46.9911, "lon": 15.439599}, "countryCode": "AT"}, "averageDailyFlights": 0.57, "operators": [{"name": "SWISS", "iata": "LX", "icao": "SWR"}]}, {"destination": {"icao": "GCRR", "iata": "ACE", "name": "Lanzarote Island Lanzarote", "shortName": "Lanzarote", "municipalityName": "Lanzarote Island", "location": {"lat": 28.9455, "lon": -13.605199}, "countryCode": "ES"}, "averageDailyFlights": 0.57, "operators": [{"name": "Edelweiss Air", "iata": "WK", "icao": "EDW"}]}, {"destination": {"icao": "OOMS", "iata": "MCT", "name": "Muscat ", "shortName": "Muscat", "municipalityName": "Muscat", "location": {"lat": 23.5933, "lon": 58.2844}, "countryCode": "OM"}, "averageDailyFlights": 0.57, "operators": [{"name": "Oman Air", "iata": "WY", "icao": "OMA"}]}, {"destination": {"icao": "LFPB", "iata": "LBG", "name": "Paris -Le Bourget", "shortName": "-Le Bourget", "municipalityName": "Paris", "location": {"lat": 48.9694, "lon": 2.44139}, "countryCode": "FR"}, "averageDailyFlights": 0.57, "operators": [{"name": "Cat Air Service Ag"}, {"name": "Air Alsie", "iata": "6I", "icao": "MMD"}, {"name": "Vistajet Malta"}, {"name": "Execujet"}]}, {"destination": {"icao": "LYPG", "iata": "TGD", "name": "Podgorica ", "shortName": "Podgorica", "municipalityName": "Podgorica", "location": {"lat": 42.3594, "lon": 19.2519}, "countryCode": "ME"}, "averageDailyFlights": 0.57, "operators": [{"name": "Air Montenegro"}, {"name": "Vistajet Malta"}]}, {"destination": {"icao": "LQSA", "iata": "SJJ", "name": "Sarajevo ", "shortName": "Sarajevo", "municipalityName": "Sarajevo", "location": {"lat": 43.8246, "lon": 18.3315}, "countryCode": "BA"}, "averageDailyFlights": 0.57, "operators": [{"name": "SWISS", "iata": "LX", "icao": "SWR"}]}, {"destination": {"icao": "LEZL", "iata": "SVQ", "name": "Seville Sevilla", "shortName": "Sevilla", "municipalityName": "Seville", "location": {"lat": 37.418, "lon": -5.893109}, "countryCode": "ES"}, "averageDailyFlights": 0.57, "operators": [{"name": "Edelweiss Air", "iata": "WK", "icao": "EDW"}]}, {"destination": {"icao": "LATI", "iata": "TIA", "name": "Tirana Mother Teresa", "shortName": "Mother Teresa", "municipalityName": "Tirana", "location": {"lat": 41.4147, "lon": 19.7206}, "countryCode": "AL"}, "averageDailyFlights": 0.57, "operators": [{"name": "SWISS", "iata": "LX", "icao": "SWR"}]}, {"destination": {"icao": "LSZB", "iata": "BRN", "name": "Berne Bern Belp", "shortName": "Bern Belp", "municipalityName": "Berne", "location": {"lat": 46.9141, "lon": 7.497149}, "countryCode": "CH"}, "averageDailyFlights": 0.43, "operators": [{"name": "Cat Air Service Ag"}, {"name": "Helvetic Airways", "iata": "2L", "icao": "OAW"}, {"name": "Fzag Gasc"}]}, {"destination": {"icao": "LFBD", "iata": "BOD", "name": "Bordeaux/M\u00e9rignac Bordeaux-M\u00e9rignac", "shortName": "Bordeaux-M\u00e9rignac", "municipalityName": "Bordeaux/M\u00e9rignac", "location": {"lat": 44.8283, "lon": -0.715556}, "countryCode": "FR"}, "averageDailyFlights": 0.43, "operators": [{"name": "SWISS", "iata": "LX", "icao": "SWR"}]}, {"destination": {"icao": "LTBJ", "iata": "ADB", "name": "\u0130zmir Adnan Menderes", "shortName": "Adnan Menderes", "municipalityName": "\u0130zmir", "location": {"lat": 38.2924, "lon": 27.157}, "countryCode": "TR"}, "averageDailyFlights": 0.43, "operators": [{"name": "Sun Express", "iata": "XQ", "icao": "SXS"}]}, {"destination": {"icao": "EDDP", "iata": "LEJ", "name": "Leipzig Halle", "shortName": "Halle", "municipalityName": "Leipzig", "location": {"lat": 51.4324, "lon": 12.2416}, "countryCode": "DE"}, "averageDailyFlights": 0.43, "operators": [{"name": "Execujet"}]}, {"destination": {"icao": "EGGW", "iata": "LTN", "name": "London Luton", "shortName": "Luton", "municipalityName": "London", "location": {"lat": 51.8747, "lon": -0.368333}, "countryCode": "GB"}, "averageDailyFlights": 0.43, "operators": [{"name": "Netjets"}, {"name": "Air Hamburg"}, {"name": "Jet Aviation Ph"}]}, {"destination": {"icao": "GMMX", "iata": "RAK", "name": "Marrakech Menara", "shortName": "Menara", "municipalityName": "Marrakech", "location": {"lat": 31.6069, "lon": -8.036299}, "countryCode": "MA"}, "averageDailyFlights": 0.43, "operators": [{"name": "Edelweiss Air", "iata": "WK", "icao": "EDW"}]}, {"destination": {"icao": "LICJ", "iata": "PMO", "name": "Palermo Falcone\u2013Borsellino", "shortName": "Falcone\u2013Borsellino", "municipalityName": "Palermo", "location": {"lat": 38.176, "lon": 13.090999}, "countryCode": "IT"}, "averageDailyFlights": 0.43, "operators": [{"name": "SWISS", "iata": "LX", "icao": "SWR"}]}, {"destination": {"icao": "VTSP", "iata": "HKT", "name": "Phuket ", "shortName": "Phuket", "municipalityName": "Phuket", "location": {"lat": 8.1132, "lon": 98.3169}, "countryCode": "TH"}, "averageDailyFlights": 0.43, "operators": [{"name": "Edelweiss Air", "iata": "WK", "icao": "EDW"}]}, {"destination": {"icao": "LIRP", "iata": "PSA", "name": "Pisa ", "shortName": "Pisa", "municipalityName": "Pisa", "location": {"lat": 43.6839, "lon": 10.3927}, "countryCode": "IT"}, "averageDailyFlights": 0.43, "operators": [{"name": "Motorfluggruppe Zrh"}, {"name": "Netjets"}]}, {"destination": {"icao": "MROC", "iata": "SJO", "name": "San Jos\u00e9 Juan Santamaria", "shortName": "Juan Santamaria", "municipalityName": "San Jos\u00e9", "location": {"lat": 9.99386, "lon": -84.2088}, "countryCode": "CR"}, "averageDailyFlights": 0.43, "operators": [{"name": "Edelweiss Air", "iata": "WK", "icao": "EDW"}]}, {"destination": {"icao": "LDSP", "iata": "SPU", "name": "Split ", "shortName": "Split", "municipalityName": "Split", "location": {"lat": 43.5389, "lon": 16.298}, "countryCode": "HR"}, "averageDailyFlights": 0.43, "operators": [{"name": "Xro"}, {"name": "Croatia Airlines", "iata": "OU", "icao": "CTN"}]}, {"destination": {"icao": "EETN", "iata": "TLL", "localCode": "TLL", "name": "Tallinn Lennart Meri", "shortName": "Lennart Meri", "municipalityName": "Tallinn", "location": {"lat": 59.4133, "lon": 24.8328}, "countryCode": "EE"}, "averageDailyFlights": 0.43, "operators": [{"name": "SWISS", "iata": "LX", "icao": "SWR"}]}, {"destination": {"icao": "LIMF", "iata": "TRN", "name": "Torino Turin", "shortName": "Turin", "municipalityName": "Torino", "location": {"lat": 45.2008, "lon": 7.64963}, "countryCode": "IT"}, "averageDailyFlights": 0.43, "operators": [{"name": "Netjets"}, {"name": "Vistajet Malta"}]}, {"destination": {"icao": "EYVI", "iata": "VNO", "localCode": "\u0412\u0418\u041b", "name": "Vilnius ", "shortName": "Vilnius", "municipalityName": "Vilnius", "location": {"lat": 54.6341, "lon": 25.2858}, "countryCode": "LT"}, "averageDailyFlights": 0.43, "operators": [{"name": "SWISS", "iata": "LX", "icao": "SWR"}]}, {"destination": {"icao": "EPWR", "iata": "WRO", "name": "Wroc\u0142aw Copernicus", "shortName": "Copernicus", "municipalityName": "Wroc\u0142aw", "location": {"lat": 51.1027, "lon": 16.8858}, "countryCode": "PL"}, "averageDailyFlights": 0.43, "operators": [{"name": "SWISS", "iata": "LX", "icao": "SWR"}]}, {"destination": {"icao": "HTKJ", "iata": "JRO", "name": "Arusha Kilimanjaro", "shortName": "Kilimanjaro", "municipalityName": "Arusha", "location": {"lat": -3.429409, "lon": 37.0745}, "countryCode": "TZ"}, "averageDailyFlights": 0.29, "operators": [{"name": "Edelweiss Air", "iata": "WK", "icao": "EDW"}]}, {"destination": {"icao": "EDMA", "iata": "AGB", "name": "Augsburg ", "shortName": "Augsburg", "municipalityName": "Augsburg", "location": {"lat": 48.425278, "lon": 10.931667}, "countryCode": "DE"}, "averageDailyFlights": 0.29, "operators": [{"name": "Execujet"}, {"name": "Motorfluggruppe Zrh"}]}, {"destination": {"icao": "LFSB", "iata": "BSL", "name": "B\u00e2le/Mulhouse Euro Basel-Mulhouse-Freiburg", "shortName": "Euro Basel-Mulhouse-Freiburg", "municipalityName": "B\u00e2le/Mulhouse", "location": {"lat": 47.5896, "lon": 7.52991}, "countryCode": "FR"}, "averageDailyFlights": 0.29, "operators": [{"name": "Cat Air Service Ag"}, {"name": "Execujet"}]}, {"destination": {"icao": "LEBB", "iata": "BIO", "name": "Bilbao ", "shortName": "Bilbao", "municipalityName": "Bilbao", "location": {"lat": 43.3011, "lon": -2.910609}, "countryCode": "ES"}, "averageDailyFlights": 0.29, "operators": [{"name": "Vueling", "iata": "VY", "icao": "VLG"}]}, {"destination": {"icao": "SKBO", "iata": "BOG", "name": "Bogot\u00e1 El Dorado", "shortName": "El Dorado", "municipalityName": "Bogot\u00e1", "location": {"lat": 4.70159, "lon": -74.1469}, "countryCode": "CO"}, "averageDailyFlights": 0.29, "operators": [{"name": "Edelweiss Air", "iata": "WK", "icao": "EDW"}]}, {"destination": {"icao": "LIBR", "iata": "BDS", "name": "Brindisi \u2013 Salento", "shortName": "\u2013 Salento", "municipalityName": "Brindisi", "location": {"lat": 40.6576, "lon": 17.947}, "countryCode": "IT"}, "averageDailyFlights": 0.29, "operators": [{"name": "SWISS", "iata": "LX", "icao": "SWR"}]}, {"destination": {"icao": "LICC", "iata": "CTA", "name": "Catania -Fontanarossa", "shortName": "-Fontanarossa", "municipalityName": "Catania", "location": {"lat": 37.4668, "lon": 15.066399}, "countryCode": "IT"}, "averageDailyFlights": 0.29, "operators": [{"name": "Edelweiss Air", "iata": "WK", "icao": "EDW"}]}, {"destination": {"icao": "VCBI", "iata": "CMB", "name": "Colombo Bandaranaike", "shortName": "Bandaranaike", "municipalityName": "Colombo", "location": {"lat": 7.180759, "lon": 79.8841}, "countryCode": "LK"}, "averageDailyFlights": 0.29, "operators": [{"name": "Edelweiss Air", "iata": "WK", "icao": "EDW"}]}, {"destination": {"icao": "GVAC", "iata": "SID", "name": "Espargos Am\u00edlcar Cabral", "shortName": "Am\u00edlcar Cabral", "municipalityName": "Espargos", "location": {"lat": 16.7414, "lon": -22.9494}, "countryCode": "CV"}, "averageDailyFlights": 0.29, "operators": [{"name": "Edelweiss Air", "iata": "WK", "icao": "EDW"}]}, {"destination": {"icao": "LPMA", "iata": "FNC", "name": "Funchal Madeira", "shortName": "Madeira", "municipalityName": "Funchal", "location": {"lat": 32.6979, "lon": -16.7745}, "countryCode": "PT"}, "averageDailyFlights": 0.29, "operators": [{"name": "Edelweiss Air", "iata": "WK", "icao": "EDW"}]}, {"destination": {"icao": "MUHA", "iata": "HAV", "name": "Havana Jos\u00e9 Mart\u00ed", "shortName": "Jos\u00e9 Mart\u00ed", "municipalityName": "Havana", "location": {"lat": 22.9892, "lon": -82.4091}, "countryCode": "CU"}, "averageDailyFlights": 0.29, "operators": [{"name": "Edelweiss Air", "iata": "WK", "icao": "EDW"}]}, {"destination": {"icao": "LSZA", "iata": "LUG", "name": "Lugano ", "shortName": "Lugano", "municipalityName": "Lugano", "location": {"lat": 46.0043, "lon": 8.910579}, "countryCode": "CH"}, "averageDailyFlights": 0.29, "operators": [{"name": "Cat Aviation"}, {"name": "Execujet"}]}, {"destination": {"icao": "HELX", "iata": "LXR", "name": "Luxor ", "shortName": "Luxor", "municipalityName": "Luxor", "location": {"lat": 25.671, "lon": 32.7066}, "countryCode": "EG"}, "averageDailyFlights": 0.29, "operators": [{"name": "Edelweiss Air", "iata": "WK", "icao": "EDW"}]}, {"destination": {"icao": "EHBK", "iata": "MST", "name": "Maastricht Aachen", "shortName": "Aachen", "municipalityName": "Maastricht", "location": {"lat": 50.9117, "lon": 5.77014}, "countryCode": "NL"}, "averageDailyFlights": 0.29, "operators": [{"name": "SWISS", "iata": "LX", "icao": "SWR"}]}, {"destination": {"icao": "VRMM", "iata": "MLE", "name": "Mal\u00e9 ", "shortName": "Mal\u00e9", "municipalityName": "Mal\u00e9", "location": {"lat": 4.19183, "lon": 73.5291}, "countryCode": "MV"}, "averageDailyFlights": 0.29, "operators": [{"name": "Edelweiss Air", "iata": "WK", "icao": "EDW"}]}, {"destination": {"icao": "LFML", "iata": "MRS", "name": "Marseille Provence", "shortName": "Provence", "municipalityName": "Marseille", "location": {"lat": 43.43927, "lon": 5.221424}, "countryCode": "FR"}, "averageDailyFlights": 0.29, "operators": [{"name": "SWISS", "iata": "LX", "icao": "SWR"}]}, {"destination": {"icao": "LFRS", "iata": "NTE", "name": "Nantes Atlantique", "shortName": "Atlantique", "municipalityName": "Nantes", "location": {"lat": 47.1532, "lon": -1.61073}, "countryCode": "FR"}, "averageDailyFlights": 0.29, "operators": [{"name": "SWISS", "iata": "LX", "icao": "SWR"}]}, {"destination": {"icao": "EDLP", "iata": "PAD", "name": "Paderborn Lippstadt", "shortName": "Lippstadt", "municipalityName": "Paderborn", "location": {"lat": 51.6141, "lon": 8.616319}, "countryCode": "DE"}, "averageDailyFlights": 0.29, "operators": [{"name": "Jet-Link"}, {"name": "Motorfluggruppe Zrh"}]}, {"destination": {"icao": "FIMP", "iata": "MRU", "name": "Port Louis Sir Seewoosagur Ramgoolam", "shortName": "Sir Seewoosagur Ramgoolam", "municipalityName": "Port Louis", "location": {"lat": -20.4302, "lon": 57.6836}, "countryCode": "MU"}, "averageDailyFlights": 0.29, "operators": [{"name": "Edelweiss Air", "iata": "WK", "icao": "EDW"}]}, {"destination": {"icao": "LDPL", "iata": "PUY", "name": "Pula ", "shortName": "Pula", "municipalityName": "Pula", "location": {"lat": 44.8935, "lon": 13.9222}, "countryCode": "HR"}, "averageDailyFlights": 0.29, "operators": [{"name": "Croatia Airlines", "iata": "OU", "icao": "CTN"}]}, {"destination": {"icao": "MDPC", "iata": "PUJ", "name": "Punta Cana ", "shortName": "Punta Cana", "municipalityName": "Punta Cana", "location": {"lat": 18.567398, "lon": -68.3634}, "countryCode": "DO"}, "averageDailyFlights": 0.29, "operators": [{"name": "Edelweiss Air", "iata": "WK", "icao": "EDW"}]}, {"destination": {"icao": "KTPA", "iata": "TPA", "name": "Tampa ", "shortName": "Tampa", "municipalityName": "Tampa", "location": {"lat": 27.9755, "lon": -82.5332}, "countryCode": "US"}, "averageDailyFlights": 0.29, "operators": [{"name": "Edelweiss Air", "iata": "WK", "icao": "EDW"}]}, {"destination": {"icao": "UGTB", "iata": "TBS", "name": "Tbilisi ", "shortName": "Tbilisi", "municipalityName": "Tbilisi", "location": {"lat": 41.6692, "lon": 44.9547}, "countryCode": "GE"}, "averageDailyFlights": 0.29, "operators": [{"name": "Jet Aviation Ph"}]}, {"destination": {"icao": "KTTN", "iata": "TTN", "name": "Trenton Mercer", "shortName": "Mercer", "municipalityName": "Trenton", "location": {"lat": 40.2767, "lon": -74.8135}, "countryCode": "US"}, "averageDailyFlights": 0.29, "operators": [{"name": "Jet Aviation Ph"}]}, {"destination": {"icao": "ENTC", "iata": "TOS", "name": "Troms\u00f8 ", "shortName": "Troms\u00f8", "municipalityName": "Troms\u00f8", "location": {"lat": 69.6833, "lon": 18.9189}, "countryCode": "NO"}, "averageDailyFlights": 0.29, "operators": [{"name": "Edelweiss Air", "iata": "WK", "icao": "EDW"}]}, {"destination": {"icao": "ENAL", "iata": "AES", "name": "\u00c5lesund ", "shortName": "\u00c5lesund", "municipalityName": "\u00c5lesund", "location": {"lat": 62.5625, "lon": 6.119699}, "countryCode": "NO"}, "averageDailyFlights": 0.14, "operators": [{"name": "Cat Air Service Ag"}]}, {"destination": {"icao": "OJAM", "iata": "ADJ", "name": "Amman -Marka", "shortName": "-Marka", "municipalityName": "Amman", "location": {"lat": 31.9727, "lon": 35.9916}, "countryCode": "JO"}, "averageDailyFlights": 0.14, "operators": [{"name": "Execujet"}]}, {"destination": {"icao": "OJAI", "iata": "AMM", "name": "Amman Queen Alia", "shortName": "Queen Alia", "municipalityName": "Amman", "location": {"lat": 31.7226, "lon": 35.9932}, "countryCode": "JO"}, "averageDailyFlights": 0.14, "operators": [{"name": "Royal Jordanian", "iata": "RJ", "icao": "RJA"}]}, {"destination": {"icao": "ORER", "iata": "EBL", "name": "Arbil Erbil", "shortName": "Erbil", "municipalityName": "Arbil", "location": {"lat": 36.2376, "lon": 43.9632}, "countryCode": "IQ"}, "averageDailyFlights": 0.14, "operators": [{"name": "Jet Aviation Ph"}]}, {"destination": {"icao": "NZAA", "iata": "AKL", "name": "Auckland ", "shortName": "Auckland", "municipalityName": "Auckland", "location": {"lat": -37.0081, "lon": 174.792}, "countryCode": "NZ"}, "averageDailyFlights": 0.14, "operators": [{"name": "Cat Aviation"}]}, {"destination": {"icao": "UBBB", "iata": "GYD", "localCode": "\u0411\u0410\u041a", "name": "Baku Heydar Aliyev", "shortName": "Heydar Aliyev", "municipalityName": "Baku", "location": {"lat": 40.4675, "lon": 50.0467}, "countryCode": "AZ"}, "averageDailyFlights": 0.14, "operators": [{"name": "Execujet"}]}, {"destination": {"icao": "LIBD", "iata": "BRI", "name": "Bari Karol Wojty\u0142a", "shortName": "Karol Wojty\u0142a", "municipalityName": "Bari", "location": {"lat": 41.1389, "lon": 16.7606}, "countryCode": "IT"}, "averageDailyFlights": 0.14, "operators": [{"name": "Air Hamburg"}]}, {"destination": {"icao": "EGAA", "iata": "BFS", "name": "Belfast ", "shortName": "Belfast", "municipalityName": "Belfast", "location": {"lat": 54.6575, "lon": -6.215829}, "countryCode": "GB"}, "averageDailyFlights": 0.14, "operators": [{"name": "Cat Air Service Ag"}]}, {"destination": {"icao": "LIME", "iata": "BGY", "name": "Bergamo Orio al Serio", "shortName": "Orio al Serio", "municipalityName": "Bergamo", "location": {"lat": 45.6739, "lon": 9.70417}, "countryCode": "IT"}, "averageDailyFlights": 0.14, "operators": [{"name": "Cat Air Service Ag"}]}, {"destination": {"icao": "EKBI", "iata": "BLL", "name": "Billund ", "shortName": "Billund", "municipalityName": "Billund", "location": {"lat": 55.7403, "lon": 9.15178}, "countryCode": "DK"}, "averageDailyFlights": 0.14, "operators": [{"name": "Jet Aviation Ph"}]}, {"destination": {"icao": "EGGD", "iata": "BRS", "name": "Bristol ", "shortName": "Bristol", "municipalityName": "Bristol", "location": {"lat": 51.3827, "lon": -2.719089}, "countryCode": "GB"}, "averageDailyFlights": 0.14, "operators": [{"name": "Netjets"}]}, {"destination": {"icao": "EBCI", "iata": "CRL", "name": "Brussels South Charleroi", "shortName": "South Charleroi", "municipalityName": "Brussels", "location": {"lat": 50.4592, "lon": 4.45382}, "countryCode": "BE"}, "averageDailyFlights": 0.14, "operators": [{"name": "Execujet"}]}, {"destination": {"icao": "LIMZ", "iata": "CUF", "name": "Cuneo ", "shortName": "Cuneo", "municipalityName": "Cuneo", "location": {"lat": 44.547, "lon": 7.623219}, "countryCode": "IT"}, "averageDailyFlights": 0.14, "operators": [{"name": "Cat Aviation"}]}, {"destination": {"icao": "LFRG", "iata": "DOL", "name": "Deauville -Saint-Gatien", "shortName": "-Saint-Gatien", "municipalityName": "Deauville", "location": {"lat": 49.3653, "lon": 0.154305}, "countryCode": "FR"}, "averageDailyFlights": 0.14, "operators": [{"name": "Motorfluggruppe Zrh"}]}, {"destination": {"icao": "LDDU", "iata": "DBV", "name": "Dubrovnik ", "shortName": "Dubrovnik", "municipalityName": "Dubrovnik", "location": {"lat": 42.5614, "lon": 18.2682}, "countryCode": "HR"}, "averageDailyFlights": 0.14, "operators": [{"name": "Cat Air Service Ag"}]}, {"destination": {"icao": "GCFV", "iata": "FUE", "name": "Fuerteventura Island Fuerteventura", "shortName": "Fuerteventura", "municipalityName": "Fuerteventura Island", "location": {"lat": 28.4527, "lon": -13.8638}, "countryCode": "ES"}, "averageDailyFlights": 0.14, "operators": [{"name": "Edelweiss Air", "iata": "WK", "icao": "EDW"}]}, {"destination": {"icao": "LIMJ", "iata": "GOA", "name": "Genova Genoa Cristoforo Colombo", "shortName": "Genoa Cristoforo Colombo", "municipalityName": "Genova", "location": {"lat": 44.4133, "lon": 8.837499}, "countryCode": "IT"}, "averageDailyFlights": 0.14, "operators": [{"name": "Cat Air Service Ag"}]}, {"destination": {"icao": "MWCR", "iata": "GCM", "name": "Georgetown Owen Roberts", "shortName": "Owen Roberts", "municipalityName": "Georgetown", "location": {"lat": 19.2928, "lon": -81.3577}, "countryCode": "KY"}, "averageDailyFlights": 0.14, "operators": [{"name": "Jet Aviation Ph"}]}, {"destination": {"icao": "EGPF", "iata": "GLA", "name": "Glasgow ", "shortName": "Glasgow", "municipalityName": "Glasgow", "location": {"lat": 55.8719, "lon": -4.43306}, "countryCode": "GB"}, "averageDailyFlights": 0.14, "operators": [{"name": "Execujet"}]}, {"destination": {"icao": "LRIA", "iata": "IAS", "name": "Ia\u015fi ", "shortName": "Ia\u015fi", "municipalityName": "Ia\u015fi", "location": {"lat": 47.1785, "lon": 27.6206}, "countryCode": "RO"}, "averageDailyFlights": 0.14, "operators": [{"name": "Netjets"}]}, {"destination": {"icao": "LEIB", "iata": "IBZ", "name": "Ibiza Town Ibiza", "shortName": "Ibiza", "municipalityName": "Ibiza Town", "location": {"lat": 38.8729, "lon": 1.373119}, "countryCode": "ES"}, "averageDailyFlights": 0.14, "operators": [{"name": "Jet Aviation Ph"}]}, {"destination": {"icao": "EGPE", "iata": "INV", "name": "Inverness ", "shortName": "Inverness", "municipalityName": "Inverness", "location": {"lat": 57.5425, "lon": -4.0475}, "countryCode": "GB"}, "averageDailyFlights": 0.14, "operators": [{"name": "Cat Air Service Ag"}]}, {"destination": {"icao": "OMDW", "iata": "DWC", "name": "Jebel Ali Al Maktoum", "shortName": "Al Maktoum", "municipalityName": "Jebel Ali", "location": {"lat": 24.896666, "lon": 55.16139}, "countryCode": "AE"}, "averageDailyFlights": 0.14, "operators": [{"name": "Air Hamburg"}]}, {"destination": {"icao": "OEJN", "iata": "JED", "name": "Jeddah King Abdulaziz", "shortName": "King Abdulaziz", "municipalityName": "Jeddah", "location": {"lat": 21.6796, "lon": 39.1565}, "countryCode": "SA"}, "averageDailyFlights": 0.14, "operators": [{"name": "Quatar Executive"}]}, {"destination": {"icao": "FALA", "iata": "HLA", "name": "Jo'anna Lanseria", "shortName": "Lanseria", "municipalityName": "Jo'anna", "location": {"lat": -25.9385, "lon": 27.9261}, "countryCode": "ZA"}, "averageDailyFlights": 0.14, "operators": [{"name": "Execujet"}]}, {"destination": {"icao": "EGTK", "iata": "OXF", "name": "Kidlington Oxford ()", "shortName": "Oxford ()", "municipalityName": "Kidlington", "location": {"lat": 51.8369, "lon": -1.32}, "countryCode": "GB"}, "averageDailyFlights": 0.14, "operators": [{"name": "Execujet"}]}, {"destination": {"icao": "LOWK", "iata": "KLU", "name": "Klagenfurt am W\u00f6rthersee Klagenfurt", "shortName": "Klagenfurt", "municipalityName": "Klagenfurt am W\u00f6rthersee", "location": {"lat": 46.6425, "lon": 14.337699}, "countryCode": "AT"}, "averageDailyFlights": 0.14, "operators": [{"name": "Globe Air"}]}, {"destination": {"icao": "LSGL", "iata": "QLS", "name": "Lausanne -Bl\u00e9cherette", "shortName": "-Bl\u00e9cherette", "municipalityName": "Lausanne", "location": {"lat": 46.5453, "lon": 6.61667}, "countryCode": "CH"}, "averageDailyFlights": 0.14, "operators": [{"name": "Cat Air Service Ag"}]}, {"destination": {"icao": "LOWL", "iata": "LNZ", "name": "Linz ", "shortName": "Linz", "municipalityName": "Linz", "location": {"lat": 48.2332, "lon": 14.1875}, "countryCode": "AT"}, "averageDailyFlights": 0.14, "operators": [{"name": "Cat Air Service Ag"}]}, {"destination": {"icao": "LSZL", "iata": "ZJI", "name": "Locarno ", "shortName": "Locarno", "municipalityName": "Locarno", "location": {"lat": 46.1608, "lon": 8.878609}, "countryCode": "CH"}, "averageDailyFlights": 0.14, "operators": [{"name": "Motorfluggruppe Zrh"}]}, {"destination": {"icao": "LFLY", "iata": "LYN", "name": "Lyon/Bron Lyon-Bron", "shortName": "Lyon-Bron", "municipalityName": "Lyon/Bron", "location": {"lat": 45.7272, "lon": 4.94427}, "countryCode": "FR"}, "averageDailyFlights": 0.14, "operators": [{"name": "Jet Aviation Ph"}]}, {"destination": {"icao": "EDFM", "iata": "MHG", "name": "Mannheim -City", "shortName": "-City", "municipalityName": "Mannheim", "location": {"lat": 49.473057, "lon": 8.514166}, "countryCode": "DE"}, "averageDailyFlights": 0.14, "operators": [{"name": "Windrose Air"}]}, {"destination": {"icao": "EDJA", "iata": "FMM", "name": "Memmingen Allgau", "shortName": "Allgau", "municipalityName": "Memmingen", "location": {"lat": 47.9888, "lon": 10.2395}, "countryCode": "DE"}, "averageDailyFlights": 0.14, "operators": [{"name": "Motorfluggruppe Zrh"}]}, {"destination": {"icao": "EDLN", "iata": "MGL", "name": "M\u00f6nchengladbach ", "shortName": "M\u00f6nchengladbach", "municipalityName": "M\u00f6nchengladbach", "location": {"lat": 51.230278, "lon": 6.504444}, "countryCode": "DE"}, "averageDailyFlights": 0.14, "operators": [{"name": "Jet Aviation Ph"}]}, {"destination": {"icao": "KMMU", "iata": "MMU", "name": "Morristown Municipal", "shortName": "Municipal", "municipalityName": "Morristown", "location": {"lat": 40.7994, "lon": -74.4149}, "countryCode": "US"}, "averageDailyFlights": 0.14, "operators": [{"name": "Jet Aviation Ph"}]}, {"destination": {"icao": "EDDG", "iata": "FMO", "name": "M\u00fcnster Osnabr\u00fcck", "shortName": "Osnabr\u00fcck", "municipalityName": "M\u00fcnster", "location": {"lat": 52.1346, "lon": 7.68483}, "countryCode": "DE"}, "averageDailyFlights": 0.14, "operators": [{"name": "Execujet"}]}, {"destination": {"icao": "LFTW", "iata": "FNI", "name": "N\u00eemes/Garons N\u00eemes-Arles-Camargue", "shortName": "N\u00eemes-Arles-Camargue", "municipalityName": "N\u00eemes/Garons", "location": {"lat": 43.7574, "lon": 4.416349}, "countryCode": "FR"}, "averageDailyFlights": 0.14, "operators": [{"name": "Netjets"}]}, {"destination": {"icao": "EGSH", "iata": "NWI", "name": "Norwich ", "shortName": "Norwich", "municipalityName": "Norwich", "location": {"lat": 52.6758, "lon": 1.28278}, "countryCode": "GB"}, "averageDailyFlights": 0.14, "operators": [{"name": "Edelweiss Air", "iata": "WK", "icao": "EDW"}]}, {"destination": {"icao": "LWOH", "iata": "OHD", "name": "Ohrid St. Paul the Apostle", "shortName": "St. Paul the Apostle", "municipalityName": "Ohrid", "location": {"lat": 41.18, "lon": 20.7423}, "countryCode": "MK"}, "averageDailyFlights": 0.14, "operators": [{"name": "Tri-MG Intra Asia Airlines", "iata": "GM", "icao": "TMG"}]}, {"destination": {"icao": "LIEO", "iata": "OLB", "name": "Olbia Costa Smeralda", "shortName": "Costa Smeralda", "municipalityName": "Olbia", "location": {"lat": 40.8987, "lon": 9.517629}, "countryCode": "IT"}, "averageDailyFlights": 0.14, "operators": [{"name": "Cat Air Service Ag"}]}, {"destination": {"icao": "ESOE", "iata": "ORB", "name": "\u00d6rebro ", "shortName": "\u00d6rebro", "municipalityName": "\u00d6rebro", "location": {"lat": 59.2237, "lon": 15.038}, "countryCode": "SE"}, "averageDailyFlights": 0.14, "operators": [{"name": "National Airlines", "iata": "N8", "icao": "NCR"}]}, {"destination": {"icao": "LIMP", "iata": "PMF", "name": "Parma ", "shortName": "Parma", "municipalityName": "Parma", "location": {"lat": 44.8245, "lon": 10.2964}, "countryCode": "IT"}, "averageDailyFlights": 0.14, "operators": [{"name": "Jet Aviation Ph"}]}, {"destination": {"icao": "KPSM", "iata": "PSM", "name": "Portsmouth at Pease", "shortName": "at Pease", "municipalityName": "Portsmouth", "location": {"lat": 43.0779, "lon": -70.8233}, "countryCode": "US"}, "averageDailyFlights": 0.14, "operators": [{"name": "Jet Aviation Ph"}]}, {"destination": {"icao": "MDPP", "iata": "POP", "name": "Puerto Plata Gregorio Luperon", "shortName": "Gregorio Luperon", "municipalityName": "Puerto Plata", "location": {"lat": 19.7579, "lon": -70.57}, "countryCode": "DO"}, "averageDailyFlights": 0.14, "operators": [{"name": "Edelweiss Air", "iata": "WK", "icao": "EDW"}]}, {"destination": {"icao": "GVBA", "iata": "BVC", "name": "Rabil ", "shortName": "Rabil", "municipalityName": "Rabil", "location": {"lat": 16.1365, "lon": -22.8889}, "countryCode": "CV"}, "averageDailyFlights": 0.14, "operators": [{"name": "Edelweiss Air", "iata": "WK", "icao": "EDW"}]}, {"destination": {"icao": "LFRN", "iata": "RNS", "name": "Rennes/Saint-Jacques Rennes-Saint-Jacques", "shortName": "Rennes-Saint-Jacques", "municipalityName": "Rennes/Saint-Jacques", "location": {"lat": 48.0695, "lon": -1.734789}, "countryCode": "FR"}, "averageDailyFlights": 0.14, "operators": [{"name": "Gestair Executive"}]}, {"destination": {"icao": "LIPR", "iata": "RMI", "name": "Rimini Federico Fellini", "shortName": "Federico Fellini", "municipalityName": "Rimini", "location": {"lat": 44.0203, "lon": 12.6117}, "countryCode": "IT"}, "averageDailyFlights": 0.14, "operators": [{"name": "Cat Air Service Ag"}]}, {"destination": {"icao": "LIRA", "iata": "CIA", "name": "Roma Ciampino\u2013G. B. Pastine", "shortName": "Ciampino\u2013G. B. Pastine", "municipalityName": "Roma", "location": {"lat": 41.7994, "lon": 12.5949}, "countryCode": "IT"}, "averageDailyFlights": 0.14, "operators": [{"name": "Vistajet Malta"}]}, {"destination": {"icao": "ETNL", "iata": "RLG", "name": "Rostock -Laage", "shortName": "-Laage", "municipalityName": "Rostock", "location": {"lat": 53.9182, "lon": 12.2783}, "countryCode": "DE"}, "averageDailyFlights": 0.14, "operators": [{"name": "Cat Air Service Ag"}]}, {"destination": {"icao": "EHRD", "iata": "RTM", "name": "Rotterdam The Hague", "shortName": "The Hague", "municipalityName": "Rotterdam", "location": {"lat": 51.9569, "lon": 4.43722}, "countryCode": "NL"}, "averageDailyFlights": 0.14, "operators": [{"name": "Execujet"}]}, {"destination": {"icao": "RKSI", "iata": "ICN", "name": "Seoul Incheon", "shortName": "Incheon", "municipalityName": "Seoul", "location": {"lat": 37.4691, "lon": 126.451}, "countryCode": "KR"}, "averageDailyFlights": 0.14, "operators": [{"name": "Korean Air", "iata": "KE", "icao": "KAL"}]}, {"destination": {"icao": "HESH", "iata": "SSH", "name": "Sharm el Sheikh ", "shortName": "Sharm el Sheikh", "municipalityName": "Sharm el Sheikh", "location": {"lat": 27.9773, "lon": 34.395}, "countryCode": "EG"}, "averageDailyFlights": 0.14, "operators": [{"name": "Edelweiss Air", "iata": "WK", "icao": "EDW"}]}, {"destination": {"icao": "EGJB", "iata": "GCI", "name": "St Peter Port Guernsey", "shortName": "Guernsey", "municipalityName": "St Peter Port", "location": {"lat": 49.435, "lon": -2.601969}, "countryCode": "GG"}, "averageDailyFlights": 0.14, "operators": [{"name": "Cat Air Service Ag"}]}, {"destination": {"icao": "GCLA", "iata": "SPC", "name": "Sta Cruz de la Palma, La Palma Island La Palma", "shortName": "La Palma", "municipalityName": "Sta Cruz de la Palma, La Palma Island", "location": {"lat": 28.6265, "lon": -17.755598}, "countryCode": "ES"}, "averageDailyFlights": 0.14, "operators": [{"name": "Edelweiss Air", "iata": "WK", "icao": "EDW"}]}, {"destination": {"icao": "ESKN", "iata": "NYO", "name": "Stockholm / Nyk\u00f6ping Skavsta", "shortName": "Skavsta", "municipalityName": "Stockholm / Nyk\u00f6ping", "location": {"lat": 58.7886, "lon": 16.9122}, "countryCode": "SE"}, "averageDailyFlights": 0.14, "operators": [{"name": "Netjets"}]}, {"destination": {"icao": "KTEB", "iata": "TEB", "name": "Teterboro ", "shortName": "Teterboro", "municipalityName": "Teterboro", "location": {"lat": 40.8501, "lon": -74.0608}, "countryCode": "US"}, "averageDailyFlights": 0.14, "operators": [{"name": "Jet Aviation Ph"}]}, {"destination": {"icao": "MPTO", "iata": "PTY", "name": "Tocumen ", "shortName": "Tocumen", "municipalityName": "Tocumen", "location": {"lat": 9.071359, "lon": -79.3835}, "countryCode": "PA"}, "averageDailyFlights": 0.14, "operators": [{"name": "Avcon Jet Ag"}]}, {"destination": {"icao": "ENVA", "iata": "TRD", "name": "Trondheim V\u00e6rnes", "shortName": "V\u00e6rnes", "municipalityName": "Trondheim", "location": {"lat": 63.4578, "lon": 10.923999}, "countryCode": "NO"}, "averageDailyFlights": 0.14, "operators": [{"name": "Execujet"}]}, {"destination": {"icao": "LEVD", "iata": "VLL", "name": "Valladolid ", "shortName": "Valladolid", "municipalityName": "Valladolid", "location": {"lat": 41.7061, "lon": -4.85194}, "countryCode": "ES"}, "averageDailyFlights": 0.14, "operators": [{"name": "Jet Aviation Ph"}]}, {"destination": {"icao": "LIPX", "iata": "VRN", "name": "Verona Villafranca", "shortName": "Villafranca", "municipalityName": "Verona", "location": {"lat": 45.3957, "lon": 10.8885}, "countryCode": "IT"}, "averageDailyFlights": 0.14, "operators": [{"name": "Netjets"}]}, {"destination": {"icao": "EDLV", "iata": "NRN", "name": "Weeze Niederrhein", "shortName": "Niederrhein", "municipalityName": "Weeze", "location": {"lat": 51.6024, "lon": 6.142169}, "countryCode": "DE"}, "averageDailyFlights": 0.14, "operators": [{"name": "Cat Air Service Ag"}]}, {"destination": {"name": "OPF"}, "averageDailyFlights": 0.14, "operators": [{"name": "Execujet"}]}, {"destination": {"name": "ORL"}, "averageDailyFlights": 0.14, "operators": [{"name": "Vistajet Malta"}]}, {"destination": {"name": "ZNV"}, "averageDailyFlights": 0.14, "operators": [{"name": "Jet Aviation Ph"}]}]}