{"routes": [{"destination": {"icao": "KMIA", "iata": "MIA", "name": "Miami ", "shortName": "Miami", "municipalityName": "Miami", "location": {"lat": 25.7932, "lon": -80.2906}, "countryCode": "US"}, "averageDailyFlights": 9.57, "operators": [{"name": "American Airlines", "iata": "AA", "icao": "AAL"}, {"name": "Delta Air Lines", "iata": "DL", "icao": "DAL"}]}, {"destination": {"icao": "MPTO", "iata": "PTY", "name": "Tocumen ", "shortName": "Tocumen", "municipalityName": "Tocumen", "location": {"lat": 9.071359, "lon": -79.3835}, "countryCode": "PA"}, "averageDailyFlights": 4.29, "operators": [{"name": "Copa Airlines", "iata": "CM", "icao": "CMP"}]}, {"destination": {"icao": "KFLL", "iata": "FLL", "name": "Fort Lauderdale Hollywood", "shortName": "Hollywood", "municipalityName": "Fort Lauderdale", "location": {"lat": 26.0726, "lon": -80.1527}, "countryCode": "US"}, "averageDailyFlights": 3.43, "operators": [{"name": "Southwest Airlines", "iata": "WN", "icao": "SWA"}]}, {"destination": {"icao": "MMUN", "iata": "CUN", "name": "Canc\u00fan ", "shortName": "Canc\u00fan", "municipalityName": "Canc\u00fan", "location": {"lat": 21.0365, "lon": -86.8771}, "countryCode": "MX"}, "averageDailyFlights": 2.71, "operators": [{"name": "Euroairlines", "iata": "Q4", "icao": "ELE"}, {"name": "A.P.G. Distribution System"}, {"name": "Neos", "iata": "NO", "icao": "NOS"}, {"name": "VivaAerobus", "iata": "VB", "icao": "VIV"}]}, {"destination": {"icao": "LEMD", "iata": "MAD", "name": "Madrid Adolfo Su\u00e1rez \u2013Barajas", "shortName": "Adolfo Su\u00e1rez \u2013Barajas", "municipalityName": "Madrid", "location": {"lat": 40.4936, "lon": -3.56676}, "countryCode": "ES"}, "averageDailyFlights": 2.29, "operators": [{"name": "Iberia", "iata": "IB", "icao": "IBE"}, {"name": "Air Europa", "iata": "UX", "icao": "AEA"}, {"name": "Multiple Solutions Limited", "iata": "2W"}, {"name": "Evelop Airlines", "iata": "E9", "icao": "EVE"}]}, {"destination": {"icao": "MMMX", "iata": "MEX", "name": "Mexico City Licenciado Benito Juarez", "shortName": "Licenciado Benito Juarez", "municipalityName": "Mexico City", "location": {"lat": 19.4363, "lon": -99.0721}, "countryCode": "MX"}, "averageDailyFlights": 2.29, "operators": [{"name": "Aeromexico", "iata": "AM", "icao": "AMX"}, {"name": "VivaAerobus", "iata": "VB", "icao": "VIV"}]}, {"destination": {"icao": "SVMI", "iata": "CCS", "name": "Caracas Sim\u00f3n Bol\u00edvar", "shortName": "Sim\u00f3n Bol\u00edvar", "municipalityName": "Caracas", "location": {"lat": 10.603116, "lon": -66.990585}, "countryCode": "VE"}, "averageDailyFlights": 1.43, "operators": [{"name": "Conviasa", "iata": "V0", "icao": "VCV"}, {"name": "Turkish Airlines", "iata": "TK", "icao": "THY"}, {"name": "Cubana de Aviacion", "iata": "CU", "icao": "CUB"}]}, {"destination": {"icao": "KTPA", "iata": "TPA", "name": "Tampa ", "shortName": "Tampa", "municipalityName": "Tampa", "location": {"lat": 27.9755, "lon": -82.5332}, "countryCode": "US"}, "averageDailyFlights": 1.29, "operators": [{"name": "Southwest Airlines", "iata": "WN", "icao": "SWA"}]}, {"destination": {"icao": "SKBO", "iata": "BOG", "name": "Bogot\u00e1 El Dorado", "shortName": "El Dorado", "municipalityName": "Bogot\u00e1", "location": {"lat": 4.70159, "lon": -74.1469}, "countryCode": "CO"}, "averageDailyFlights": 0.86, "operators": [{"name": "Copa Airlines Colombia", "iata": "P5", "icao": "RPB"}]}, {"destination": {"icao": "KIAH", "iata": "IAH", "name": "Houston George Bush", "shortName": "George Bush", "municipalityName": "Houston", "location": {"lat": 29.9844, "lon": -95.3414}, "countryCode": "US"}, "averageDailyFlights": 0.86, "operators": [{"name": "United Airlines", "iata": "UA", "icao": "UAL"}]}, {"destination": {"icao": "SPJC", "iata": "LIM", "name": "Lima Jorge Ch\u00e1vez", "shortName": "Jorge Ch\u00e1vez", "municipalityName": "Lima", "location": {"lat": -12.0219, "lon": -77.1143}, "countryCode": "PE"}, "averageDailyFlights": 0.71, "operators": [{"name": "LATAM", "iata": "LA", "icao": "LAN"}]}, {"destination": {"icao": "MTPP", "iata": "PAP", "name": "Port-au-Prince Toussaint Louverture", "shortName": "Toussaint Louverture", "municipalityName": "Port-au-Prince", "location": {"lat": 18.58, "lon": -72.2925}, "countryCode": "HT"}, "averageDailyFlights": 0.71, "operators": [{"name": "Sunrise Airways", "iata": "S6", "icao": "KSZ"}, {"name": "Cubana de Aviacion", "iata": "CU", "icao": "CUB"}]}, {"destination": {"icao": "MNMG", "iata": "MGA", "name": "Managua Augusto C. Sandino ()", "shortName": "Augusto C. Sandino ()", "municipalityName": "Managua", "location": {"lat": 12.1415, "lon": -86.1682}, "countryCode": "NI"}, "averageDailyFlights": 0.57, "operators": [{"name": "Conviasa", "iata": "V0", "icao": "VCV"}]}, {"destination": {"icao": "LFPG", "iata": "CDG", "name": "Paris Charles de Gaulle", "shortName": "Charles de Gaulle", "municipalityName": "Paris", "location": {"lat": 49.0128, "lon": 2.549999}, "countryCode": "FR"}, "averageDailyFlights": 0.57, "operators": [{"name": "Air France", "iata": "AF", "icao": "AFR"}]}, {"destination": {"name": "Santa-Lyuchiya"}, "averageDailyFlights": 0.57, "operators": [{"name": "A.P.G. Distribution System"}, {"name": "VivaAerobus", "iata": "VB", "icao": "VIV"}]}, {"destination": {"icao": "EDDF", "iata": "FRA", "name": "Frankfurt-am-Main ", "shortName": "Frankfurt-am-Main", "municipalityName": "Frankfurt-am-Main", "location": {"lat": 50.0264, "lon": 8.543129}, "countryCode": "DE"}, "averageDailyFlights": 0.43, "operators": [{"name": "Condor", "iata": "DE", "icao": "CFG"}]}, {"destination": {"icao": "MUHG", "iata": "HOG", "name": "Holgu\u00edn Frank Pais", "shortName": "Frank Pais", "municipalityName": "Holgu\u00edn", "location": {"lat": 20.7856, "lon": -76.3151}, "countryCode": "CU"}, "averageDailyFlights": 0.43, "operators": [{"name": "Cubana de Aviacion", "iata": "CU", "icao": "CUB"}, {"name": "Neos", "iata": "NO", "icao": "NOS"}]}, {"destination": {"icao": "MMMD", "iata": "MID", "name": "M\u00e9rida Licenciado Manuel Crescencio Rejon Int", "shortName": "Licenciado Manuel Crescencio Rejon Int", "municipalityName": "M\u00e9rida", "location": {"lat": 20.937, "lon": -89.6577}, "countryCode": "MX"}, "averageDailyFlights": 0.43, "operators": [{"name": "A.P.G. Distribution System"}, {"name": "VivaAerobus", "iata": "VB", "icao": "VIV"}]}, {"destination": {"icao": "MMMY", "iata": "MTY", "name": "Monterrey General Mariano Escobedo", "shortName": "General Mariano Escobedo", "municipalityName": "Monterrey", "location": {"lat": 25.7785, "lon": -100.107}, "countryCode": "MX"}, "averageDailyFlights": 0.43, "operators": [{"name": "VivaAerobus", "iata": "VB", "icao": "VIV"}]}, {"destination": {"icao": "MPPA", "iata": "BLB", "name": "Panam\u00e1 City Panama Pacific", "shortName": "Panama Pacific", "municipalityName": "Panam\u00e1 City", "location": {"lat": 8.91479, "lon": -79.5996}, "countryCode": "PA"}, "averageDailyFlights": 0.43, "operators": [{"name": "Copa Airlines Colombia", "iata": "P5", "icao": "RPB"}]}, {"destination": {"icao": "MUCU", "iata": "SCU", "name": "Santiago Antonio Maceo", "shortName": "Antonio Maceo", "municipalityName": "Santiago", "location": {"lat": 19.9698, "lon": -75.8354}, "countryCode": "CU"}, "averageDailyFlights": 0.43, "operators": [{"name": "Cubana de Aviacion", "iata": "CU", "icao": "CUB"}]}, {"destination": {"icao": "MDSD", "iata": "SDQ", "name": "Santo Domingo City Las Am\u00e9ricas", "shortName": "Las Am\u00e9ricas", "municipalityName": "Santo Domingo City", "location": {"lat": 18.4297, "lon": -69.6689}, "countryCode": "DO"}, "averageDailyFlights": 0.43, "operators": [{"name": "Sky High Aviation", "iata": "DO", "icao": "SHH"}]}, {"destination": {"icao": "SAEZ", "iata": "EZE", "name": "Buenos Aires Ministro Pistarini", "shortName": "Ministro Pistarini", "municipalityName": "Buenos Aires", "location": {"lat": -34.8222, "lon": -58.5358}, "countryCode": "AR"}, "averageDailyFlights": 0.29, "operators": [{"name": "Aerolineas Argentinas", "iata": "AR", "icao": "ARG"}, {"name": "Cubana de Aviacion", "iata": "CU", "icao": "CUB"}]}, {"destination": {"icao": "MWCR", "iata": "GCM", "name": "Georgetown Owen Roberts", "shortName": "Owen Roberts", "municipalityName": "Georgetown", "location": {"lat": 19.2928, "lon": -81.3577}, "countryCode": "KY"}, "averageDailyFlights": 0.29, "operators": [{"name": "Cayman Airways", "iata": "KX", "icao": "CAY"}]}, {"destination": {"icao": "SVMG", "iata": "PMV", "name": "Isla Margarita Del Caribe Santiago Mari\u00f1o", "shortName": "Del Caribe Santiago Mari\u00f1o", "municipalityName": "Isla Margarita", "location": {"lat": 10.912603, "lon": -63.9666}, "countryCode": "VE"}, "averageDailyFlights": 0.29, "operators": [{"name": "Cubana de Aviacion", "iata": "CU", "icao": "CUB"}]}, {"destination": {"icao": "MYNN", "iata": "NAS", "name": "Nassau Lynden Pindling", "shortName": "Lynden Pindling", "municipalityName": "Nassau", "location": {"lat": 25.039, "lon": -77.4662}, "countryCode": "BS"}, "averageDailyFlights": 0.29, "operators": [{"name": "Bahamasair", "iata": "UP", "icao": "BHS"}]}, {"destination": {"icao": "MBPV", "iata": "PLS", "name": "Providenciales Island Providenciales", "shortName": "Providenciales", "municipalityName": "Providenciales Island", "location": {"lat": 21.7736, "lon": -72.2659}, "countryCode": "TC"}, "averageDailyFlights": 0.29, "operators": [{"name": "interCaribbean Airways", "iata": "JY", "icao": "IWY"}]}, {"destination": {"icao": "SKRG", "iata": "MDE", "name": "Rionegro Jose Maria C\u00f3rdova", "shortName": "Jose Maria C\u00f3rdova", "municipalityName": "Rionegro", "location": {"lat": 6.16454, "lon": -75.4231}, "countryCode": "CO"}, "averageDailyFlights": 0.29, "operators": [{"name": "Copa Airlines Colombia", "iata": "P5", "icao": "RPB"}]}, {"destination": {"icao": "LSZH", "iata": "ZRH", "name": "Zurich Kloten", "shortName": "Kloten", "municipalityName": "Zurich", "location": {"lat": 47.4647, "lon": 8.549169}, "countryCode": "CH"}, "averageDailyFlights": 0.29, "operators": [{"name": "Edelweiss Air", "iata": "WK", "icao": "EDW"}]}, {"destination": {"icao": "LIMC", "iata": "MXP", "name": "Milan Malpensa", "shortName": "Malpensa", "municipalityName": "Milan", "location": {"lat": 45.6306, "lon": 8.72811}, "countryCode": "IT"}, "averageDailyFlights": 0.14, "operators": [{"name": "Neos", "iata": "NO", "icao": "NOS"}]}, {"destination": {"icao": "UUWW", "iata": "VKO", "localCode": "\u0412\u041d\u041a", "name": "Moscow Vnukovo", "shortName": "Vnukovo", "municipalityName": "Moscow", "location": {"lat": 55.5915, "lon": 37.2615}, "countryCode": "RU"}, "averageDailyFlights": 0.14, "operators": [{"name": "Conviasa", "iata": "V0", "icao": "VCV"}]}, {"destination": {"icao": "TTPP", "iata": "POS", "name": "Port of Spain Piarco", "shortName": "Piarco", "municipalityName": "Port of Spain", "location": {"lat": 10.595399, "lon": -61.3372}, "countryCode": "TT"}, "averageDailyFlights": 0.14, "operators": [{"name": "Caribbean Airlines", "iata": "BW", "icao": "BWA"}]}, {"destination": {"icao": "SLVR", "iata": "VVI", "name": "Santa Cruz de la Sierra Viru Viru", "shortName": "Viru Viru", "municipalityName": "Santa Cruz de la Sierra", "location": {"lat": -17.6448, "lon": -63.1354}, "countryCode": "BO"}, "averageDailyFlights": 0.14, "operators": [{"name": "BoA", "iata": "OB", "icao": "BOV"}]}]}