{"routes": [{"destination": {"icao": "NZAA", "iata": "AKL", "name": "Auckland ", "shortName": "Auckland", "municipalityName": "Auckland", "location": {"lat": -37.0081, "lon": 174.792}, "countryCode": "NZ"}, "averageDailyFlights": 26.14, "operators": [{"name": "Air New Zealand", "iata": "NZ", "icao": "ANZ"}, {"name": "Jetstar", "iata": "JQ", "icao": "JST"}, {"name": "TNZ"}, {"name": "AWK"}]}, {"destination": {"icao": "NZWN", "iata": "WLG", "name": "Wellington ", "shortName": "Wellington", "municipalityName": "Wellington", "location": {"lat": -41.3272, "lon": 174.805}, "countryCode": "NZ"}, "averageDailyFlights": 12.57, "operators": [{"name": "Jetstar", "iata": "JQ", "icao": "JST"}, {"name": "Air New Zealand", "iata": "NZ", "icao": "ANZ"}]}, {"destination": {"icao": "NZNS", "iata": "NSN", "name": "Nelson ", "shortName": "Nelson", "municipalityName": "Nelson", "location": {"lat": -41.2983, "lon": 173.221}, "countryCode": "NZ"}, "averageDailyFlights": 7.86, "operators": [{"name": "Air New Zealand", "iata": "NZ", "icao": "ANZ"}]}, {"destination": {"icao": "NZDN", "iata": "DUD", "name": "Dunedin ", "shortName": "Dunedin", "municipalityName": "Dunedin", "location": {"lat": -45.9281, "lon": 170.198}, "countryCode": "NZ"}, "averageDailyFlights": 7.29, "operators": [{"name": "Air New Zealand", "iata": "NZ", "icao": "ANZ"}]}, {"destination": {"icao": "NZNV", "iata": "IVC", "name": "Invercargill ", "shortName": "Invercargill", "municipalityName": "Invercargill", "location": {"lat": -46.4124, "lon": 168.313}, "countryCode": "NZ"}, "averageDailyFlights": 6.57, "operators": [{"name": "Air New Zealand", "iata": "NZ", "icao": "ANZ"}]}, {"destination": {"icao": "NZHN", "iata": "HLZ", "name": "Hamilton ", "shortName": "Hamilton", "municipalityName": "Hamilton", "location": {"lat": -37.8667, "lon": 175.332}, "countryCode": "NZ"}, "averageDailyFlights": 5.29, "operators": [{"name": "Air New Zealand", "iata": "NZ", "icao": "ANZ"}]}, {"destination": {"icao": "NZQN", "iata": "ZQN", "name": "Queenstown ", "shortName": "Queenstown", "municipalityName": "Queenstown", "location": {"lat": -45.0211, "lon": 168.739}, "countryCode": "NZ"}, "averageDailyFlights": 4.57, "operators": [{"name": "Air New Zealand", "iata": "NZ", "icao": "ANZ"}]}, {"destination": {"icao": "YSSY", "iata": "SYD", "name": "Sydney City Sydney Kingsford Smith", "shortName": "Sydney Kingsford Smith", "municipalityName": "Sydney City", "location": {"lat": -33.9461, "lon": 151.177}, "countryCode": "AU"}, "averageDailyFlights": 4.43, "operators": [{"name": "Air New Zealand", "iata": "NZ", "icao": "ANZ"}, {"name": "Qantas", "iata": "QF", "icao": "QFA"}, {"name": "Emirates", "iata": "EK", "icao": "UAE"}]}, {"destination": {"icao": "NZWB", "iata": "BHE", "name": "Blenheim Woodbourne", "shortName": "Woodbourne", "municipalityName": "Blenheim", "location": {"lat": -41.5183, "lon": 173.87}, "countryCode": "NZ"}, "averageDailyFlights": 4.0, "operators": [{"name": "Sounds Air", "iata": "S8", "icao": "SDA"}]}, {"destination": {"icao": "NZTG", "iata": "TRG", "name": "Tauranga ", "shortName": "Tauranga", "municipalityName": "Tauranga", "location": {"lat": -37.6719, "lon": 176.196}, "countryCode": "NZ"}, "averageDailyFlights": 4.0, "operators": [{"name": "Air New Zealand", "iata": "NZ", "icao": "ANZ"}]}, {"destination": {"icao": "YMML", "iata": "MEL", "name": "Melbourne City Melbourne", "shortName": "Melbourne", "municipalityName": "Melbourne City", "location": {"lat": -37.6733, "lon": 144.843}, "countryCode": "AU"}, "averageDailyFlights": 3.0, "operators": [{"name": "Qantas", "iata": "QF", "icao": "QFA"}, {"name": "Air New Zealand", "iata": "NZ", "icao": "ANZ"}, {"name": "Jetstar", "iata": "JQ", "icao": "JST"}]}, {"destination": {"icao": "NZRO", "iata": "ROT", "name": "Rotorua Regional", "shortName": "Regional", "municipalityName": "Rotorua", "location": {"lat": -38.1092, "lon": 176.317}, "countryCode": "NZ"}, "averageDailyFlights": 3.0, "operators": [{"name": "Air New Zealand", "iata": "NZ", "icao": "ANZ"}]}, {"destination": {"icao": "NZNP", "iata": "NPL", "name": "New Plymouth ", "shortName": "New Plymouth", "municipalityName": "New Plymouth", "location": {"lat": -39.0086, "lon": 174.179}, "countryCode": "NZ"}, "averageDailyFlights": 2.86, "operators": [{"name": "Air New Zealand", "iata": "NZ", "icao": "ANZ"}]}, {"destination": {"icao": "YBBN", "iata": "BNE", "name": "Brisbane City Brisbane", "shortName": "Brisbane", "municipalityName": "Brisbane City", "location": {"lat": -27.3842, "lon": 153.117}, "countryCode": "AU"}, "averageDailyFlights": 2.29, "operators": [{"name": "Air New Zealand", "iata": "NZ", "icao": "ANZ"}, {"name": "Qantas", "iata": "QF", "icao": "QFA"}]}, {"destination": {"icao": "WSSS", "iata": "SIN", "name": "Singapore Changi", "shortName": "Changi", "municipalityName": "Singapore", "location": {"lat": 1.35019, "lon": 103.994}, "countryCode": "SG"}, "averageDailyFlights": 1.57, "operators": [{"name": "Singapore Airlines", "iata": "SQ", "icao": "SIA"}]}, {"destination": {"icao": "YBCG", "iata": "OOL", "name": "Gold Coast", "shortName": "Coast", "municipalityName": "Gold", "location": {"lat": -28.1644, "lon": 153.505}, "countryCode": "AU"}, "averageDailyFlights": 0.86, "operators": [{"name": "Jetstar", "iata": "JQ", "icao": "JST"}, {"name": "Air New Zealand", "iata": "NZ", "icao": "ANZ"}]}, {"destination": {"icao": "NFFN", "iata": "NAN", "name": "Nadi ", "shortName": "Nadi", "municipalityName": "Nadi", "location": {"lat": -17.7554, "lon": 177.443}, "countryCode": "FJ"}, "averageDailyFlights": 0.57, "operators": [{"name": "Fiji Airways", "iata": "FJ", "icao": "FJI"}]}, {"destination": {"icao": "ZGGG", "iata": "CAN", "name": "Guangzhou Baiyun", "shortName": "Baiyun", "municipalityName": "Guangzhou", "location": {"lat": 23.3924, "lon": 113.299}, "countryCode": "CN"}, "averageDailyFlights": 0.43, "operators": [{"name": "China Southern Airlines", "iata": "CZ", "icao": "CSN"}]}, {"destination": {"icao": "NZCI", "iata": "CHT", "name": "Waitangi Chatham Islands-Tuuta", "shortName": "Chatham Islands-Tuuta", "municipalityName": "Waitangi", "location": {"lat": -43.81, "lon": -176.457}, "countryCode": "NZ"}, "averageDailyFlights": 0.29, "operators": [{"name": "Air Chathams", "iata": "3C", "icao": "CVA"}]}]}