{"routes": [{"destination": {"icao": "RJOO", "iata": "ITM", "name": "Osaka ", "shortName": "Osaka", "municipalityName": "Osaka", "location": {"lat": 34.7855, "lon": 135.438}, "countryCode": "JP"}, "averageDailyFlights": 11.43, "operators": [{"name": "JAL", "iata": "JL", "icao": "JAL"}, {"name": "ANA", "iata": "NH", "icao": "ANA"}, {"name": "IBEX Airlines", "iata": "FW", "icao": "IBX"}]}, {"destination": {"icao": "RJCC", "iata": "CTS", "name": "Chitose / Tomakomai New Chitose", "shortName": "New Chitose", "municipalityName": "Chitose / Tomakomai", "location": {"lat": 42.7752, "lon": 141.692}, "countryCode": "JP"}, "averageDailyFlights": 4.57, "operators": [{"name": "JAL", "iata": "JL", "icao": "JAL"}, {"name": "ANA", "iata": "NH", "icao": "ANA"}]}, {"destination": {"icao": "RJFF", "iata": "FUK", "name": "Fukuoka ", "shortName": "Fukuoka", "municipalityName": "Fukuoka", "location": {"lat": 33.5859, "lon": 130.451}, "countryCode": "JP"}, "averageDailyFlights": 3.43, "operators": [{"name": "Fuji Dream Airlines", "iata": "JH", "icao": "FDA"}, {"name": "IBEX Airlines", "iata": "FW", "icao": "IBX"}]}, {"destination": {"icao": "RJNA", "iata": "NKM", "name": "Nagoya ", "shortName": "Nagoya", "municipalityName": "Nagoya", "location": {"lat": 35.255, "lon": 136.924}, "countryCode": "JP"}, "averageDailyFlights": 2.29, "operators": [{"name": "Fuji Dream Airlines", "iata": "JH", "icao": "FDA"}]}, {"destination": {"icao": "ROAH", "iata": "OKA", "name": "Naha ", "shortName": "Naha", "municipalityName": "Naha", "location": {"lat": 26.1958, "lon": 127.646}, "countryCode": "JP"}, "averageDailyFlights": 1.14, "operators": [{"name": "ANA", "iata": "NH", "icao": "ANA"}]}, {"destination": {"icao": "RJBB", "iata": "KIX", "name": "Osaka Kansai", "shortName": "Kansai", "municipalityName": "Osaka", "location": {"lat": 34.4273, "lon": 135.244}, "countryCode": "JP"}, "averageDailyFlights": 0.71, "operators": [{"name": "Peach Aviation", "iata": "MM", "icao": "APJ"}]}, {"destination": {"icao": "RKSI", "iata": "ICN", "name": "Seoul Incheon", "shortName": "Incheon", "municipalityName": "Seoul", "location": {"lat": 37.4691, "lon": 126.451}, "countryCode": "KR"}, "averageDailyFlights": 0.57, "operators": [{"name": "Korean Air", "iata": "KE", "icao": "KAL"}]}, {"destination": {"icao": "ZSPD", "iata": "PVG", "name": "Shanghai Pudong", "shortName": "Pudong", "municipalityName": "Shanghai", "location": {"lat": 31.1434, "lon": 121.805}, "countryCode": "CN"}, "averageDailyFlights": 0.29, "operators": [{"name": "China Eastern Airlines", "iata": "MU", "icao": "CES"}]}, {"destination": {"icao": "RCTP", "iata": "TPE", "name": "Taipei Taiwan Taoyuan", "shortName": "Taiwan Taoyuan", "municipalityName": "Taipei", "location": {"lat": 25.0777, "lon": 121.233}, "countryCode": "TW"}, "averageDailyFlights": 0.29, "operators": [{"name": "Tigerair Taiwan", "iata": "IT", "icao": "TTW"}]}]}