{"routes": [{"destination": {"icao": "SBSP", "iata": "CGH", "name": "S\u00e3o Paulo Congonhas", "shortName": "Congonhas", "municipalityName": "S\u00e3o Paulo", "location": {"lat": -23.62611, "lon": -46.656387}, "countryCode": "BR"}, "averageDailyFlights": 18.14, "operators": [{"name": "Gol", "iata": "G3", "icao": "GLO"}, {"name": "LATAM", "iata": "LA", "icao": "LAN"}]}, {"destination": {"icao": "SBKP", "iata": "VCP", "name": "Campinas Viracopos", "shortName": "Viracopos", "municipalityName": "Campinas", "location": {"lat": -23.0074, "lon": -47.1345}, "countryCode": "BR"}, "averageDailyFlights": 8.86, "operators": [{"name": "Azul", "iata": "AD", "icao": "AZU"}]}, {"destination": {"icao": "SBCT", "iata": "CWB", "name": "Curitiba Afonso Pena", "shortName": "Afonso Pena", "municipalityName": "Curitiba", "location": {"lat": -25.5285, "lon": -49.1758}, "countryCode": "BR"}, "averageDailyFlights": 8.86, "operators": [{"name": "Gol", "iata": "G3", "icao": "GLO"}, {"name": "Azul", "iata": "AD", "icao": "AZU"}, {"name": "LATAM", "iata": "LA", "icao": "LAN"}]}, {"destination": {"icao": "SBRJ", "iata": "SDU", "name": "Rio de Janeiro Santos Dumont", "shortName": "Santos Dumont", "municipalityName": "Rio de Janeiro", "location": {"lat": -22.9105, "lon": -43.1631}, "countryCode": "BR"}, "averageDailyFlights": 5.29, "operators": [{"name": "Azul", "iata": "AD", "icao": "AZU"}, {"name": "LATAM", "iata": "LA", "icao": "LAN"}]}, {"destination": {"icao": "SBBR", "iata": "BSB", "name": "Bras\u00edlia Presidente Juscelino Kubistschek", "shortName": "Presidente Juscelino Kubistschek", "municipalityName": "Bras\u00edlia", "location": {"lat": -15.869167, "lon": -47.920834}, "countryCode": "BR"}, "averageDailyFlights": 5.14, "operators": [{"name": "Gol", "iata": "G3", "icao": "GLO"}, {"name": "LATAM", "iata": "LA", "icao": "LAN"}]}, {"destination": {"icao": "SBGL", "iata": "GIG", "name": "Rio de Janeiro RIOgale\u00e3o \u2013 Tom Jobim", "shortName": "RIOgale\u00e3o \u2013 Tom Jobim", "municipalityName": "Rio de Janeiro", "location": {"lat": -22.81, "lon": -43.250557}, "countryCode": "BR"}, "averageDailyFlights": 4.29, "operators": [{"name": "Gol", "iata": "G3", "icao": "GLO"}]}, {"destination": {"icao": "SBGR", "iata": "GRU", "name": "S\u00e3o Paulo Guarulhos - Governador Andr\u00e9 Franco Montoro", "shortName": "Guarulhos - Governador Andr\u00e9 Franco Montoro", "municipalityName": "S\u00e3o Paulo", "location": {"lat": -23.435556, "lon": -46.473057}, "countryCode": "BR"}, "averageDailyFlights": 3.43, "operators": [{"name": "Azul", "iata": "AD", "icao": "AZU"}]}, {"destination": {"icao": "SBFL", "iata": "FLN", "name": "Florian\u00f3polis Herc\u00edlio Luz", "shortName": "Herc\u00edlio Luz", "municipalityName": "Florian\u00f3polis", "location": {"lat": -27.670279, "lon": -48.5525}, "countryCode": "BR"}, "averageDailyFlights": 2.29, "operators": [{"name": "Azul", "iata": "AD", "icao": "AZU"}]}, {"destination": {"icao": "SBNF", "iata": "NVT", "name": "Navegantes Ministro Victor Konder", "shortName": "Ministro Victor Konder", "municipalityName": "Navegantes", "location": {"lat": -26.88, "lon": -48.6514}, "countryCode": "BR"}, "averageDailyFlights": 2.0, "operators": [{"name": "Azul", "iata": "AD", "icao": "AZU"}]}, {"destination": {"icao": "SBCF", "iata": "CNF", "name": "Belo Horizonte Tancredo Neves", "shortName": "Tancredo Neves", "municipalityName": "Belo Horizonte", "location": {"lat": -19.624443, "lon": -43.971943}, "countryCode": "BR"}, "averageDailyFlights": 1.71, "operators": [{"name": "Azul", "iata": "AD", "icao": "AZU"}]}, {"destination": {"icao": "SBPK", "iata": "PET", "name": "Pelotas ", "shortName": "Pelotas", "municipalityName": "Pelotas", "location": {"lat": -31.7184, "lon": -52.3277}, "countryCode": "BR"}, "averageDailyFlights": 1.71, "operators": [{"name": "Azul", "iata": "AD", "icao": "AZU"}, {"name": "VoePass", "iata": "2Z", "icao": "PTB"}]}, {"destination": {"icao": "SBSM", "iata": "RIA", "name": "Santa Maria ", "shortName": "Santa Maria", "municipalityName": "Santa Maria", "location": {"lat": -29.7114, "lon": -53.6882}, "countryCode": "BR"}, "averageDailyFlights": 1.71, "operators": [{"name": "Azul", "iata": "AD", "icao": "AZU"}, {"name": "VoePass", "iata": "2Z", "icao": "PTB"}]}, {"destination": {"icao": "SBNM", "iata": "GEL", "name": "Santo \u00c2ngelo ", "shortName": "Santo \u00c2ngelo", "municipalityName": "Santo \u00c2ngelo", "location": {"lat": -28.2817, "lon": -54.1691}, "countryCode": "BR"}, "averageDailyFlights": 1.71, "operators": [{"name": "Azul", "iata": "AD", "icao": "AZU"}, {"name": "VoePass", "iata": "2Z", "icao": "PTB"}]}, {"destination": {"icao": "SBUG", "iata": "URG", "name": "Uruguaiana Rubem Berta", "shortName": "Rubem Berta", "municipalityName": "Uruguaiana", "location": {"lat": -29.7822, "lon": -57.0382}, "countryCode": "BR"}, "averageDailyFlights": 1.71, "operators": [{"name": "Azul", "iata": "AD", "icao": "AZU"}, {"name": "VoePass", "iata": "2Z", "icao": "PTB"}]}, {"destination": {"icao": "SBFI", "iata": "IGU", "name": "Foz do Igua\u00e7u Cataratas", "shortName": "Cataratas", "municipalityName": "Foz do Igua\u00e7u", "location": {"lat": -25.600279, "lon": -54.485}, "countryCode": "BR"}, "averageDailyFlights": 1.14, "operators": [{"name": "Azul", "iata": "AD", "icao": "AZU"}]}, {"destination": {"icao": "SBJV", "iata": "JOI", "name": "Joinville Lauro Carneiro de Loyola", "shortName": "Lauro Carneiro de Loyola", "municipalityName": "Joinville", "location": {"lat": -26.2245, "lon": -48.7974}, "countryCode": "BR"}, "averageDailyFlights": 1.14, "operators": [{"name": "VoePass", "iata": "2Z", "icao": "PTB"}]}, {"destination": {"icao": "SBRF", "iata": "REC", "name": "Recife Guararapes - Gilberto Freyre", "shortName": "Guararapes - Gilberto Freyre", "municipalityName": "Recife", "location": {"lat": -8.126489, "lon": -34.9236}, "countryCode": "BR"}, "averageDailyFlights": 1.14, "operators": [{"name": "Azul", "iata": "AD", "icao": "AZU"}]}, {"destination": {"icao": "MPTO", "iata": "PTY", "name": "Tocumen ", "shortName": "Tocumen", "municipalityName": "Tocumen", "location": {"lat": 9.071359, "lon": -79.3835}, "countryCode": "PA"}, "averageDailyFlights": 1.0, "operators": [{"name": "Copa Airlines", "iata": "CM", "icao": "CMP"}]}, {"destination": {"icao": "SABE", "iata": "AEP", "name": "Buenos Aires Jorge Newbery Airpark", "shortName": "Jorge Newbery Airpark", "municipalityName": "Buenos Aires", "location": {"lat": -34.5592, "lon": -58.4156}, "countryCode": "AR"}, "averageDailyFlights": 0.86, "operators": [{"name": "Aerolineas Argentinas", "iata": "AR", "icao": "ARG"}]}, {"destination": {"icao": "SSLT", "iata": "ALQ", "name": "Alegrete Novo", "shortName": "Novo", "municipalityName": "Alegrete", "location": {"lat": -29.8127, "lon": -55.8934}, "countryCode": "BR"}, "averageDailyFlights": 0.57, "operators": [{"name": "Azul", "iata": "AD", "icao": "AZU"}]}, {"destination": {"icao": "SPJC", "iata": "LIM", "name": "Lima Jorge Ch\u00e1vez", "shortName": "Jorge Ch\u00e1vez", "municipalityName": "Lima", "location": {"lat": -12.0219, "lon": -77.1143}, "countryCode": "PE"}, "averageDailyFlights": 0.57, "operators": [{"name": "LATAM", "iata": "LA", "icao": "LAN"}]}, {"destination": {"icao": "LPPT", "iata": "LIS", "name": "Lisbon Portela", "shortName": "Portela", "municipalityName": "Lisbon", "location": {"lat": 38.7813, "lon": -9.135919}, "countryCode": "PT"}, "averageDailyFlights": 0.57, "operators": [{"name": "TAP Air Portugal", "iata": "TP", "icao": "TAP"}]}, {"destination": {"icao": "SUMU", "iata": "MVD", "name": "Montevideo General C L Berisso", "shortName": "General C L Berisso", "municipalityName": "Montevideo", "location": {"lat": -34.8384, "lon": -56.0308}, "countryCode": "UY"}, "averageDailyFlights": 0.57, "operators": [{"name": "Azul", "iata": "AD", "icao": "AZU"}]}, {"destination": {"icao": "SSZR", "iata": "SRA", "name": "Santa Rosa ", "shortName": "Santa Rosa", "municipalityName": "Santa Rosa", "location": {"lat": -27.9067, "lon": -54.5204}, "countryCode": "BR"}, "averageDailyFlights": 0.57, "operators": [{"name": "Azul", "iata": "AD", "icao": "AZU"}]}, {"destination": {"icao": "SCEL", "iata": "SCL", "name": "Santiago Comodoro Arturo Merino Ben\u00edtez", "shortName": "Comodoro Arturo Merino Ben\u00edtez", "municipalityName": "Santiago", "location": {"lat": -33.393, "lon": -70.7858}, "countryCode": "CL"}, "averageDailyFlights": 0.57, "operators": [{"name": "LATAM", "iata": "LA", "icao": "LAN"}]}, {"destination": {"name": "Keyp-Elutera"}, "averageDailyFlights": 0.57, "operators": [{"name": "Azul", "iata": "AD", "icao": "AZU"}]}, {"destination": {"icao": "SBBG", "iata": "BGX", "name": "Bag\u00e9 Comandante Gustavo Kraemer", "shortName": "Comandante Gustavo Kraemer", "municipalityName": "Bag\u00e9", "location": {"lat": -31.3905, "lon": -54.1122}, "countryCode": "BR"}, "averageDailyFlights": 0.43, "operators": [{"name": "Azul", "iata": "AD", "icao": "AZU"}]}, {"destination": {"icao": "SSSC", "iata": "CSU", "name": "Santa Cruz do Sul ", "shortName": "Santa Cruz do Sul", "municipalityName": "Santa Cruz do Sul", "location": {"lat": -29.6841, "lon": -52.4122}, "countryCode": "BR"}, "averageDailyFlights": 0.43, "operators": [{"name": "Azul", "iata": "AD", "icao": "AZU"}]}]}