{"routes": [{"destination": {"icao": "SKBO", "iata": "BOG", "name": "Bogot\u00e1 El Dorado", "shortName": "El Dorado", "municipalityName": "Bogot\u00e1", "location": {"lat": 4.70159, "lon": -74.1469}, "countryCode": "CO"}, "averageDailyFlights": 2.29, "operators": [{"name": "Avianca", "iata": "AV", "icao": "AVA"}]}, {"destination": {"icao": "SKMD", "iata": "EOH", "name": "Medell\u00edn Enrique Olaya Herrera", "shortName": "Enrique Olaya Herrera", "municipalityName": "Medell\u00edn", "location": {"lat": 6.220549, "lon": -75.59058}, "countryCode": "CO"}, "averageDailyFlights": 0.57, "operators": [{"name": "EasyFly", "iata": "VE", "icao": "EFY"}]}, {"destination": {"icao": "SKMU", "iata": "MVP", "name": "Mit\u00fa Fabio Alberto Leon Bentley", "shortName": "Fabio Alberto Leon Bentley", "municipalityName": "Mit\u00fa", "location": {"lat": 1.25366, "lon": -70.2339}, "countryCode": "CO"}, "averageDailyFlights": 0.43, "operators": [{"name": "SATENA", "iata": "9R", "icao": "NSE"}]}, {"destination": {"icao": "SKPD", "iata": "PDA", "name": "Puerto In\u00edrida Obando", "shortName": "Obando", "municipalityName": "Puerto In\u00edrida", "location": {"lat": 3.85353, "lon": -67.9062}, "countryCode": "CO"}, "averageDailyFlights": 0.43, "operators": [{"name": "SATENA", "iata": "9R", "icao": "NSE"}]}, {"destination": {"icao": "SKPC", "iata": "PCR", "name": "Puerto Carre\u00f1o German Olano", "shortName": "German Olano", "municipalityName": "Puerto Carre\u00f1o", "location": {"lat": 6.18472, "lon": -67.4932}, "countryCode": "CO"}, "averageDailyFlights": 0.29, "operators": [{"name": "SATENA", "iata": "9R", "icao": "NSE"}]}, {"destination": {"icao": "SKPE", "iata": "PEI", "name": "Pereira Mateca\u00f1a", "shortName": "Mateca\u00f1a", "municipalityName": "Pereira", "location": {"lat": 4.81267, "lon": -75.7395}, "countryCode": "CO"}, "averageDailyFlights": 0.14, "operators": [{"name": "EasyFly", "iata": "VE", "icao": "EFY"}]}, {"destination": {"icao": "SKCL", "iata": "CLO", "name": "Santiago de Cali Alfonso Bonilla Aragon", "shortName": "Alfonso Bonilla Aragon", "municipalityName": "Santiago de Cali", "location": {"lat": 3.54322, "lon": -76.3816}, "countryCode": "CO"}, "averageDailyFlights": 0.14, "operators": [{"name": "EasyFly", "iata": "VE", "icao": "EFY"}]}]}