{"routes": [{"destination": {"icao": "UUEE", "iata": "SVO", "localCode": "\u0428\u0420\u041c", "name": "Moscow Sheremetyevo", "shortName": "Sheremetyevo", "municipalityName": "Moscow", "location": {"lat": 55.9726, "lon": 37.4146}, "countryCode": "RU"}, "averageDailyFlights": 4.5, "operators": [{"name": "Aeroflot", "iata": "SU", "icao": "AFL"}, {"name": "Pobeda", "iata": "DP", "icao": "PBD"}, {"name": "S7 Airlines", "iata": "S7", "icao": "SBI"}, {"name": "Alrosa", "iata": "6R", "icao": "DRU"}]}, {"destination": {"icao": "UIKB", "iata": "ODO", "localCode": "\u0411\u0414\u0411", "name": "Bodaybo ", "shortName": "Bodaybo", "municipalityName": "Bodaybo", "location": {"lat": 57.8661, "lon": 114.243}, "countryCode": "RU"}, "averageDailyFlights": 4.29, "operators": [{"name": "Angara Airlines", "iata": "2G", "icao": "AGU"}, {"name": "IrAero", "iata": "IO", "icao": "IAE"}]}, {"destination": {"icao": "UNNT", "iata": "OVB", "localCode": "\u0422\u041b\u0427", "name": "Novosibirsk Tolmachevo", "shortName": "Tolmachevo", "municipalityName": "Novosibirsk", "location": {"lat": 55.0126, "lon": 82.6507}, "countryCode": "RU"}, "averageDailyFlights": 4.14, "operators": [{"name": "S7 Airlines", "iata": "S7", "icao": "SBI"}, {"name": "Alrosa", "iata": "6R", "icao": "DRU"}]}, {"destination": {"icao": "UITT", "iata": "UKX", "localCode": "\u0423\u0421\u041a", "name": "Ust-Kut ", "shortName": "Ust-Kut", "municipalityName": "Ust-Kut", "location": {"lat": 56.8567, "lon": 105.73}, "countryCode": "RU"}, "averageDailyFlights": 3.43, "operators": [{"name": "IrAero", "iata": "IO", "icao": "IAE"}, {"name": "Angara Airlines", "iata": "2G", "icao": "AGU"}]}, {"destination": {"icao": "UNKL", "iata": "KJA", "localCode": "\u041a\u042f\u0410", "name": "Krasnoyarsk Yemelyanovo", "shortName": "Yemelyanovo", "municipalityName": "Krasnoyarsk", "location": {"lat": 56.1729, "lon": 92.4933}, "countryCode": "RU"}, "averageDailyFlights": 3.14, "operators": [{"name": "Rossiya Airlines", "iata": "FV", "icao": "SDM"}, {"name": "UTAir", "iata": "UT", "icao": "UTA"}, {"name": "S7 Airlines", "iata": "S7", "icao": "SBI"}]}, {"destination": {"icao": "VTBS", "iata": "BKK", "name": "Bangkok Suvarnabhumi", "shortName": "Suvarnabhumi", "municipalityName": "Bangkok", "location": {"lat": 13.681099, "lon": 100.747}, "countryCode": "TH"}, "averageDailyFlights": 2.14, "operators": [{"name": "Aeroflot", "iata": "SU", "icao": "AFL"}, {"name": "S7 Airlines", "iata": "S7", "icao": "SBI"}]}, {"destination": {"icao": "UECT", "iata": "TLK", "localCode": "\u0422\u041b\u041a", "name": "Talakan ", "shortName": "Talakan", "municipalityName": "Talakan", "location": {"lat": 59.868214, "lon": 111.03635}, "countryCode": "RU"}, "averageDailyFlights": 1.86, "operators": [{"name": "S7 Airlines", "iata": "S7", "icao": "SBI"}, {"name": "IrAero", "iata": "IO", "icao": "IAE"}]}, {"destination": {"icao": "UIAA", "iata": "HTA", "localCode": "\u0421\u0425\u0422", "name": "Chita Kadala", "shortName": "Kadala", "municipalityName": "Chita", "location": {"lat": 52.0263, "lon": 113.306}, "countryCode": "RU"}, "averageDailyFlights": 1.71, "operators": [{"name": "IrAero", "iata": "IO", "icao": "IAE"}, {"name": "S7 Airlines", "iata": "S7", "icao": "SBI"}, {"name": "Angara Airlines", "iata": "2G", "icao": "AGU"}]}, {"destination": {"icao": "UHHH", "iata": "KHV", "localCode": "\u0425\u0411\u0420", "name": "Khabarovsk Novy", "shortName": "Novy", "municipalityName": "Khabarovsk", "location": {"lat": 48.528, "lon": 135.188}, "countryCode": "RU"}, "averageDailyFlights": 1.71, "operators": [{"name": "S7 Airlines", "iata": "S7", "icao": "SBI"}, {"name": "Aurora", "iata": "HZ", "icao": "SHU"}]}, {"destination": {"icao": "UIUU", "iata": "UUD", "localCode": "\u0423\u041b\u042d", "name": "Ulan-Ude Mukhino", "shortName": "Mukhino", "municipalityName": "Ulan-Ude", "location": {"lat": 51.8078, "lon": 107.438}, "countryCode": "RU"}, "averageDailyFlights": 1.62, "operators": [{"name": "S7 Airlines", "iata": "S7", "icao": "SBI"}, {"name": "IrAero", "iata": "IO", "icao": "IAE"}, {"name": "Aero Mongolia", "iata": "M0", "icao": "MNG"}]}, {"destination": {"icao": "URSS", "iata": "AER", "localCode": "\u0421\u041e\u0427", "name": "Sochi ", "shortName": "Sochi", "municipalityName": "Sochi", "location": {"lat": 43.4499, "lon": 39.9566}, "countryCode": "RU"}, "averageDailyFlights": 1.43, "operators": [{"name": "S7 Airlines", "iata": "S7", "icao": "SBI"}]}, {"destination": {"icao": "UEEE", "iata": "YKS", "localCode": "\u042f\u041a\u0422", "name": "Yakutsk ", "shortName": "Yakutsk", "municipalityName": "Yakutsk", "location": {"lat": 62.0933, "lon": 129.771}, "countryCode": "RU"}, "averageDailyFlights": 1.28, "operators": [{"name": "S7 Airlines", "iata": "S7", "icao": "SBI"}, {"name": "IrAero", "iata": "IO", "icao": "IAE"}, {"name": "Yakutia", "iata": "R3", "icao": "SYL"}]}, {"destination": {"icao": "UERR", "iata": "MJZ", "localCode": "\u041c\u0418\u0420", "name": "Mirny ", "shortName": "Mirny", "municipalityName": "Mirny", "location": {"lat": 62.5347, "lon": 114.039}, "countryCode": "RU"}, "averageDailyFlights": 1.14, "operators": [{"name": "IrAero", "iata": "IO", "icao": "IAE"}, {"name": "Alrosa", "iata": "6R", "icao": "DRU"}]}, {"destination": {"name": "Vladivostok"}, "averageDailyFlights": 1.14, "operators": [{"name": "S7 Airlines", "iata": "S7", "icao": "SBI"}]}, {"destination": {"icao": "ULLI", "iata": "LED", "localCode": "\u041f\u041b\u041a", "name": "Saint-Petersburg Pulkovo", "shortName": "Pulkovo", "municipalityName": "Saint-Petersburg", "location": {"lat": 59.8003, "lon": 30.2625}, "countryCode": "RU"}, "averageDailyFlights": 1.0, "operators": [{"name": "Rossiya Airlines", "iata": "FV", "icao": "SDM"}, {"name": "S7 Airlines", "iata": "S7", "icao": "SBI"}]}, {"destination": {"icao": "UIBB", "iata": "BTK", "localCode": "\u0411\u0420\u0421", "name": "Bratsk ", "shortName": "Bratsk", "municipalityName": "Bratsk", "location": {"lat": 56.3706, "lon": 101.698}, "countryCode": "RU"}, "averageDailyFlights": 0.86, "operators": [{"name": "S7 Airlines", "iata": "S7", "icao": "SBI"}, {"name": "Angara Airlines", "iata": "2G", "icao": "AGU"}]}, {"destination": {"icao": "UIKK", "iata": "KCK", "localCode": "\u041a\u0420\u041d", "name": "Kirensk ", "shortName": "Kirensk", "municipalityName": "Kirensk", "location": {"lat": 57.773, "lon": 108.064}, "countryCode": "RU"}, "averageDailyFlights": 0.86, "operators": [{"name": "Angara Airlines", "iata": "2G", "icao": "AGU"}]}, {"destination": {"name": "Olyokminsk"}, "averageDailyFlights": 0.86, "operators": [{"name": "IrAero", "iata": "IO", "icao": "IAE"}]}, {"destination": {"icao": "UUDD", "iata": "DME", "localCode": "\u0414\u041c\u0414", "name": "Moscow Domodedovo", "shortName": "Domodedovo", "municipalityName": "Moscow", "location": {"lat": 55.4088, "lon": 37.9063}, "countryCode": "RU"}, "averageDailyFlights": 0.71, "operators": [{"name": "Ural Airlines", "iata": "U6", "icao": "SVR"}]}, {"destination": {"icao": "UCFO", "iata": "OSS", "localCode": "\u041e\u0428\u0428", "name": "Osh ", "shortName": "Osh", "municipalityName": "Osh", "location": {"lat": 40.609, "lon": 72.7933}, "countryCode": "KG"}, "averageDailyFlights": 0.71, "operators": [{"name": "S7 Airlines", "iata": "S7", "icao": "SBI"}, {"name": "Ural Airlines", "iata": "U6", "icao": "SVR"}, {"name": "Avia Traffic Company", "iata": "YK", "icao": "AVJ"}]}, {"destination": {"name": "Kazachinskoe"}, "averageDailyFlights": 0.71, "operators": [{"name": "Sibirskaya legkaya aviatsiya"}]}, {"destination": {"name": "Surgut"}, "averageDailyFlights": 0.71, "operators": [{"name": "UTAir", "iata": "UT", "icao": "UTA"}]}, {"destination": {"icao": "UCFM", "iata": "FRU", "localCode": "\u0411\u0418\u0428", "name": "Bishkek Manas", "shortName": "Manas", "municipalityName": "Bishkek", "location": {"lat": 43.0613, "lon": 74.4776}, "countryCode": "KG"}, "averageDailyFlights": 0.57, "operators": [{"name": "S7 Airlines", "iata": "S7", "icao": "SBI"}, {"name": "Avia Traffic Company", "iata": "YK", "icao": "AVJ"}]}, {"destination": {"icao": "UELL", "iata": "NER", "localCode": "\u041d\u0420\u0413", "name": "Neryungri Chulman", "shortName": "Chulman", "municipalityName": "Neryungri", "location": {"lat": 56.9139, "lon": 124.914}, "countryCode": "RU"}, "averageDailyFlights": 0.57, "operators": [{"name": "S7 Airlines", "iata": "S7", "icao": "SBI"}, {"name": "IrAero", "iata": "IO", "icao": "IAE"}]}, {"destination": {"icao": "VTSP", "iata": "HKT", "name": "Phuket ", "shortName": "Phuket", "municipalityName": "Phuket", "location": {"lat": 8.1132, "lon": 98.3169}, "countryCode": "TH"}, "averageDailyFlights": 0.57, "operators": [{"name": "AZUR Air", "iata": "ZF", "icao": "KTK"}, {"name": "Pegas Fly", "iata": "EO", "icao": "KAR"}]}, {"destination": {"icao": "UIBS", "iata": "UIK", "name": "Ust-Ilimsk ", "shortName": "Ust-Ilimsk", "municipalityName": "Ust-Ilimsk", "location": {"lat": 58.1361, "lon": 102.565}, "countryCode": "RU"}, "averageDailyFlights": 0.57, "operators": [{"name": "Sibirskaya legkaya aviatsiya"}]}, {"destination": {"name": "Chara"}, "averageDailyFlights": 0.57, "operators": [{"name": "IrAero", "iata": "IO", "icao": "IAE"}]}, {"destination": {"icao": "ZBAD", "iata": "PKX", "name": "Beijing Daxing", "shortName": "Daxing", "municipalityName": "Beijing", "location": {"lat": 39.509167, "lon": 116.41055}, "countryCode": "CN"}, "averageDailyFlights": 0.43, "operators": [{"name": "S7 Airlines", "iata": "S7", "icao": "SBI"}]}, {"destination": {"icao": "UNOO", "iata": "OMS", "localCode": "\u041e\u041c\u0421", "name": "Omsk Central", "shortName": "Central", "municipalityName": "Omsk", "location": {"lat": 54.967, "lon": 73.3105}, "countryCode": "RU"}, "averageDailyFlights": 0.43, "operators": [{"name": "S7 Airlines", "iata": "S7", "icao": "SBI"}]}, {"destination": {"name": "Mama"}, "averageDailyFlights": 0.43, "operators": [{"name": "IrAero", "iata": "IO", "icao": "IAE"}]}, {"destination": {"name": "Nizhneangarsk"}, "averageDailyFlights": 0.43, "operators": [{"name": "IrAero", "iata": "IO", "icao": "IAE"}, {"name": "Angara Airlines", "iata": "2G", "icao": "AGU"}]}, {"destination": {"icao": "UHBB", "iata": "BQS", "localCode": "\u0411\u0413\u0429", "name": "Blagoveschensk Ignatyevo", "shortName": "Ignatyevo", "municipalityName": "Blagoveschensk", "location": {"lat": 50.4254, "lon": 127.412}, "countryCode": "RU"}, "averageDailyFlights": 0.29, "operators": [{"name": "IrAero", "iata": "IO", "icao": "IAE"}, {"name": "S7 Airlines", "iata": "S7", "icao": "SBI"}]}, {"destination": {"icao": "USSS", "iata": "SVX", "localCode": "\u041a\u041b\u0426", "name": "Ekaterinburg Koltsovo", "shortName": "Koltsovo", "municipalityName": "Ekaterinburg", "location": {"lat": 56.7431, "lon": 60.8027}, "countryCode": "RU"}, "averageDailyFlights": 0.29, "operators": [{"name": "Ural Airlines", "iata": "U6", "icao": "SVR"}, {"name": "S7 Airlines", "iata": "S7", "icao": "SBI"}]}, {"destination": {"icao": "UIKE", "iata": "ERG", "localCode": "\u0415\u0413\u0427", "name": "Erbogachen Y", "shortName": "Y", "municipalityName": "Erbogachen", "location": {"lat": 61.275, "lon": 108.03}, "countryCode": "RU"}, "averageDailyFlights": 0.29, "operators": [{"name": "Angara Airlines", "iata": "2G", "icao": "AGU"}]}, {"destination": {"icao": "UTFF", "iata": "FEG", "localCode": "\u0424\u0413\u041d", "name": "Fergana ", "shortName": "Fergana", "municipalityName": "Fergana", "location": {"lat": 40.3588, "lon": 71.745}, "countryCode": "UZ"}, "averageDailyFlights": 0.29, "operators": [{"name": "S7 Airlines", "iata": "S7", "icao": "SBI"}]}, {"destination": {"icao": "VVNB", "iata": "HAN", "name": "Hanoi Noi Bai", "shortName": "Noi Bai", "municipalityName": "Hanoi", "location": {"lat": 21.2212, "lon": 105.807}, "countryCode": "VN"}, "averageDailyFlights": 0.29, "operators": [{"name": "IrAero", "iata": "IO", "icao": "IAE"}]}, {"destination": {"icao": "UWKD", "iata": "KZN", "name": "Kazan ", "shortName": "Kazan", "municipalityName": "Kazan", "location": {"lat": 55.6062, "lon": 49.2787}, "countryCode": "RU"}, "averageDailyFlights": 0.29, "operators": [{"name": "Nordwind Airlines", "iata": "N4", "icao": "NWS"}]}, {"destination": {"icao": "UTFN", "iata": "NMA", "localCode": "\u041d\u041c\u0413", "name": "Namangan ", "shortName": "Namangan", "municipalityName": "Namangan", "location": {"lat": 40.9846, "lon": 71.5567}, "countryCode": "UZ"}, "averageDailyFlights": 0.29, "operators": [{"name": "Uzbekistan Airways", "iata": "HY", "icao": "UZB"}]}, {"destination": {"icao": "UTTT", "iata": "TAS", "localCode": "\u0422\u0410\u0421", "name": "Tashkent ", "shortName": "Tashkent", "municipalityName": "Tashkent", "location": {"lat": 41.2579, "lon": 69.2812}, "countryCode": "UZ"}, "averageDailyFlights": 0.29, "operators": [{"name": "Uzbekistan Airways", "iata": "HY", "icao": "UZB"}]}, {"destination": {"icao": "UNTT", "iata": "TOF", "localCode": "\u0422\u0421\u041a", "name": "Tomsk Bogashevo", "shortName": "Bogashevo", "municipalityName": "Tomsk", "location": {"lat": 56.3803, "lon": 85.2083}, "countryCode": "RU"}, "averageDailyFlights": 0.29, "operators": [{"name": "UVT Aero", "iata": "RT", "icao": "UVT"}]}, {"destination": {"icao": "UWUU", "iata": "UFA", "localCode": "\u0423\u0424\u0410", "name": "Ufa ", "shortName": "Ufa", "municipalityName": "Ufa", "location": {"lat": 54.5575, "lon": 55.8744}, "countryCode": "RU"}, "averageDailyFlights": 0.29, "operators": [{"name": "S7 Airlines", "iata": "S7", "icao": "SBI"}]}, {"destination": {"name": "Taksimo"}, "averageDailyFlights": 0.29, "operators": [{"name": "IrAero", "iata": "IO", "icao": "IAE"}]}, {"destination": {"icao": "UTDD", "iata": "DYU", "localCode": "\u0414\u0428\u0411", "name": "Dushanbe ", "shortName": "Dushanbe", "municipalityName": "Dushanbe", "location": {"lat": 38.5433, "lon": 68.825}, "countryCode": "TJ"}, "averageDailyFlights": 0.14, "operators": [{"name": "Ural Airlines", "iata": "U6", "icao": "SVR"}]}, {"destination": {"icao": "ZYHB", "iata": "HRB", "name": "Harbin Taiping", "shortName": "Taiping", "municipalityName": "Harbin", "location": {"lat": 45.6234, "lon": 126.25}, "countryCode": "CN"}, "averageDailyFlights": 0.14, "operators": [{"name": "IrAero", "iata": "IO", "icao": "IAE"}]}, {"destination": {"icao": "UTDL", "iata": "LBD", "localCode": "\u0425\u0414\u0422", "name": "Khudzhand ", "shortName": "Khudzhand", "municipalityName": "Khudzhand", "location": {"lat": 40.2154, "lon": 69.6947}, "countryCode": "TJ"}, "averageDailyFlights": 0.14, "operators": [{"name": "S7 Airlines", "iata": "S7", "icao": "SBI"}]}, {"destination": {"icao": "UHPP", "iata": "PKC", "localCode": "\u041f\u0420\u041b", "name": "Petropavlovsk-Kamchatskiy Yelizovo", "shortName": "Yelizovo", "municipalityName": "Petropavlovsk-Kamchatskiy", "location": {"lat": 53.1679, "lon": 158.454}, "countryCode": "RU"}, "averageDailyFlights": 0.14, "operators": [{"name": "S7 Airlines", "iata": "S7", "icao": "SBI"}]}, {"destination": {"icao": "VTBU", "iata": "UTP", "name": "Rayong U-Tapao", "shortName": "U-Tapao", "municipalityName": "Rayong", "location": {"lat": 12.6799, "lon": 101.005}, "countryCode": "TH"}, "averageDailyFlights": 0.14, "operators": [{"name": "AZUR Air", "iata": "ZF", "icao": "KTK"}]}, {"destination": {"icao": "UHSS", "iata": "UUS", "localCode": "\u042e\u0416\u0425", "name": "Yuzhno-Sakhalinsk ", "shortName": "Yuzhno-Sakhalinsk", "municipalityName": "Yuzhno-Sakhalinsk", "location": {"lat": 46.8887, "lon": 142.718}, "countryCode": "RU"}, "averageDailyFlights": 0.14, "operators": [{"name": "S7 Airlines", "iata": "S7", "icao": "SBI"}]}, {"destination": {"name": "Lensk"}, "averageDailyFlights": 0.14, "operators": [{"name": "IrAero", "iata": "IO", "icao": "IAE"}]}]}