{"routes": [{"destination": {"icao": "USTR", "iata": "TJM", "localCode": "\u0420\u0429\u041d", "name": "Tyumen Roshchino", "shortName": "Roshchino", "municipalityName": "Tyumen", "location": {"lat": 57.1896, "lon": 65.3243}, "countryCode": "RU"}, "averageDailyFlights": 1.14, "operators": [{"name": "Yamal Airlines", "iata": "YC", "icao": "LLM"}, {"name": "Gazpromavia", "iata": "4G", "icao": "GZP"}]}, {"destination": {"icao": "UUDD", "iata": "DME", "localCode": "\u0414\u041c\u0414", "name": "Moscow Domodedovo", "shortName": "Domodedovo", "municipalityName": "Moscow", "location": {"lat": 55.4088, "lon": 37.9063}, "countryCode": "RU"}, "averageDailyFlights": 0.88, "operators": [{"name": "Yamal Airlines", "iata": "YC", "icao": "LLM"}, {"name": "Gazpromavia", "iata": "4G", "icao": "GZP"}]}, {"destination": {"icao": "USSS", "iata": "SVX", "localCode": "\u041a\u041b\u0426", "name": "Ekaterinburg Koltsovo", "shortName": "Koltsovo", "municipalityName": "Ekaterinburg", "location": {"lat": 56.7431, "lon": 60.8027}, "countryCode": "RU"}, "averageDailyFlights": 0.86, "operators": [{"name": "Yamal Airlines", "iata": "YC", "icao": "LLM"}, {"name": "RusLine", "iata": "7R", "icao": "RLU"}]}, {"destination": {"name": "Bovanenkovo"}, "averageDailyFlights": 0.86, "operators": [{"name": "Gazpromavia", "iata": "4G", "icao": "GZP"}]}, {"destination": {"name": "Nadym"}, "averageDailyFlights": 0.43, "operators": [{"name": "AK Yamal"}]}, {"destination": {"icao": "UNNT", "iata": "OVB", "localCode": "\u0422\u041b\u0427", "name": "Novosibirsk Tolmachevo", "shortName": "Tolmachevo", "municipalityName": "Novosibirsk", "location": {"lat": 55.0126, "lon": 82.6507}, "countryCode": "RU"}, "averageDailyFlights": 0.29, "operators": [{"name": "S7 Airlines", "iata": "S7", "icao": "SBI"}]}, {"destination": {"icao": "ULLI", "iata": "LED", "localCode": "\u041f\u041b\u041a", "name": "Saint-Petersburg Pulkovo", "shortName": "Pulkovo", "municipalityName": "Saint-Petersburg", "location": {"lat": 59.8003, "lon": 30.2625}, "countryCode": "RU"}, "averageDailyFlights": 0.29, "operators": [{"name": "Yamal Airlines", "iata": "YC", "icao": "LLM"}]}, {"destination": {"icao": "UWUU", "iata": "UFA", "localCode": "\u0423\u0424\u0410", "name": "Ufa ", "shortName": "Ufa", "municipalityName": "Ufa", "location": {"lat": 54.5575, "lon": 55.8744}, "countryCode": "RU"}, "averageDailyFlights": 0.29, "operators": [{"name": "Yamal Airlines", "iata": "YC", "icao": "LLM"}]}, {"destination": {"icao": "URSS", "iata": "AER", "localCode": "\u0421\u041e\u0427", "name": "Sochi ", "shortName": "Sochi", "municipalityName": "Sochi", "location": {"lat": 43.4499, "lon": 39.9566}, "countryCode": "RU"}, "averageDailyFlights": 0.14, "operators": [{"name": "Yamal Airlines", "iata": "YC", "icao": "LLM"}]}]}