{"routes": [{"destination": {"icao": "VTBD", "iata": "DMK", "name": "Bangkok Don Mueang", "shortName": "Don Mueang", "municipalityName": "Bangkok", "location": {"lat": 13.912599, "lon": 100.607}, "countryCode": "TH"}, "averageDailyFlights": 8.14, "operators": [{"name": "Thai AirAsia", "iata": "FD", "icao": "AIQ"}, {"name": "Thai Lion Air", "iata": "SL", "icao": "TLM"}]}, {"destination": {"icao": "VTBS", "iata": "BKK", "name": "Bangkok Suvarnabhumi", "shortName": "Suvarnabhumi", "municipalityName": "Bangkok", "location": {"lat": 13.681099, "lon": 100.747}, "countryCode": "TH"}, "averageDailyFlights": 8.14, "operators": [{"name": "Thai Smile", "iata": "WE", "icao": "THD"}, {"name": "Thai Vietjet Air", "iata": "VZ", "icao": "TVJ"}, {"name": "Bangkok Airways", "iata": "PG", "icao": "BKP"}]}, {"destination": {"icao": "WMKK", "iata": "KUL", "name": "Kuala Lumpur ", "shortName": "Kuala Lumpur", "municipalityName": "Kuala Lumpur", "location": {"lat": 2.745579, "lon": 101.71}, "countryCode": "MY"}, "averageDailyFlights": 3.29, "operators": [{"name": "AirAsia", "iata": "AK", "icao": "AXM"}]}, {"destination": {"icao": "VTCC", "iata": "CNX", "name": "Chiangmai Chiang Mai", "shortName": "Chiang Mai", "municipalityName": "Chiangmai", "location": {"lat": 18.7668, "lon": 98.9626}, "countryCode": "TH"}, "averageDailyFlights": 2.43, "operators": [{"name": "Thai AirAsia", "iata": "FD", "icao": "AIQ"}]}, {"destination": {"icao": "OMDB", "iata": "DXB", "name": "Dubai ", "shortName": "Dubai", "municipalityName": "Dubai", "location": {"lat": 25.252798, "lon": 55.3644}, "countryCode": "AE"}, "averageDailyFlights": 2.0, "operators": [{"name": "flydubai", "iata": "FZ", "icao": "FDB"}]}, {"destination": {"name": "Singapore"}, "averageDailyFlights": 0.86, "operators": [{"name": "Scoot", "iata": "TR", "icao": "TGW"}]}]}