{"routes": [{"destination": {"icao": "VYMD", "iata": "MDL", "name": "Mandalay ", "shortName": "Mandalay", "municipalityName": "Mandalay", "location": {"lat": 21.7022, "lon": 95.9779}, "countryCode": "MM"}, "averageDailyFlights": 4.86, "operators": [{"name": "Mann Yadanarpon Airlines", "iata": "7Y", "icao": "MYP"}, {"name": "Myanmar Airways International", "iata": "8M", "icao": "MMA"}, {"name": "Myanmar National Airlines", "iata": "UB", "icao": "UBA"}, {"name": "Air KBZ", "iata": "K7", "icao": "KBZ"}]}, {"destination": {"icao": "VTBS", "iata": "BKK", "name": "Bangkok Suvarnabhumi", "shortName": "Suvarnabhumi", "municipalityName": "Bangkok", "location": {"lat": 13.681099, "lon": 100.747}, "countryCode": "TH"}, "averageDailyFlights": 4.43, "operators": [{"name": "Myanmar National Airlines", "iata": "UB", "icao": "UBA"}, {"name": "Thai Airways International", "iata": "TG", "icao": "THA"}]}, {"destination": {"icao": "VYSW", "iata": "AKY", "name": "Sittwe ", "shortName": "Sittwe", "municipalityName": "Sittwe", "location": {"lat": 20.132698, "lon": 92.8726}, "countryCode": "MM"}, "averageDailyFlights": 4.29, "operators": [{"name": "Air KBZ", "iata": "K7", "icao": "KBZ"}, {"name": "Mann Yadanarpon Airlines", "iata": "7Y", "icao": "MYP"}, {"name": "Myanmar National Airlines", "iata": "UB", "icao": "UBA"}, {"name": "Myanmar Airways International", "iata": "8M", "icao": "MMA"}]}, {"destination": {"icao": "WSSS", "iata": "SIN", "name": "Singapore Changi", "shortName": "Changi", "municipalityName": "Singapore", "location": {"lat": 1.35019, "lon": 103.994}, "countryCode": "SG"}, "averageDailyFlights": 4.14, "operators": [{"name": "Myanmar National Airlines", "iata": "UB", "icao": "UBA"}, {"name": "Myanmar Airways International", "iata": "8M", "icao": "MMA"}, {"name": "Singapore Airlines", "iata": "SQ", "icao": "SIA"}]}, {"destination": {"icao": "VTBD", "iata": "DMK", "name": "Bangkok Don Mueang", "shortName": "Don Mueang", "municipalityName": "Bangkok", "location": {"lat": 13.912599, "lon": 100.607}, "countryCode": "TH"}, "averageDailyFlights": 3.29, "operators": [{"name": "Thai AirAsia", "iata": "FD", "icao": "AIQ"}, {"name": "Myanmar Airways International", "iata": "8M", "icao": "MMA"}]}, {"destination": {"icao": "VYHH", "iata": "HEH", "name": "Heho ", "shortName": "Heho", "municipalityName": "Heho", "location": {"lat": 20.747, "lon": 96.792}, "countryCode": "MM"}, "averageDailyFlights": 3.14, "operators": [{"name": "Mann Yadanarpon Airlines", "iata": "7Y", "icao": "MYP"}, {"name": "Air KBZ", "iata": "K7", "icao": "KBZ"}, {"name": "Myanmar Airways International", "iata": "8M", "icao": "MMA"}]}, {"destination": {"icao": "WMKK", "iata": "KUL", "name": "Kuala Lumpur ", "shortName": "Kuala Lumpur", "municipalityName": "Kuala Lumpur", "location": {"lat": 2.745579, "lon": 101.71}, "countryCode": "MY"}, "averageDailyFlights": 3.14, "operators": [{"name": "Malaysia Airlines", "iata": "MH", "icao": "MAS"}, {"name": "Myanmar Airways International", "iata": "8M", "icao": "MMA"}]}, {"destination": {"icao": "VYDW", "iata": "TVY", "name": "Dawei ", "shortName": "Dawei", "municipalityName": "Dawei", "location": {"lat": 14.103899, "lon": 98.2036}, "countryCode": "MM"}, "averageDailyFlights": 2.14, "operators": [{"name": "Mann Yadanarpon Airlines", "iata": "7Y", "icao": "MYP"}, {"name": "Myanmar National Airlines", "iata": "UB", "icao": "UBA"}, {"name": "Myanmar Airways International", "iata": "8M", "icao": "MMA"}, {"name": "Air KBZ", "iata": "K7", "icao": "KBZ"}]}, {"destination": {"icao": "VYTD", "iata": "SNW", "name": "Thandwe ", "shortName": "Thandwe", "municipalityName": "Thandwe", "location": {"lat": 18.4607, "lon": 94.3001}, "countryCode": "MM"}, "averageDailyFlights": 2.14, "operators": [{"name": "Air KBZ", "iata": "K7", "icao": "KBZ"}, {"name": "Mann Yadanarpon Airlines", "iata": "7Y", "icao": "MYP"}, {"name": "Myanmar Airways International", "iata": "8M", "icao": "MMA"}]}, {"destination": {"icao": "VYLS", "iata": "LSH", "name": "Lashio ", "shortName": "Lashio", "municipalityName": "Lashio", "location": {"lat": 22.9779, "lon": 97.7522}, "countryCode": "MM"}, "averageDailyFlights": 1.86, "operators": [{"name": "Mann Yadanarpon Airlines", "iata": "7Y", "icao": "MYP"}, {"name": "Myanmar National Airlines", "iata": "UB", "icao": "UBA"}, {"name": "Myanmar Airways International", "iata": "8M", "icao": "MMA"}]}, {"destination": {"icao": "VYME", "iata": "MGZ", "name": "Mkeik Myeik", "shortName": "Myeik", "municipalityName": "Mkeik", "location": {"lat": 12.4398, "lon": 98.6215}, "countryCode": "MM"}, "averageDailyFlights": 1.57, "operators": [{"name": "Myanmar Airways International", "iata": "8M", "icao": "MMA"}, {"name": "Myanmar National Airlines", "iata": "UB", "icao": "UBA"}]}, {"destination": {"icao": "VYMK", "iata": "MYT", "name": "Myitkyina ", "shortName": "Myitkyina", "municipalityName": "Myitkyina", "location": {"lat": 25.3836, "lon": 97.3519}, "countryCode": "MM"}, "averageDailyFlights": 1.29, "operators": [{"name": "Myanmar Airways International", "iata": "8M", "icao": "MMA"}]}, {"destination": {"icao": "ZGGG", "iata": "CAN", "name": "Guangzhou Baiyun", "shortName": "Baiyun", "municipalityName": "Guangzhou", "location": {"lat": 23.3924, "lon": 113.299}, "countryCode": "CN"}, "averageDailyFlights": 1.14, "operators": [{"name": "Myanmar Airways International", "iata": "8M", "icao": "MMA"}, {"name": "China Southern Airlines", "iata": "CZ", "icao": "CSN"}]}, {"destination": {"icao": "ZPPP", "iata": "KMG", "name": "Kunming Changshui", "shortName": "Changshui", "municipalityName": "Kunming", "location": {"lat": 25.101944, "lon": 102.92917}, "countryCode": "CN"}, "averageDailyFlights": 1.14, "operators": [{"name": "China Eastern Airlines", "iata": "MU", "icao": "CES"}]}, {"destination": {"icao": "VYTL", "iata": "THL", "name": "Tachileik ", "shortName": "Tachileik", "municipalityName": "Tachileik", "location": {"lat": 20.4838, "lon": 99.9354}, "countryCode": "MM"}, "averageDailyFlights": 1.14, "operators": [{"name": "Air KBZ", "iata": "K7", "icao": "KBZ"}, {"name": "Mann Yadanarpon Airlines", "iata": "7Y", "icao": "MYP"}, {"name": "Myanmar Airways International", "iata": "8M", "icao": "MMA"}]}, {"destination": {"icao": "VYEL", "iata": "NYT", "name": "Pyinmana Naypyidaw", "shortName": "Naypyidaw", "municipalityName": "Pyinmana", "location": {"lat": 19.6235, "lon": 96.201}, "countryCode": "MM"}, "averageDailyFlights": 0.71, "operators": [{"name": "Myanmar National Airlines", "iata": "UB", "icao": "UBA"}]}, {"destination": {"icao": "RKSI", "iata": "ICN", "name": "Seoul Incheon", "shortName": "Incheon", "municipalityName": "Seoul", "location": {"lat": 37.4691, "lon": 126.451}, "countryCode": "KR"}, "averageDailyFlights": 0.71, "operators": [{"name": "Myanmar Airways International", "iata": "8M", "icao": "MMA"}, {"name": "Korean Air", "iata": "KE", "icao": "KAL"}]}, {"destination": {"name": "Kalemio"}, "averageDailyFlights": 0.71, "operators": [{"name": "Myanmar National Airlines", "iata": "UB", "icao": "UBA"}]}, {"destination": {"icao": "VVNB", "iata": "HAN", "name": "Hanoi Noi Bai", "shortName": "Noi Bai", "municipalityName": "Hanoi", "location": {"lat": 21.2212, "lon": 105.807}, "countryCode": "VN"}, "averageDailyFlights": 0.57, "operators": [{"name": "Myanmar Airways International", "iata": "8M", "icao": "MMA"}]}, {"destination": {"icao": "VVTS", "iata": "SGN", "name": "Ho Chi Minh City Tan Son Nhat", "shortName": "Tan Son Nhat", "municipalityName": "Ho Chi Minh City", "location": {"lat": 10.818799, "lon": 106.652}, "countryCode": "VN"}, "averageDailyFlights": 0.57, "operators": [{"name": "Myanmar Airways International", "iata": "8M", "icao": "MMA"}]}, {"destination": {"icao": "VYKG", "iata": "KET", "name": "Kengtung ", "shortName": "Kengtung", "municipalityName": "Kengtung", "location": {"lat": 21.3016, "lon": 99.636}, "countryCode": "MM"}, "averageDailyFlights": 0.57, "operators": [{"name": "Air KBZ", "iata": "K7", "icao": "KBZ"}, {"name": "Myanmar National Airlines", "iata": "UB", "icao": "UBA"}, {"name": "Myanmar Airways International", "iata": "8M", "icao": "MMA"}]}, {"destination": {"icao": "VIDP", "iata": "DEL", "name": "New Delhi Indira Gandhi", "shortName": "Indira Gandhi", "municipalityName": "New Delhi", "location": {"lat": 28.5665, "lon": 77.1031}, "countryCode": "IN"}, "averageDailyFlights": 0.57, "operators": [{"name": "Myanmar Airways International", "iata": "8M", "icao": "MMA"}, {"name": "Air India", "iata": "AI", "icao": "AIC"}]}, {"destination": {"icao": "RCTP", "iata": "TPE", "name": "Taipei Taiwan Taoyuan", "shortName": "Taiwan Taoyuan", "municipalityName": "Taipei", "location": {"lat": 25.0777, "lon": 121.233}, "countryCode": "TW"}, "averageDailyFlights": 0.57, "operators": [{"name": "China Airlines", "iata": "CI", "icao": "CAL"}]}, {"destination": {"icao": "VTCC", "iata": "CNX", "name": "Chiangmai Chiang Mai", "shortName": "Chiang Mai", "municipalityName": "Chiangmai", "location": {"lat": 18.7668, "lon": 98.9626}, "countryCode": "TH"}, "averageDailyFlights": 0.43, "operators": [{"name": "Myanmar National Airlines", "iata": "UB", "icao": "UBA"}]}, {"destination": {"icao": "OMDB", "iata": "DXB", "name": "Dubai ", "shortName": "Dubai", "municipalityName": "Dubai", "location": {"lat": 25.252798, "lon": 55.3644}, "countryCode": "AE"}, "averageDailyFlights": 0.43, "operators": [{"name": "Myanmar Airways International", "iata": "8M", "icao": "MMA"}]}, {"destination": {"icao": "VECC", "iata": "CCU", "name": "Kolkata Netaji Subhash Chandra Bose", "shortName": "Netaji Subhash Chandra Bose", "municipalityName": "Kolkata", "location": {"lat": 22.6547, "lon": 88.4467}, "countryCode": "IN"}, "averageDailyFlights": 0.43, "operators": [{"name": "Myanmar Airways International", "iata": "8M", "icao": "MMA"}]}, {"destination": {"icao": "VDPP", "iata": "PNH", "name": "Phnom Penh ", "shortName": "Phnom Penh", "municipalityName": "Phnom Penh", "location": {"lat": 11.5466, "lon": 104.844}, "countryCode": "KH"}, "averageDailyFlights": 0.43, "operators": [{"name": "Myanmar Airways International", "iata": "8M", "icao": "MMA"}]}, {"destination": {"icao": "VTSP", "iata": "HKT", "name": "Phuket ", "shortName": "Phuket", "municipalityName": "Phuket", "location": {"lat": 8.1132, "lon": 98.3169}, "countryCode": "TH"}, "averageDailyFlights": 0.43, "operators": [{"name": "Myanmar Airways International", "iata": "8M", "icao": "MMA"}]}, {"destination": {"icao": "VYKT", "iata": "KAW", "name": "Kawthaung Kawthoung", "shortName": "Kawthoung", "municipalityName": "Kawthaung", "location": {"lat": 10.0493, "lon": 98.538}, "countryCode": "MM"}, "averageDailyFlights": 0.29, "operators": [{"name": "Myanmar Airways International", "iata": "8M", "icao": "MMA"}, {"name": "Myanmar National Airlines", "iata": "UB", "icao": "UBA"}]}, {"destination": {"icao": "VYKP", "iata": "KYP", "name": "Kyaukpyu ", "shortName": "Kyaukpyu", "municipalityName": "Kyaukpyu", "location": {"lat": 19.4264, "lon": 93.5348}, "countryCode": "MM"}, "averageDailyFlights": 0.29, "operators": [{"name": "Myanmar National Airlines", "iata": "UB", "icao": "UBA"}, {"name": "Myanmar Airways International", "iata": "8M", "icao": "MMA"}]}, {"destination": {"icao": "ZBAA", "iata": "PEK", "name": "Beijing Capital", "shortName": "Capital", "municipalityName": "Beijing", "location": {"lat": 40.0801, "lon": 116.585}, "countryCode": "CN"}, "averageDailyFlights": 0.14, "operators": [{"name": "Air China", "iata": "CA", "icao": "CCA"}]}, {"destination": {"icao": "VOMM", "iata": "MAA", "name": "Chennai ", "shortName": "Chennai", "municipalityName": "Chennai", "location": {"lat": 12.990005, "lon": 80.1693}, "countryCode": "IN"}, "averageDailyFlights": 0.14, "operators": [{"name": "Myanmar Airways International", "iata": "8M", "icao": "MMA"}]}, {"destination": {"icao": "VYBG", "iata": "NYU", "name": "Nyaung U Bagan", "shortName": "Bagan", "municipalityName": "Nyaung U", "location": {"lat": 21.1788, "lon": 94.9302}, "countryCode": "MM"}, "averageDailyFlights": 0.14, "operators": [{"name": "Myanmar Airways International", "iata": "8M", "icao": "MMA"}]}]}