{"routes": [{"destination": {"icao": "YBBN", "iata": "BNE", "name": "Brisbane City Brisbane", "shortName": "Brisbane", "municipalityName": "Brisbane City", "location": {"lat": -27.3842, "lon": 153.117}, "countryCode": "AU"}, "averageDailyFlights": 11.86, "operators": [{"name": "Qantas", "iata": "QF", "icao": "QFA"}, {"name": "Virgin Australia", "iata": "VA", "icao": "VOZ"}, {"name": "Jetstar", "iata": "JQ", "icao": "JST"}]}, {"destination": {"icao": "YBCS", "iata": "CNS", "name": "Cairns ", "shortName": "Cairns", "municipalityName": "Cairns", "location": {"lat": -16.8858, "lon": 145.755}, "countryCode": "AU"}, "averageDailyFlights": 6.0, "operators": [{"name": "Qantas", "iata": "QF", "icao": "QFA"}, {"name": "Rex Regional Express", "iata": "ZL", "icao": "RXA"}]}, {"destination": {"icao": "YBMK", "iata": "MKY", "name": "Mackay ", "shortName": "Mackay", "municipalityName": "Mackay", "location": {"lat": -21.1717, "lon": 149.18}, "countryCode": "AU"}, "averageDailyFlights": 2.71, "operators": [{"name": "Qantas", "iata": "QF", "icao": "QFA"}]}, {"destination": {"icao": "YMML", "iata": "MEL", "name": "Melbourne City Melbourne", "shortName": "Melbourne", "municipalityName": "Melbourne City", "location": {"lat": -37.6733, "lon": 144.843}, "countryCode": "AU"}, "averageDailyFlights": 2.29, "operators": [{"name": "Qantas", "iata": "QF", "icao": "QFA"}, {"name": "Jetstar", "iata": "JQ", "icao": "JST"}]}, {"destination": {"icao": "YSSY", "iata": "SYD", "name": "Sydney City Sydney Kingsford Smith", "shortName": "Sydney Kingsford Smith", "municipalityName": "Sydney City", "location": {"lat": -33.9461, "lon": 151.177}, "countryCode": "AU"}, "averageDailyFlights": 1.86, "operators": [{"name": "Qantas", "iata": "QF", "icao": "QFA"}, {"name": "Jetstar", "iata": "JQ", "icao": "JST"}]}, {"destination": {"icao": "YBMA", "iata": "ISA", "name": "Mt Isa Mount Isa", "shortName": "Mount Isa", "municipalityName": "Mt Isa", "location": {"lat": -20.6639, "lon": 139.489}, "countryCode": "AU"}, "averageDailyFlights": 1.43, "operators": [{"name": "Qantas", "iata": "QF", "icao": "QFA"}]}, {"destination": {"icao": "YCCY", "iata": "CNJ", "name": "Cloncurry ", "shortName": "Cloncurry", "municipalityName": "Cloncurry", "location": {"lat": -20.6686, "lon": 140.504}, "countryCode": "AU"}, "averageDailyFlights": 1.0, "operators": [{"name": "Qantas", "iata": "QF", "icao": "QFA"}, {"name": "Alliance Airlines", "iata": "QQ", "icao": "UTY"}]}, {"destination": {"icao": "YPAD", "iata": "ADL", "name": "Adelaide ", "shortName": "Adelaide", "municipalityName": "Adelaide", "location": {"lat": -34.945, "lon": 138.531}, "countryCode": "AU"}, "averageDailyFlights": 0.43, "operators": [{"name": "Qantas", "iata": "QF", "icao": "QFA"}]}, {"destination": {"icao": "YPDN", "iata": "DRW", "name": "Port Darwin Darwin", "shortName": "Darwin", "municipalityName": "Port Darwin", "location": {"lat": -12.414699, "lon": 130.877}, "countryCode": "AU"}, "averageDailyFlights": 0.43, "operators": [{"name": "Airnorth", "iata": "TL", "icao": "ANO"}]}]}