{"routes": [{"destination": {"icao": "ZUCK", "iata": "CKG", "name": "Chongqing Jiangbei", "shortName": "Jiangbei", "municipalityName": "Chongqing", "location": {"lat": 29.7192, "lon": 106.642}, "countryCode": "CN"}, "averageDailyFlights": 12.14, "operators": [{"name": "Shandong Airlines", "iata": "SC", "icao": "CDG"}, {"name": "Sichuan Airlines", "iata": "3U", "icao": "CSC"}, {"name": "China Eastern Airlines", "iata": "MU", "icao": "CES"}, {"name": "West Air (China)", "iata": "PN", "icao": "CHB"}]}, {"destination": {"icao": "ZGSZ", "iata": "SZX", "name": "Shenzhen Bao'an", "shortName": "Bao'an", "municipalityName": "Shenzhen", "location": {"lat": 22.6393, "lon": 113.811}, "countryCode": "CN"}, "averageDailyFlights": 11.86, "operators": [{"name": "Shandong Airlines", "iata": "SC", "icao": "CDG"}, {"name": "Shenzhen Airlines", "iata": "ZH", "icao": "CSZ"}, {"name": "China Southern Airlines", "iata": "CZ", "icao": "CSN"}, {"name": "West Air (China)", "iata": "PN", "icao": "CHB"}, {"name": "Hainan Airlines", "iata": "HU", "icao": "CHH"}]}, {"destination": {"icao": "ZGGG", "iata": "CAN", "name": "Guangzhou Baiyun", "shortName": "Baiyun", "municipalityName": "Guangzhou", "location": {"lat": 23.3924, "lon": 113.299}, "countryCode": "CN"}, "averageDailyFlights": 10.86, "operators": [{"name": "China Southern Airlines", "iata": "CZ", "icao": "CSN"}, {"name": "Shandong Airlines", "iata": "SC", "icao": "CDG"}, {"name": "Shenzhen Airlines", "iata": "ZH", "icao": "CSZ"}, {"name": "China Eastern Airlines", "iata": "MU", "icao": "CES"}]}, {"destination": {"icao": "ZGHA", "iata": "CSX", "name": "Changsha Huanghua", "shortName": "Huanghua", "municipalityName": "Changsha", "location": {"lat": 28.1892, "lon": 113.22}, "countryCode": "CN"}, "averageDailyFlights": 10.57, "operators": [{"name": "Shandong Airlines", "iata": "SC", "icao": "CDG"}, {"name": "China Southern Airlines", "iata": "CZ", "icao": "CSN"}, {"name": "West Air (China)", "iata": "PN", "icao": "CHB"}, {"name": "Hainan Airlines", "iata": "HU", "icao": "CHH"}, {"name": "Yunnan Hong Tu Airlines"}, {"name": "Air China", "iata": "CA", "icao": "CCA"}, {"name": "Okay Airways", "iata": "BK", "icao": "OKA"}, {"name": "Xiamen Airlines", "iata": "MF", "icao": "CXA"}, {"name": "Chengdu Airlines", "iata": "EU", "icao": "UEA"}]}, {"destination": {"icao": "ZYHB", "iata": "HRB", "name": "Harbin Taiping", "shortName": "Taiping", "municipalityName": "Harbin", "location": {"lat": 45.6234, "lon": 126.25}, "countryCode": "CN"}, "averageDailyFlights": 10.14, "operators": [{"name": "Shandong Airlines", "iata": "SC", "icao": "CDG"}, {"name": "Chengdu Airlines", "iata": "EU", "icao": "UEA"}, {"name": "Hainan Airlines", "iata": "HU", "icao": "CHH"}, {"name": "Beijing Capital Airlines", "iata": "JD", "icao": "CBJ"}, {"name": "Urumqi Airlines", "iata": "UQ", "icao": "CUH"}, {"name": "Air Guilin", "iata": "GT", "icao": "CGH"}, {"name": "Okay Airways", "iata": "BK", "icao": "OKA"}, {"name": "Xiamen Airlines", "iata": "MF", "icao": "CXA"}]}, {"destination": {"icao": "ZUUU", "iata": "CTU", "name": "Chengdu Shuangliu", "shortName": "Shuangliu", "municipalityName": "Chengdu", "location": {"lat": 30.5785, "lon": 103.947}, "countryCode": "CN"}, "averageDailyFlights": 9.9, "operators": [{"name": "Air China", "iata": "CA", "icao": "CCA"}, {"name": "Tibet Airlines", "iata": "TV", "icao": "TBA"}, {"name": "Sichuan Airlines", "iata": "3U", "icao": "CSC"}, {"name": "Shandong Airlines", "iata": "SC", "icao": "CDG"}, {"name": "GX Airlines", "iata": "GX", "icao": "CBG"}, {"name": "Chengdu Airlines", "iata": "EU", "icao": "UEA"}, {"name": "West Air (China)", "iata": "PN", "icao": "CHB"}]}, {"destination": {"icao": "ZLXY", "iata": "XIY", "name": "Xianyang Xi'an", "shortName": "Xi'an", "municipalityName": "Xianyang", "location": {"lat": 34.4471, "lon": 108.752}, "countryCode": "CN"}, "averageDailyFlights": 9.43, "operators": [{"name": "Shandong Airlines", "iata": "SC", "icao": "CDG"}, {"name": "China Eastern Airlines", "iata": "MU", "icao": "CES"}, {"name": "Hainan Airlines", "iata": "HU", "icao": "CHH"}, {"name": "Loong Air", "iata": "GJ", "icao": "CDC"}, {"name": "Tianjin Airlines", "iata": "GS", "icao": "GCR"}]}, {"destination": {"icao": "ZHHH", "iata": "WUH", "name": "Wuhan Tianhe", "shortName": "Tianhe", "municipalityName": "Wuhan", "location": {"lat": 30.7838, "lon": 114.208}, "countryCode": "CN"}, "averageDailyFlights": 8.86, "operators": [{"name": "Shandong Airlines", "iata": "SC", "icao": "CDG"}, {"name": "China Eastern Airlines", "iata": "MU", "icao": "CES"}, {"name": "China Southern Airlines", "iata": "CZ", "icao": "CSN"}]}, {"destination": {"icao": "ZYCC", "iata": "CGQ", "name": "Changchun Longjia", "shortName": "Longjia", "municipalityName": "Changchun", "location": {"lat": 43.9962, "lon": 125.685}, "countryCode": "CN"}, "averageDailyFlights": 8.71, "operators": [{"name": "Shandong Airlines", "iata": "SC", "icao": "CDG"}, {"name": "Xiamen Airlines", "iata": "MF", "icao": "CXA"}, {"name": "Sichuan Airlines", "iata": "3U", "icao": "CSC"}, {"name": "China Eastern Airlines", "iata": "MU", "icao": "CES"}, {"name": "9 Air Co", "iata": "AQ", "icao": "JYH"}, {"name": "China Southern Airlines", "iata": "CZ", "icao": "CSN"}, {"name": "Qingdao Airlines", "iata": "QW", "icao": "QDA"}]}, {"destination": {"icao": "ZPPP", "iata": "KMG", "name": "Kunming Changshui", "shortName": "Changshui", "municipalityName": "Kunming", "location": {"lat": 25.101944, "lon": 102.92917}, "countryCode": "CN"}, "averageDailyFlights": 7.43, "operators": [{"name": "China Eastern Airlines", "iata": "MU", "icao": "CES"}, {"name": "Shandong Airlines", "iata": "SC", "icao": "CDG"}, {"name": "Sichuan Airlines", "iata": "3U", "icao": "CSC"}, {"name": "Kunming Airlines", "iata": "KY", "icao": "KNA"}, {"name": "China Southern Airlines", "iata": "CZ", "icao": "CSN"}]}, {"destination": {"icao": "ZYTL", "iata": "DLC", "name": "Dalian Zhoushuizi", "shortName": "Zhoushuizi", "municipalityName": "Dalian", "location": {"lat": 38.9657, "lon": 121.539}, "countryCode": "CN"}, "averageDailyFlights": 7.29, "operators": [{"name": "Shandong Airlines", "iata": "SC", "icao": "CDG"}, {"name": "Spring Airlines", "iata": "9C", "icao": "CQH"}, {"name": "Chengdu Airlines", "iata": "EU", "icao": "UEA"}, {"name": "Air China", "iata": "CA", "icao": "CCA"}]}, {"destination": {"icao": "ZUGY", "iata": "KWE", "name": "Guiyang Longdongbao", "shortName": "Longdongbao", "municipalityName": "Guiyang", "location": {"lat": 26.5385, "lon": 106.801}, "countryCode": "CN"}, "averageDailyFlights": 7.29, "operators": [{"name": "Shandong Airlines", "iata": "SC", "icao": "CDG"}, {"name": "9 Air Co", "iata": "AQ", "icao": "JYH"}, {"name": "China Southern Airlines", "iata": "CZ", "icao": "CSN"}, {"name": "Tianjin Airlines", "iata": "GS", "icao": "GCR"}]}, {"destination": {"icao": "ZSAM", "iata": "XMN", "name": "Xiamen Gaoqi", "shortName": "Gaoqi", "municipalityName": "Xiamen", "location": {"lat": 24.544, "lon": 118.128}, "countryCode": "CN"}, "averageDailyFlights": 6.29, "operators": [{"name": "Shandong Airlines", "iata": "SC", "icao": "CDG"}, {"name": "Xiamen Airlines", "iata": "MF", "icao": "CXA"}]}, {"destination": {"icao": "ZJHK", "iata": "HAK", "name": "Haikou Meilan", "shortName": "Meilan", "municipalityName": "Haikou", "location": {"lat": 19.9349, "lon": 110.459}, "countryCode": "CN"}, "averageDailyFlights": 4.57, "operators": [{"name": "Hainan Airlines", "iata": "HU", "icao": "CHH"}, {"name": "Tianjin Airlines", "iata": "GS", "icao": "GCR"}, {"name": "Shandong Airlines", "iata": "SC", "icao": "CDG"}, {"name": "Beijing Capital Airlines", "iata": "JD", "icao": "CBJ"}]}, {"destination": {"icao": "ZLLL", "iata": "LHW", "name": "Lanzhou Zhongchuan", "shortName": "Zhongchuan", "municipalityName": "Lanzhou", "location": {"lat": 36.5152, "lon": 103.62}, "countryCode": "CN"}, "averageDailyFlights": 4.57, "operators": [{"name": "Shandong Airlines", "iata": "SC", "icao": "CDG"}, {"name": "Spring Airlines", "iata": "9C", "icao": "CQH"}, {"name": "China Eastern Airlines", "iata": "MU", "icao": "CES"}]}, {"destination": {"icao": "ZJSY", "iata": "SYX", "name": "Sanya Phoenix", "shortName": "Phoenix", "municipalityName": "Sanya", "location": {"lat": 18.3029, "lon": 109.412}, "countryCode": "CN"}, "averageDailyFlights": 4.57, "operators": [{"name": "West Air (China)", "iata": "PN", "icao": "CHB"}, {"name": "Shandong Airlines", "iata": "SC", "icao": "CDG"}, {"name": "Hainan Airlines", "iata": "HU", "icao": "CHH"}, {"name": "Sichuan Airlines", "iata": "3U", "icao": "CSC"}]}, {"destination": {"name": "\u00dcr\u00fcmqi"}, "averageDailyFlights": 4.57, "operators": [{"name": "Xiamen Airlines", "iata": "MF", "icao": "CXA"}, {"name": "Shandong Airlines", "iata": "SC", "icao": "CDG"}, {"name": "China Southern Airlines", "iata": "CZ", "icao": "CSN"}]}, {"destination": {"icao": "ZYTX", "iata": "SHE", "name": "Shenyang Taoxian", "shortName": "Taoxian", "municipalityName": "Shenyang", "location": {"lat": 41.6398, "lon": 123.483}, "countryCode": "CN"}, "averageDailyFlights": 3.86, "operators": [{"name": "Jiangxi Airlines", "iata": "RY", "icao": "CJX"}, {"name": "Shandong Airlines", "iata": "SC", "icao": "CDG"}]}, {"destination": {"icao": "ZGKL", "iata": "KWL", "name": "Guilin City Guilin Liangjiang", "shortName": "Guilin Liangjiang", "municipalityName": "Guilin City", "location": {"lat": 25.2181, "lon": 110.039}, "countryCode": "CN"}, "averageDailyFlights": 3.43, "operators": [{"name": "Shandong Airlines", "iata": "SC", "icao": "CDG"}, {"name": "Air Guilin", "iata": "GT", "icao": "CGH"}]}, {"destination": {"icao": "ZSCN", "iata": "KHN", "name": "Nanchang Changbei", "shortName": "Changbei", "municipalityName": "Nanchang", "location": {"lat": 28.865, "lon": 115.9}, "countryCode": "CN"}, "averageDailyFlights": 3.43, "operators": [{"name": "China Eastern Airlines", "iata": "MU", "icao": "CES"}, {"name": "Jiangxi Airlines", "iata": "RY", "icao": "CJX"}, {"name": "Shandong Airlines", "iata": "SC", "icao": "CDG"}]}, {"destination": {"icao": "ZSFZ", "iata": "FOC", "name": "Fuzhou Changle", "shortName": "Changle", "municipalityName": "Fuzhou", "location": {"lat": 25.9351, "lon": 119.663}, "countryCode": "CN"}, "averageDailyFlights": 2.86, "operators": [{"name": "Shandong Airlines", "iata": "SC", "icao": "CDG"}, {"name": "Xiamen Airlines", "iata": "MF", "icao": "CXA"}, {"name": "Qingdao Airlines", "iata": "QW", "icao": "QDA"}]}, {"destination": {"icao": "ZPJH", "iata": "JHG", "name": "Jinghong Xishuangbanna Gasa", "shortName": "Xishuangbanna Gasa", "municipalityName": "Jinghong", "location": {"lat": 21.9739, "lon": 100.76}, "countryCode": "CN"}, "averageDailyFlights": 2.29, "operators": [{"name": "Air Guilin", "iata": "GT", "icao": "CGH"}, {"name": "Lucky Air", "iata": "8L", "icao": "LKE"}, {"name": "Sichuan Airlines", "iata": "3U", "icao": "CSC"}]}, {"destination": {"icao": "RKSI", "iata": "ICN", "name": "Seoul Incheon", "shortName": "Incheon", "municipalityName": "Seoul", "location": {"lat": 37.4691, "lon": 126.451}, "countryCode": "KR"}, "averageDailyFlights": 2.29, "operators": [{"name": "Shandong Airlines", "iata": "SC", "icao": "CDG"}]}, {"destination": {"icao": "ZSPD", "iata": "PVG", "name": "Shanghai Pudong", "shortName": "Pudong", "municipalityName": "Shanghai", "location": {"lat": 31.1434, "lon": 121.805}, "countryCode": "CN"}, "averageDailyFlights": 2.29, "operators": [{"name": "China Eastern Airlines", "iata": "MU", "icao": "CES"}]}, {"destination": {"icao": "ZLIC", "iata": "INC", "name": "Yinchuan ", "shortName": "Yinchuan", "municipalityName": "Yinchuan", "location": {"lat": 38.4819, "lon": 106.009}, "countryCode": "CN"}, "averageDailyFlights": 2.29, "operators": [{"name": "Shandong Airlines", "iata": "SC", "icao": "CDG"}]}, {"destination": {"icao": "ZGSD", "iata": "ZUH", "name": "Zhuhai ", "shortName": "Zhuhai", "municipalityName": "Zhuhai", "location": {"lat": 22.0064, "lon": 113.376}, "countryCode": "CN"}, "averageDailyFlights": 2.29, "operators": [{"name": "Shandong Airlines", "iata": "SC", "icao": "CDG"}, {"name": "China Southern Airlines", "iata": "CZ", "icao": "CSN"}]}, {"destination": {"icao": "ZGNN", "iata": "NNG", "name": "Nanning Wuxu", "shortName": "Wuxu", "municipalityName": "Nanning", "location": {"lat": 22.6083, "lon": 108.172}, "countryCode": "CN"}, "averageDailyFlights": 1.86, "operators": [{"name": "Shandong Airlines", "iata": "SC", "icao": "CDG"}, {"name": "GX Airlines", "iata": "GX", "icao": "CBG"}]}, {"destination": {"name": "Kashgar"}, "averageDailyFlights": 1.43, "operators": [{"name": "China Southern Airlines", "iata": "CZ", "icao": "CSN"}, {"name": "Shandong Airlines", "iata": "SC", "icao": "CDG"}]}, {"destination": {"icao": "ZBCF", "iata": "CIF", "name": "Chifeng ", "shortName": "Chifeng", "municipalityName": "Chifeng", "location": {"lat": 42.235, "lon": 118.908}, "countryCode": "CN"}, "averageDailyFlights": 1.14, "operators": [{"name": "China Express Airlines", "iata": "G5", "icao": "HXA"}]}, {"destination": {"icao": "ZUGU", "iata": "GYS", "name": "Guangyuan ", "shortName": "Guangyuan", "municipalityName": "Guangyuan", "location": {"lat": 32.3911, "lon": 105.702}, "countryCode": "CN"}, "averageDailyFlights": 1.14, "operators": [{"name": "Sichuan Airlines", "iata": "3U", "icao": "CSC"}]}, {"destination": {"icao": "ZBHH", "iata": "HET", "name": "Hohhot Baita", "shortName": "Baita", "municipalityName": "Hohhot", "location": {"lat": 40.8514, "lon": 111.824}, "countryCode": "CN"}, "averageDailyFlights": 1.14, "operators": [{"name": "Shandong Airlines", "iata": "SC", "icao": "CDG"}]}, {"destination": {"icao": "VHHH", "iata": "HKG", "name": "Hong Kong Chek Lap Kok", "shortName": "Chek Lap Kok", "municipalityName": "Hong Kong", "location": {"lat": 22.3089, "lon": 113.915}, "countryCode": "HK"}, "averageDailyFlights": 1.14, "operators": [{"name": "Shandong Airlines", "iata": "SC", "icao": "CDG"}]}, {"destination": {"icao": "ZUMY", "iata": "MIG", "name": "Mianyang ", "shortName": "Mianyang", "municipalityName": "Mianyang", "location": {"lat": 31.4281, "lon": 104.741}, "countryCode": "CN"}, "averageDailyFlights": 1.14, "operators": [{"name": "Shandong Airlines", "iata": "SC", "icao": "CDG"}]}, {"destination": {"icao": "ZBDS", "iata": "DSN", "name": "Ordos Ejin Horo", "shortName": "Ejin Horo", "municipalityName": "Ordos", "location": {"lat": 39.49, "lon": 109.86139}, "countryCode": "CN"}, "averageDailyFlights": 1.14, "operators": [{"name": "China Eastern Airlines", "iata": "MU", "icao": "CES"}]}, {"destination": {"icao": "RJBB", "iata": "KIX", "name": "Osaka Kansai", "shortName": "Kansai", "municipalityName": "Osaka", "location": {"lat": 34.4273, "lon": 135.244}, "countryCode": "JP"}, "averageDailyFlights": 1.14, "operators": [{"name": "Shandong Airlines", "iata": "SC", "icao": "CDG"}]}, {"destination": {"icao": "ZSQZ", "iata": "JJN", "name": "Quanzhou ", "shortName": "Quanzhou", "municipalityName": "Quanzhou", "location": {"lat": 24.7964, "lon": 118.59}, "countryCode": "CN"}, "averageDailyFlights": 1.14, "operators": [{"name": "Xiamen Airlines", "iata": "MF", "icao": "CXA"}]}, {"destination": {"icao": "ZSSS", "iata": "SHA", "name": "Shanghai Hongqiao", "shortName": "Hongqiao", "municipalityName": "Shanghai", "location": {"lat": 31.1979, "lon": 121.336}, "countryCode": "CN"}, "averageDailyFlights": 1.14, "operators": [{"name": "Shandong Airlines", "iata": "SC", "icao": "CDG"}]}, {"destination": {"icao": "ZHSS", "iata": "SHS", "name": "Shashi ", "shortName": "Shashi", "municipalityName": "Shashi", "location": {"lat": 30.3244, "lon": 112.281}, "countryCode": "CN"}, "averageDailyFlights": 1.14, "operators": [{"name": "Kunming Airlines", "iata": "KY", "icao": "KNA"}]}, {"destination": {"icao": "ZSWH", "iata": "WEH", "name": "Weihai ", "shortName": "Weihai", "municipalityName": "Weihai", "location": {"lat": 37.1871, "lon": 122.229}, "countryCode": "CN"}, "averageDailyFlights": 1.14, "operators": [{"name": "Shandong Airlines", "iata": "SC", "icao": "CDG"}]}, {"destination": {"icao": "ZSWZ", "iata": "WNZ", "name": "Wenzhou Yongqiang", "shortName": "Yongqiang", "municipalityName": "Wenzhou", "location": {"lat": 27.9122, "lon": 120.852}, "countryCode": "CN"}, "averageDailyFlights": 1.14, "operators": [{"name": "Shandong Airlines", "iata": "SC", "icao": "CDG"}]}, {"destination": {"icao": "ZSYT", "iata": "YNT", "name": "Yantai Laishan", "shortName": "Laishan", "municipalityName": "Yantai", "location": {"lat": 37.4017, "lon": 121.372}, "countryCode": "CN"}, "averageDailyFlights": 1.14, "operators": [{"name": "Shandong Airlines", "iata": "SC", "icao": "CDG"}]}, {"destination": {"icao": "ZUYB", "iata": "YBP", "name": "Yibin Caiba", "shortName": "Caiba", "municipalityName": "Yibin", "location": {"lat": 28.800554, "lon": 104.545}, "countryCode": "CN"}, "averageDailyFlights": 1.14, "operators": [{"name": "Colorful Guizhou Airlines", "iata": "GY", "icao": "CGZ"}]}, {"destination": {"icao": "ZGZJ", "iata": "ZHA", "name": "Zhanjiang ", "shortName": "Zhanjiang", "municipalityName": "Zhanjiang", "location": {"lat": 21.2144, "lon": 110.358}, "countryCode": "CN"}, "averageDailyFlights": 1.14, "operators": [{"name": "Urumqi Airlines", "iata": "UQ", "icao": "CUH"}]}, {"destination": {"icao": "ZSZS", "iata": "HSN", "name": "Zhoushan ", "shortName": "Zhoushan", "municipalityName": "Zhoushan", "location": {"lat": 29.9342, "lon": 122.362}, "countryCode": "CN"}, "averageDailyFlights": 1.14, "operators": [{"name": "Shandong Airlines", "iata": "SC", "icao": "CDG"}]}, {"destination": {"icao": "ZSGZ", "iata": "KOW", "name": "Ganzhou ", "shortName": "Ganzhou", "municipalityName": "Ganzhou", "location": {"lat": 25.853333, "lon": 114.77889}, "countryCode": "CN"}, "averageDailyFlights": 1.0, "operators": [{"name": "Lucky Air", "iata": "8L", "icao": "LKE"}]}, {"destination": {"icao": "ZPLJ", "iata": "LJG", "name": "Lijiang ", "shortName": "Lijiang", "municipalityName": "Lijiang", "location": {"lat": 26.68, "lon": 100.246}, "countryCode": "CN"}, "averageDailyFlights": 0.86, "operators": [{"name": "Beijing Capital Airlines", "iata": "JD", "icao": "CBJ"}]}, {"destination": {"icao": "ZYJM", "iata": "JMU", "name": "Jiamusi ", "shortName": "Jiamusi", "municipalityName": "Jiamusi", "location": {"lat": 46.8434, "lon": 130.465}, "countryCode": "CN"}, "averageDailyFlights": 0.71, "operators": [{"name": "China Eastern Airlines", "iata": "MU", "icao": "CES"}]}, {"destination": {"icao": "VTSP", "iata": "HKT", "name": "Phuket ", "shortName": "Phuket", "municipalityName": "Phuket", "location": {"lat": 8.1132, "lon": 98.3169}, "countryCode": "TH"}, "averageDailyFlights": 0.71, "operators": [{"name": "Thai Vietjet Air", "iata": "VZ", "icao": "TVJ"}]}, {"destination": {"icao": "VTBD", "iata": "DMK", "name": "Bangkok Don Mueang", "shortName": "Don Mueang", "municipalityName": "Bangkok", "location": {"lat": 13.912599, "lon": 100.607}, "countryCode": "TH"}, "averageDailyFlights": 0.57, "operators": [{"name": "Thai Lion Air", "iata": "SL", "icao": "TLM"}]}, {"destination": {"icao": "ZBDT", "iata": "DAT", "name": "Datong ", "shortName": "Datong", "municipalityName": "Datong", "location": {"lat": 40.0603, "lon": 113.482}, "countryCode": "CN"}, "averageDailyFlights": 0.57, "operators": [{"name": "Shandong Airlines", "iata": "SC", "icao": "CDG"}]}, {"destination": {"icao": "ZHES", "iata": "ENH", "name": "Enshi ", "shortName": "Enshi", "municipalityName": "Enshi", "location": {"lat": 30.3203, "lon": 109.485}, "countryCode": "CN"}, "averageDailyFlights": 0.57, "operators": [{"name": "Spring Airlines", "iata": "9C", "icao": "CQH"}]}, {"destination": {"icao": "ZSLQ", "iata": "HYN", "name": "Huangyan Luqiao", "shortName": "Luqiao", "municipalityName": "Huangyan", "location": {"lat": 28.5622, "lon": 121.429}, "countryCode": "CN"}, "averageDailyFlights": 0.57, "operators": [{"name": "Shandong Airlines", "iata": "SC", "icao": "CDG"}]}, {"destination": {"icao": "ZSJU", "iata": "JUZ", "name": "Quzhou ", "shortName": "Quzhou", "municipalityName": "Quzhou", "location": {"lat": 28.9658, "lon": 118.899}, "countryCode": "CN"}, "averageDailyFlights": 0.57, "operators": [{"name": "Shandong Airlines", "iata": "SC", "icao": "CDG"}]}, {"destination": {"icao": "SPSF", "iata": "SQD", "name": "San Francisco de Yeso San Francisco", "shortName": "San Francisco", "municipalityName": "San Francisco de Yeso", "location": {"lat": -6.61668, "lon": -77.7667}, "countryCode": "PE"}, "averageDailyFlights": 0.57, "operators": [{"name": "Shandong Airlines", "iata": "SC", "icao": "CDG"}]}, {"destination": {"icao": "YSSY", "iata": "SYD", "name": "Sydney City Sydney Kingsford Smith", "shortName": "Sydney Kingsford Smith", "municipalityName": "Sydney City", "location": {"lat": -33.9461, "lon": 151.177}, "countryCode": "AU"}, "averageDailyFlights": 0.57, "operators": [{"name": "China Eastern Airlines", "iata": "MU", "icao": "CES"}]}, {"destination": {"icao": "ZBTL", "iata": "TGO", "name": "Tongliao ", "shortName": "Tongliao", "municipalityName": "Tongliao", "location": {"lat": 43.5567, "lon": 122.2}, "countryCode": "CN"}, "averageDailyFlights": 0.57, "operators": [{"name": "Tianjin Airlines", "iata": "GS", "icao": "GCR"}]}, {"destination": {"icao": "ZBUH", "iata": "WUA", "name": "Wuhai ", "shortName": "Wuhai", "municipalityName": "Wuhai", "location": {"lat": 39.7934, "lon": 106.7993}, "countryCode": "CN"}, "averageDailyFlights": 0.57, "operators": [{"name": "West Air (China)", "iata": "PN", "icao": "CHB"}]}, {"destination": {"icao": "ZHYC", "iata": "YIH", "name": "Yichang ", "shortName": "Yichang", "municipalityName": "Yichang", "location": {"lat": 30.55655, "lon": 111.47999}, "countryCode": "CN"}, "averageDailyFlights": 0.57, "operators": [{"name": "GX Airlines", "iata": "GX", "icao": "CBG"}]}, {"destination": {"icao": "ZLYL", "iata": "UYN", "name": "Yulin ", "shortName": "Yulin", "municipalityName": "Yulin", "location": {"lat": 38.2692, "lon": 109.731}, "countryCode": "CN"}, "averageDailyFlights": 0.57, "operators": [{"name": "Tianjin Airlines", "iata": "GS", "icao": "GCR"}]}, {"destination": {"name": "Zunyi"}, "averageDailyFlights": 0.57, "operators": [{"name": "Colorful Guizhou Airlines", "iata": "GY", "icao": "CGZ"}]}, {"destination": {"icao": "ZULZ", "iata": "LZO", "name": "Luzhou ", "shortName": "Luzhou", "municipalityName": "Luzhou", "location": {"lat": 28.8522, "lon": 105.393}, "countryCode": "CN"}, "averageDailyFlights": 0.43, "operators": [{"name": "Tibet Airlines", "iata": "TV", "icao": "TBA"}]}, {"destination": {"icao": "ZYQQ", "iata": "NDG", "name": "Qiqihar Sanjiazi", "shortName": "Sanjiazi", "municipalityName": "Qiqihar", "location": {"lat": 47.2396, "lon": 123.918}, "countryCode": "CN"}, "averageDailyFlights": 0.43, "operators": [{"name": "China Eastern Airlines", "iata": "MU", "icao": "CES"}]}, {"destination": {"icao": "ZSYW", "iata": "YIW", "name": "Yiwu ", "shortName": "Yiwu", "municipalityName": "Yiwu", "location": {"lat": 29.3447, "lon": 120.032}, "countryCode": "CN"}, "averageDailyFlights": 0.43, "operators": [{"name": "China Eastern Airlines", "iata": "MU", "icao": "CES"}]}, {"destination": {"name": "Singapore"}, "averageDailyFlights": 0.43, "operators": [{"name": "Scoot", "iata": "TR", "icao": "TGW"}]}, {"destination": {"icao": "ZUNC", "iata": "NAO", "name": "Nanchong ", "shortName": "Nanchong", "municipalityName": "Nanchong", "location": {"lat": 30.79545, "lon": 106.1626}, "countryCode": "CN"}, "averageDailyFlights": 0.29, "operators": [{"name": "Tibet Airlines", "iata": "TV", "icao": "TBA"}]}]}