{"routes": [{"destination": {"icao": "ZSPD", "iata": "PVG", "name": "Shanghai Pudong", "shortName": "Pudong", "municipalityName": "Shanghai", "location": {"lat": 31.1434, "lon": 121.805}, "countryCode": "CN"}, "averageDailyFlights": 20.14, "operators": [{"name": "China Southern Airlines", "iata": "CZ", "icao": "CSN"}, {"name": "China Eastern Airlines", "iata": "MU", "icao": "CES"}, {"name": "Spring Airlines", "iata": "9C", "icao": "CQH"}, {"name": "Juneyao Airlines", "iata": "HO", "icao": "DKH"}, {"name": "Shanghai Airlines", "iata": "FM", "icao": "CSH"}]}, {"destination": {"icao": "ZSQD", "iata": "TAO", "name": "Qingdao Liuting", "shortName": "Liuting", "municipalityName": "Qingdao", "location": {"lat": 36.2661, "lon": 120.374}, "countryCode": "CN"}, "averageDailyFlights": 10.86, "operators": [{"name": "China Southern Airlines", "iata": "CZ", "icao": "CSN"}, {"name": "China Eastern Airlines", "iata": "MU", "icao": "CES"}, {"name": "Shandong Airlines", "iata": "SC", "icao": "CDG"}, {"name": "Tianjin Airlines", "iata": "GS", "icao": "GCR"}, {"name": "Qingdao Airlines", "iata": "QW", "icao": "QDA"}, {"name": "Beijing Capital Airlines", "iata": "JD", "icao": "CBJ"}]}, {"destination": {"icao": "ZSNJ", "iata": "NKG", "name": "Nanjing Lukou", "shortName": "Lukou", "municipalityName": "Nanjing", "location": {"lat": 31.742, "lon": 118.862}, "countryCode": "CN"}, "averageDailyFlights": 10.34, "operators": [{"name": "China Southern Airlines", "iata": "CZ", "icao": "CSN"}, {"name": "China Eastern Airlines", "iata": "MU", "icao": "CES"}, {"name": "Juneyao Airlines", "iata": "HO", "icao": "DKH"}, {"name": "Xiamen Airlines", "iata": "MF", "icao": "CXA"}, {"name": "Spring Airlines", "iata": "9C", "icao": "CQH"}, {"name": "Chengdu Airlines", "iata": "EU", "icao": "UEA"}]}, {"destination": {"icao": "ZSHC", "iata": "HGH", "name": "Hangzhou Xiaoshan", "shortName": "Xiaoshan", "municipalityName": "Hangzhou", "location": {"lat": 30.2295, "lon": 120.434}, "countryCode": "CN"}, "averageDailyFlights": 8.0, "operators": [{"name": "China Southern Airlines", "iata": "CZ", "icao": "CSN"}, {"name": "Shandong Airlines", "iata": "SC", "icao": "CDG"}, {"name": "Xiamen Airlines", "iata": "MF", "icao": "CXA"}, {"name": "Air China", "iata": "CA", "icao": "CCA"}, {"name": "Loong Air", "iata": "GJ", "icao": "CDC"}]}, {"destination": {"icao": "ZBAA", "iata": "PEK", "name": "Beijing Capital", "shortName": "Capital", "municipalityName": "Beijing", "location": {"lat": 40.0801, "lon": 116.585}, "countryCode": "CN"}, "averageDailyFlights": 7.71, "operators": [{"name": "Air China", "iata": "CA", "icao": "CCA"}, {"name": "Hainan Airlines", "iata": "HU", "icao": "CHH"}]}, {"destination": {"icao": "ZBAD", "iata": "PKX", "name": "Beijing Daxing", "shortName": "Daxing", "municipalityName": "Beijing", "location": {"lat": 39.509167, "lon": 116.41055}, "countryCode": "CN"}, "averageDailyFlights": 7.57, "operators": [{"name": "China Southern Airlines", "iata": "CZ", "icao": "CSN"}]}, {"destination": {"icao": "ZSYT", "iata": "YNT", "name": "Yantai Laishan", "shortName": "Laishan", "municipalityName": "Yantai", "location": {"lat": 37.4017, "lon": 121.372}, "countryCode": "CN"}, "averageDailyFlights": 7.43, "operators": [{"name": "China Eastern Airlines", "iata": "MU", "icao": "CES"}, {"name": "Joy Air", "iata": "JR", "icao": "JOY"}, {"name": "Tianjin Airlines", "iata": "GS", "icao": "GCR"}]}, {"destination": {"icao": "ZSJN", "iata": "TNA", "name": "Jinan Yaoqiang", "shortName": "Yaoqiang", "municipalityName": "Jinan", "location": {"lat": 36.8572, "lon": 117.216}, "countryCode": "CN"}, "averageDailyFlights": 7.29, "operators": [{"name": "Spring Airlines", "iata": "9C", "icao": "CQH"}, {"name": "Shandong Airlines", "iata": "SC", "icao": "CDG"}, {"name": "Air China", "iata": "CA", "icao": "CCA"}, {"name": "Chengdu Airlines", "iata": "EU", "icao": "UEA"}]}, {"destination": {"icao": "ZLXY", "iata": "XIY", "name": "Xianyang Xi'an", "shortName": "Xi'an", "municipalityName": "Xianyang", "location": {"lat": 34.4471, "lon": 108.752}, "countryCode": "CN"}, "averageDailyFlights": 6.29, "operators": [{"name": "China Southern Airlines", "iata": "CZ", "icao": "CSN"}, {"name": "China Eastern Airlines", "iata": "MU", "icao": "CES"}, {"name": "Tianjin Airlines", "iata": "GS", "icao": "GCR"}, {"name": "Hainan Airlines", "iata": "HU", "icao": "CHH"}]}, {"destination": {"icao": "ZHCC", "iata": "CGO", "name": "Zhengzhou Xinzheng", "shortName": "Xinzheng", "municipalityName": "Zhengzhou", "location": {"lat": 34.5197, "lon": 113.841}, "countryCode": "CN"}, "averageDailyFlights": 5.14, "operators": [{"name": "China Southern Airlines", "iata": "CZ", "icao": "CSN"}, {"name": "West Air (China)", "iata": "PN", "icao": "CHB"}, {"name": "Shanghai Airlines", "iata": "FM", "icao": "CSH"}, {"name": "Spring Airlines", "iata": "9C", "icao": "CQH"}, {"name": "Xiamen Airlines", "iata": "MF", "icao": "CXA"}]}, {"destination": {"icao": "ZGGG", "iata": "CAN", "name": "Guangzhou Baiyun", "shortName": "Baiyun", "municipalityName": "Guangzhou", "location": {"lat": 23.3924, "lon": 113.299}, "countryCode": "CN"}, "averageDailyFlights": 4.43, "operators": [{"name": "China Southern Airlines", "iata": "CZ", "icao": "CSN"}, {"name": "9 Air Co", "iata": "AQ", "icao": "JYH"}]}, {"destination": {"icao": "ZGSZ", "iata": "SZX", "name": "Shenzhen Bao'an", "shortName": "Bao'an", "municipalityName": "Shenzhen", "location": {"lat": 22.6393, "lon": 113.811}, "countryCode": "CN"}, "averageDailyFlights": 4.43, "operators": [{"name": "China Southern Airlines", "iata": "CZ", "icao": "CSN"}, {"name": "Shenzhen Airlines", "iata": "ZH", "icao": "CSZ"}]}, {"destination": {"icao": "RKSI", "iata": "ICN", "name": "Seoul Incheon", "shortName": "Incheon", "municipalityName": "Seoul", "location": {"lat": 37.4691, "lon": 126.451}, "countryCode": "KR"}, "averageDailyFlights": 4.14, "operators": [{"name": "China Southern Airlines", "iata": "CZ", "icao": "CSN"}, {"name": "Korean Air", "iata": "KE", "icao": "KAL"}, {"name": "Asiana Airlines", "iata": "OZ", "icao": "AAR"}]}, {"destination": {"icao": "ZHHH", "iata": "WUH", "name": "Wuhan Tianhe", "shortName": "Tianhe", "municipalityName": "Wuhan", "location": {"lat": 30.7838, "lon": 114.208}, "countryCode": "CN"}, "averageDailyFlights": 3.94, "operators": [{"name": "China Southern Airlines", "iata": "CZ", "icao": "CSN"}, {"name": "Hainan Airlines", "iata": "HU", "icao": "CHH"}, {"name": "Tianjin Airlines", "iata": "GS", "icao": "GCR"}]}, {"destination": {"icao": "ZSNB", "iata": "NGB", "name": "Ningbo Lishe", "shortName": "Lishe", "municipalityName": "Ningbo", "location": {"lat": 29.8267, "lon": 121.462}, "countryCode": "CN"}, "averageDailyFlights": 3.86, "operators": [{"name": "China Southern Airlines", "iata": "CZ", "icao": "CSN"}, {"name": "China Eastern Airlines", "iata": "MU", "icao": "CES"}, {"name": "Spring Airlines", "iata": "9C", "icao": "CQH"}]}, {"destination": {"icao": "ZGHA", "iata": "CSX", "name": "Changsha Huanghua", "shortName": "Huanghua", "municipalityName": "Changsha", "location": {"lat": 28.1892, "lon": 113.22}, "countryCode": "CN"}, "averageDailyFlights": 3.43, "operators": [{"name": "China Southern Airlines", "iata": "CZ", "icao": "CSN"}, {"name": "Hainan Airlines", "iata": "HU", "icao": "CHH"}, {"name": "Xiamen Airlines", "iata": "MF", "icao": "CXA"}]}, {"destination": {"icao": "ZYMD", "iata": "MDG", "name": "Mudanjiang Hailang", "shortName": "Hailang", "municipalityName": "Mudanjiang", "location": {"lat": 44.5241, "lon": 129.569}, "countryCode": "CN"}, "averageDailyFlights": 3.43, "operators": [{"name": "China Southern Airlines", "iata": "CZ", "icao": "CSN"}, {"name": "Shandong Airlines", "iata": "SC", "icao": "CDG"}, {"name": "Shanghai Airlines", "iata": "FM", "icao": "CSH"}]}, {"destination": {"icao": "ZBTJ", "iata": "TSN", "name": "Tianjin Binhai", "shortName": "Binhai", "municipalityName": "Tianjin", "location": {"lat": 39.1244, "lon": 117.346}, "countryCode": "CN"}, "averageDailyFlights": 3.43, "operators": [{"name": "Air China", "iata": "CA", "icao": "CCA"}, {"name": "China Express Airlines", "iata": "G5", "icao": "HXA"}, {"name": "China Southern Airlines", "iata": "CZ", "icao": "CSN"}, {"name": "Tianjin Airlines", "iata": "GS", "icao": "GCR"}]}, {"destination": {"icao": "ZSOF", "iata": "HFE", "name": "Hefei Luogang", "shortName": "Luogang", "municipalityName": "Hefei", "location": {"lat": 31.78, "lon": 117.298}, "countryCode": "CN"}, "averageDailyFlights": 3.29, "operators": [{"name": "Shenzhen Airlines", "iata": "ZH", "icao": "CSZ"}, {"name": "Qingdao Airlines", "iata": "QW", "icao": "QDA"}, {"name": "China Eastern Airlines", "iata": "MU", "icao": "CES"}, {"name": "9 Air Co", "iata": "AQ", "icao": "JYH"}]}, {"destination": {"icao": "ZUUU", "iata": "CTU", "name": "Chengdu Shuangliu", "shortName": "Shuangliu", "municipalityName": "Chengdu", "location": {"lat": 30.5785, "lon": 103.947}, "countryCode": "CN"}, "averageDailyFlights": 3.14, "operators": [{"name": "Air China", "iata": "CA", "icao": "CCA"}, {"name": "China Southern Airlines", "iata": "CZ", "icao": "CSN"}, {"name": "Sichuan Airlines", "iata": "3U", "icao": "CSC"}]}, {"destination": {"icao": "ZSWX", "iata": "WUX", "name": "Wuxi Sunan Shuofang", "shortName": "Sunan Shuofang", "municipalityName": "Wuxi", "location": {"lat": 31.4944, "lon": 120.429}, "countryCode": "CN"}, "averageDailyFlights": 3.14, "operators": [{"name": "China Eastern Airlines", "iata": "MU", "icao": "CES"}, {"name": "Loong Air", "iata": "GJ", "icao": "CDC"}, {"name": "9 Air Co", "iata": "AQ", "icao": "JYH"}]}, {"destination": {"icao": "ZSCG", "iata": "CZX", "name": "Changzhou ", "shortName": "Changzhou", "municipalityName": "Changzhou", "location": {"lat": 31.9197, "lon": 119.779}, "countryCode": "CN"}, "averageDailyFlights": 2.86, "operators": [{"name": "Spring Airlines", "iata": "9C", "icao": "CQH"}, {"name": "China Eastern Airlines", "iata": "MU", "icao": "CES"}]}, {"destination": {"icao": "ZSWH", "iata": "WEH", "name": "Weihai ", "shortName": "Weihai", "municipalityName": "Weihai", "location": {"lat": 37.1871, "lon": 122.229}, "countryCode": "CN"}, "averageDailyFlights": 2.86, "operators": [{"name": "Tianjin Airlines", "iata": "GS", "icao": "GCR"}, {"name": "9 Air Co", "iata": "AQ", "icao": "JYH"}, {"name": "Joy Air", "iata": "JR", "icao": "JOY"}]}, {"destination": {"icao": "ZBYN", "iata": "TYN", "name": "Taiyuan Wusu", "shortName": "Wusu", "municipalityName": "Taiyuan", "location": {"lat": 37.7469, "lon": 112.628}, "countryCode": "CN"}, "averageDailyFlights": 2.71, "operators": [{"name": "China Eastern Airlines", "iata": "MU", "icao": "CES"}, {"name": "Hainan Airlines", "iata": "HU", "icao": "CHH"}, {"name": "China Southern Airlines", "iata": "CZ", "icao": "CSN"}]}, {"destination": {"icao": "ZBSJ", "iata": "SJW", "name": "Shijiazhuang Daguocun", "shortName": "Daguocun", "municipalityName": "Shijiazhuang", "location": {"lat": 38.2807, "lon": 114.697}, "countryCode": "CN"}, "averageDailyFlights": 2.29, "operators": [{"name": "Tianjin Airlines", "iata": "GS", "icao": "GCR"}, {"name": "Spring Airlines", "iata": "9C", "icao": "CQH"}, {"name": "Beijing Capital Airlines", "iata": "JD", "icao": "CBJ"}]}, {"destination": {"icao": "ZSXZ", "iata": "XUZ", "name": "Xuzhou Guanyin", "shortName": "Guanyin", "municipalityName": "Xuzhou", "location": {"lat": 34.059055, "lon": 117.555275}, "countryCode": "CN"}, "averageDailyFlights": 2.29, "operators": [{"name": "Loong Air", "iata": "GJ", "icao": "CDC"}, {"name": "China Eastern Airlines", "iata": "MU", "icao": "CES"}]}, {"destination": {"icao": "ZBYC", "iata": "YCU", "name": "Yuncheng Guangong", "shortName": "Guangong", "municipalityName": "Yuncheng", "location": {"lat": 35.11639, "lon": 111.03139}, "countryCode": "CN"}, "averageDailyFlights": 2.29, "operators": [{"name": "Xiamen Airlines", "iata": "MF", "icao": "CXA"}, {"name": "China Eastern Airlines", "iata": "MU", "icao": "CES"}]}, {"destination": {"icao": "RJAA", "iata": "NRT", "name": "Tokyo Narita", "shortName": "Narita", "municipalityName": "Tokyo", "location": {"lat": 35.7647, "lon": 140.386}, "countryCode": "JP"}, "averageDailyFlights": 1.86, "operators": [{"name": "ANA", "iata": "NH", "icao": "ANA"}, {"name": "China Southern Airlines", "iata": "CZ", "icao": "CSN"}]}, {"destination": {"icao": "ZUCK", "iata": "CKG", "name": "Chongqing Jiangbei", "shortName": "Jiangbei", "municipalityName": "Chongqing", "location": {"lat": 29.7192, "lon": 106.642}, "countryCode": "CN"}, "averageDailyFlights": 1.43, "operators": [{"name": "China Southern Airlines", "iata": "CZ", "icao": "CSN"}, {"name": "Sichuan Airlines", "iata": "3U", "icao": "CSC"}]}, {"destination": {"icao": "ZSSH", "iata": "HIA", "name": "Huai'an Lianshui", "shortName": "Lianshui", "municipalityName": "Huai'an", "location": {"lat": 33.790833, "lon": 119.125}, "countryCode": "CN"}, "averageDailyFlights": 1.43, "operators": [{"name": "Chengdu Airlines", "iata": "EU", "icao": "UEA"}, {"name": "Xiamen Airlines", "iata": "MF", "icao": "CXA"}]}, {"destination": {"icao": "ZSWZ", "iata": "WNZ", "name": "Wenzhou Yongqiang", "shortName": "Yongqiang", "municipalityName": "Wenzhou", "location": {"lat": 27.9122, "lon": 120.852}, "countryCode": "CN"}, "averageDailyFlights": 1.29, "operators": [{"name": "Ruili Airlines", "iata": "DR", "icao": "RLH"}, {"name": "China Southern Airlines", "iata": "CZ", "icao": "CSN"}]}, {"destination": {"icao": "ZSDY", "iata": "DOY", "name": "Dongying Shengli", "shortName": "Shengli", "municipalityName": "Dongying", "location": {"lat": 37.5086, "lon": 118.788}, "countryCode": "CN"}, "averageDailyFlights": 1.14, "operators": [{"name": "Hainan Airlines", "iata": "HU", "icao": "CHH"}]}, {"destination": {"icao": "ZYJM", "iata": "JMU", "name": "Jiamusi ", "shortName": "Jiamusi", "municipalityName": "Jiamusi", "location": {"lat": 46.8434, "lon": 130.465}, "countryCode": "CN"}, "averageDailyFlights": 1.14, "operators": [{"name": "China Southern Airlines", "iata": "CZ", "icao": "CSN"}]}, {"destination": {"icao": "ZSLG", "iata": "LYG", "name": "Lianyungang ", "shortName": "Lianyungang", "municipalityName": "Lianyungang", "location": {"lat": 34.571667, "lon": 118.87361}, "countryCode": "CN"}, "averageDailyFlights": 1.14, "operators": [{"name": "Donghai Airlines", "iata": "DZ", "icao": "EPA"}]}, {"destination": {"icao": "ZSNT", "iata": "NTG", "name": "Nantong ", "shortName": "Nantong", "municipalityName": "Nantong", "location": {"lat": 32.0708, "lon": 120.976}, "countryCode": "CN"}, "averageDailyFlights": 1.14, "operators": [{"name": "Shenzhen Airlines", "iata": "ZH", "icao": "CSZ"}]}, {"destination": {"icao": "RJBB", "iata": "KIX", "name": "Osaka Kansai", "shortName": "Kansai", "municipalityName": "Osaka", "location": {"lat": 34.4273, "lon": 135.244}, "countryCode": "JP"}, "averageDailyFlights": 1.14, "operators": [{"name": "China Southern Airlines", "iata": "CZ", "icao": "CSN"}, {"name": "Spring Airlines", "iata": "9C", "icao": "CQH"}]}, {"destination": {"icao": "ZYQQ", "iata": "NDG", "name": "Qiqihar Sanjiazi", "shortName": "Sanjiazi", "municipalityName": "Qiqihar", "location": {"lat": 47.2396, "lon": 123.918}, "countryCode": "CN"}, "averageDailyFlights": 1.14, "operators": [{"name": "China Eastern Airlines", "iata": "MU", "icao": "CES"}, {"name": "Shandong Airlines", "iata": "SC", "icao": "CDG"}]}, {"destination": {"icao": "RJTT", "iata": "HND", "name": "Tokyo ", "shortName": "Tokyo", "municipalityName": "Tokyo", "location": {"lat": 35.5523, "lon": 139.78}, "countryCode": "JP"}, "averageDailyFlights": 1.14, "operators": [{"name": "JAL", "iata": "JL", "icao": "JAL"}]}, {"destination": {"icao": "ZSAM", "iata": "XMN", "name": "Xiamen Gaoqi", "shortName": "Gaoqi", "municipalityName": "Xiamen", "location": {"lat": 24.544, "lon": 118.128}, "countryCode": "CN"}, "averageDailyFlights": 1.14, "operators": [{"name": "China Southern Airlines", "iata": "CZ", "icao": "CSN"}]}, {"destination": {"icao": "ZLYL", "iata": "UYN", "name": "Yulin ", "shortName": "Yulin", "municipalityName": "Yulin", "location": {"lat": 38.2692, "lon": 109.731}, "countryCode": "CN"}, "averageDailyFlights": 1.14, "operators": [{"name": "China Eastern Airlines", "iata": "MU", "icao": "CES"}]}, {"destination": {"name": "Haikou"}, "averageDailyFlights": 1.14, "operators": [{"name": "Air China", "iata": "CA", "icao": "CCA"}]}, {"destination": {"name": "Jiansanjiang Airport"}, "averageDailyFlights": 1.14, "operators": [{"name": "Shandong Airlines", "iata": "SC", "icao": "CDG"}]}, {"destination": {"icao": "VHHH", "iata": "HKG", "name": "Hong Kong Chek Lap Kok", "shortName": "Chek Lap Kok", "municipalityName": "Hong Kong", "location": {"lat": 22.3089, "lon": 113.915}, "countryCode": "HK"}, "averageDailyFlights": 1.0, "operators": [{"name": "Air China", "iata": "CA", "icao": "CCA"}]}, {"destination": {"icao": "ZYTN", "iata": "TNH", "name": "Tonghua Sanyuanpu", "shortName": "Sanyuanpu", "municipalityName": "Tonghua", "location": {"lat": 42.253887, "lon": 125.70333}, "countryCode": "CN"}, "averageDailyFlights": 1.0, "operators": [{"name": "China Eastern Airlines", "iata": "MU", "icao": "CES"}]}, {"destination": {"icao": "RJFF", "iata": "FUK", "name": "Fukuoka ", "shortName": "Fukuoka", "municipalityName": "Fukuoka", "location": {"lat": 33.5859, "lon": 130.451}, "countryCode": "JP"}, "averageDailyFlights": 0.86, "operators": [{"name": "Air China", "iata": "CA", "icao": "CCA"}, {"name": "Spring Airlines", "iata": "9C", "icao": "CQH"}]}, {"destination": {"icao": "ZBHH", "iata": "HET", "name": "Hohhot Baita", "shortName": "Baita", "municipalityName": "Hohhot", "location": {"lat": 40.8514, "lon": 111.824}, "countryCode": "CN"}, "averageDailyFlights": 0.71, "operators": [{"name": "Spring Airlines", "iata": "9C", "icao": "CQH"}]}, {"destination": {"icao": "RJGG", "iata": "NGO", "name": "Tokoname Chubu Centrair", "shortName": "Chubu Centrair", "municipalityName": "Tokoname", "location": {"lat": 34.8584, "lon": 136.805}, "countryCode": "JP"}, "averageDailyFlights": 0.71, "operators": [{"name": "Spring Airlines", "iata": "9C", "icao": "CQH"}, {"name": "China Southern Airlines", "iata": "CZ", "icao": "CSN"}]}, {"destination": {"icao": "ZHYC", "iata": "YIH", "name": "Yichang ", "shortName": "Yichang", "municipalityName": "Yichang", "location": {"lat": 30.55655, "lon": 111.47999}, "countryCode": "CN"}, "averageDailyFlights": 0.71, "operators": [{"name": "Qingdao Airlines", "iata": "QW", "icao": "QDA"}]}, {"destination": {"name": "Changan Airport"}, "averageDailyFlights": 0.71, "operators": [{"name": "Shandong Airlines", "iata": "SC", "icao": "CDG"}]}, {"destination": {"icao": "ZBCZ", "iata": "CIH", "name": "Changzhi ", "shortName": "Changzhi", "municipalityName": "Changzhi", "location": {"lat": 36.2475, "lon": 113.126}, "countryCode": "CN"}, "averageDailyFlights": 0.57, "operators": [{"name": "China Express Airlines", "iata": "G5", "icao": "HXA"}]}, {"destination": {"icao": "ZYDQ", "iata": "DQA", "name": "Daqing Shi Saertu", "shortName": "Saertu", "municipalityName": "Daqing Shi", "location": {"lat": 46.746387, "lon": 125.14056}, "countryCode": "CN"}, "averageDailyFlights": 0.57, "operators": [{"name": "China Southern Airlines", "iata": "CZ", "icao": "CSN"}]}, {"destination": {"icao": "ZSFZ", "iata": "FOC", "name": "Fuzhou Changle", "shortName": "Changle", "municipalityName": "Fuzhou", "location": {"lat": 25.9351, "lon": 119.663}, "countryCode": "CN"}, "averageDailyFlights": 0.57, "operators": [{"name": "Spring Airlines", "iata": "9C", "icao": "CQH"}]}, {"destination": {"icao": "ZLJN", "iata": "JNG", "name": "Jining Qufu", "shortName": "Qufu", "municipalityName": "Jining", "location": {"lat": 35.292778, "lon": 116.346664}, "countryCode": "CN"}, "averageDailyFlights": 0.57, "operators": [{"name": "Chengdu Airlines", "iata": "EU", "icao": "UEA"}]}, {"destination": {"icao": "ZYJX", "iata": "JXA", "name": "Jixi Xingkaihu", "shortName": "Xingkaihu", "municipalityName": "Jixi", "location": {"lat": 45.293, "lon": 131.193}, "countryCode": "CN"}, "averageDailyFlights": 0.57, "operators": [{"name": "China Express Airlines", "iata": "G5", "icao": "HXA"}]}, {"destination": {"icao": "ZSCN", "iata": "KHN", "name": "Nanchang Changbei", "shortName": "Changbei", "municipalityName": "Nanchang", "location": {"lat": 28.865, "lon": 115.9}, "countryCode": "CN"}, "averageDailyFlights": 0.57, "operators": [{"name": "Spring Airlines", "iata": "9C", "icao": "CQH"}]}, {"destination": {"icao": "ZJSY", "iata": "SYX", "name": "Sanya Phoenix", "shortName": "Phoenix", "municipalityName": "Sanya", "location": {"lat": 18.3029, "lon": 109.412}, "countryCode": "CN"}, "averageDailyFlights": 0.57, "operators": [{"name": "China Southern Airlines", "iata": "CZ", "icao": "CSN"}]}, {"destination": {"icao": "ZHXF", "iata": "XFN", "name": "Xiangfan ", "shortName": "Xiangfan", "municipalityName": "Xiangfan", "location": {"lat": 32.1506, "lon": 112.291}, "countryCode": "CN"}, "averageDailyFlights": 0.57, "operators": [{"name": "Air Guilin", "iata": "GT", "icao": "CGH"}]}, {"destination": {"icao": "ZYYJ", "iata": "YNJ", "name": "Yanji Chaoyangchuan", "shortName": "Chaoyangchuan", "municipalityName": "Yanji", "location": {"lat": 42.8828, "lon": 129.451}, "countryCode": "CN"}, "averageDailyFlights": 0.57, "operators": [{"name": "China Southern Airlines", "iata": "CZ", "icao": "CSN"}]}, {"destination": {"icao": "ZYLD", "iata": "LDS", "name": "Yichun Lindu", "shortName": "Lindu", "municipalityName": "Yichun", "location": {"lat": 47.752056, "lon": 129.01912}, "countryCode": "CN"}, "averageDailyFlights": 0.57, "operators": [{"name": "China Eastern Airlines", "iata": "MU", "icao": "CES"}]}, {"destination": {"icao": "ZSZS", "iata": "HSN", "name": "Zhoushan ", "shortName": "Zhoushan", "municipalityName": "Zhoushan", "location": {"lat": 29.9342, "lon": 122.362}, "countryCode": "CN"}, "averageDailyFlights": 0.57, "operators": [{"name": "Fuzhou Airlines", "iata": "FU", "icao": "FZA"}]}, {"destination": {"name": "Bayshan"}, "averageDailyFlights": 0.57, "operators": [{"name": "China Southern Airlines", "iata": "CZ", "icao": "CSN"}]}, {"destination": {"name": "Kunming"}, "averageDailyFlights": 0.57, "operators": [{"name": "Air China", "iata": "CA", "icao": "CCA"}]}, {"destination": {"name": "Spring-Aylend"}, "averageDailyFlights": 0.57, "operators": [{"name": "Qingdao Airlines", "iata": "QW", "icao": "QDA"}]}, {"destination": {"icao": "ZSFY", "iata": "FUG", "name": "Fuyang Xiguan", "shortName": "Xiguan", "municipalityName": "Fuyang", "location": {"lat": 32.882156, "lon": 115.73437}, "countryCode": "CN"}, "averageDailyFlights": 0.43, "operators": [{"name": "GX Airlines", "iata": "GX", "icao": "CBG"}]}, {"destination": {"name": "Dzhagdachi"}, "averageDailyFlights": 0.43, "operators": [{"name": "China Eastern Airlines", "iata": "MU", "icao": "CES"}]}, {"destination": {"icao": "ZBHD", "iata": "HDG", "name": "Handan ", "shortName": "Handan", "municipalityName": "Handan", "location": {"lat": 36.525833, "lon": 114.42555}, "countryCode": "CN"}, "averageDailyFlights": 0.29, "operators": [{"name": "China Express Airlines", "iata": "G5", "icao": "HXA"}]}, {"destination": {"icao": "RJOA", "iata": "HIJ", "name": "Hiroshima ", "shortName": "Hiroshima", "municipalityName": "Hiroshima", "location": {"lat": 34.4361, "lon": 132.919}, "countryCode": "JP"}, "averageDailyFlights": 0.29, "operators": [{"name": "Air China", "iata": "CA", "icao": "CCA"}]}, {"destination": {"icao": "ZSTX", "iata": "TXN", "name": "Huangshan City Tunxi", "shortName": "Tunxi", "municipalityName": "Huangshan City", "location": {"lat": 29.7333, "lon": 118.256}, "countryCode": "CN"}, "averageDailyFlights": 0.29, "operators": [{"name": "China Eastern Airlines", "iata": "MU", "icao": "CES"}]}, {"destination": {"icao": "RJSS", "iata": "SDJ", "name": "Sendai ", "shortName": "Sendai", "municipalityName": "Sendai", "location": {"lat": 38.1397, "lon": 140.917}, "countryCode": "JP"}, "averageDailyFlights": 0.29, "operators": [{"name": "Air China", "iata": "CA", "icao": "CCA"}]}, {"destination": {"icao": "ZBTS", "iata": "TVS", "name": "Tangshan Sann\u00fche", "shortName": "Sann\u00fche", "municipalityName": "Tangshan", "location": {"lat": 39.7178, "lon": 118.002625}, "countryCode": "CN"}, "averageDailyFlights": 0.29, "operators": [{"name": "Air Changan", "iata": "9H", "icao": "CGN"}]}, {"destination": {"icao": "UHWW", "iata": "VVO", "localCode": "\u0412\u0412\u041e", "name": "Vladivostok Knevichi", "shortName": "Knevichi", "municipalityName": "Vladivostok", "location": {"lat": 43.399, "lon": 132.148}, "countryCode": "RU"}, "averageDailyFlights": 0.29, "operators": [{"name": "Hainan Airlines", "iata": "HU", "icao": "CHH"}]}, {"destination": {"icao": "ZBZJ", "iata": "ZQZ", "name": "Zhangjiakou Ningyuan", "shortName": "Ningyuan", "municipalityName": "Zhangjiakou", "location": {"lat": 40.7386, "lon": 114.93}, "countryCode": "CN"}, "averageDailyFlights": 0.29, "operators": [{"name": "China Express Airlines", "iata": "G5", "icao": "HXA"}]}, {"destination": {"icao": "ZLLL", "iata": "LHW", "name": "Lanzhou Zhongchuan", "shortName": "Zhongchuan", "municipalityName": "Lanzhou", "location": {"lat": 36.5152, "lon": 103.62}, "countryCode": "CN"}, "averageDailyFlights": 0.14, "operators": [{"name": "Spring Airlines", "iata": "9C", "icao": "CQH"}]}]}