{"routes": [{"destination": {"icao": "CYQB", "iata": "YQB", "name": "Quebec Jean Lesage", "shortName": "Jean Lesage", "municipalityName": "Quebec", "location": {"lat": 46.7911, "lon": -71.3933}, "countryCode": "CA"}, "averageDailyFlights": 1.86, "operators": [{"name": "Pascan Aviation", "iata": "P6", "icao": "PSC"}]}, {"destination": {"icao": "CYBG", "iata": "YBG", "name": "Bagotville CFB", "shortName": "CFB", "municipalityName": "Bagotville", "location": {"lat": 48.3306, "lon": -70.9964}, "countryCode": "CA"}, "averageDailyFlights": 0.43, "operators": [{"name": "Pascan Aviation", "iata": "P6", "icao": "PSC"}]}, {"destination": {"icao": "CYGR", "iata": "YGR", "name": "\u00celes-de-la-Madeleine ", "shortName": "\u00celes-de-la-Madeleine", "municipalityName": "\u00celes-de-la-Madeleine", "location": {"lat": 47.4247, "lon": -61.7781}, "countryCode": "CA"}, "averageDailyFlights": 0.43, "operators": [{"name": "Pascan Aviation", "iata": "P6", "icao": "PSC"}]}, {"destination": {"icao": "CYYY", "iata": "YYY", "name": "Mont-Joli Mont Joli", "shortName": "Mont Joli", "municipalityName": "Mont-Joli", "location": {"lat": 48.6086, "lon": -68.2081}, "countryCode": "CA"}, "averageDailyFlights": 0.29, "operators": [{"name": "Pascan Aviation", "iata": "P6", "icao": "PSC"}]}, {"destination": {"icao": "KILM", "iata": "ILM", "name": "Wilmington ", "shortName": "Wilmington", "municipalityName": "Wilmington", "location": {"lat": 34.2706, "lon": -77.9026}, "countryCode": "US"}, "averageDailyFlights": 0.14, "operators": [{"name": "BOG"}]}]}