{"routes": [{"destination": {"icao": "CYYZ", "iata": "YYZ", "name": "Toronto Pearson", "shortName": "Pearson", "municipalityName": "Toronto", "location": {"lat": 43.6772, "lon": -79.6306}, "countryCode": "CA"}, "averageDailyFlights": 3.71, "operators": [{"name": "WestJet", "iata": "WS", "icao": "WJA"}, {"name": "Air Canada", "iata": "AC", "icao": "ACA"}, {"name": "Flair Airlines", "iata": "F8", "icao": "FLE"}]}, {"destination": {"icao": "CYVR", "iata": "YVR", "name": "Vancouver ", "shortName": "Vancouver", "municipalityName": "Vancouver", "location": {"lat": 49.1939, "lon": -123.184}, "countryCode": "CA"}, "averageDailyFlights": 3.43, "operators": [{"name": "Air Canada", "iata": "AC", "icao": "ACA"}, {"name": "WestJet", "iata": "WS", "icao": "WJA"}, {"name": "Flair Airlines", "iata": "F8", "icao": "FLE"}]}, {"destination": {"name": "Calgary"}, "averageDailyFlights": 2.29, "operators": [{"name": "WestJet", "iata": "WS", "icao": "WJA"}]}, {"destination": {"icao": "CYWG", "iata": "YWG", "name": "Winnipeg James Armstrong Richardson", "shortName": "James Armstrong Richardson", "municipalityName": "Winnipeg", "location": {"lat": 49.91, "lon": -97.2399}, "countryCode": "CA"}, "averageDailyFlights": 1.43, "operators": [{"name": "WestJet", "iata": "WS", "icao": "WJA"}]}, {"destination": {"icao": "CYPA", "iata": "YPA", "name": "Prince Albert Glass Field", "shortName": "Glass Field", "municipalityName": "Prince Albert", "location": {"lat": 53.2142, "lon": -105.673}, "countryCode": "CA"}, "averageDailyFlights": 0.71, "operators": [{"name": "Transwest Air", "iata": "4T", "icao": "WEW"}]}, {"destination": {"name": "Edmonton"}, "averageDailyFlights": 0.71, "operators": [{"name": "WestJet", "iata": "WS", "icao": "WJA"}]}, {"destination": {"icao": "CZFD", "iata": "ZFD", "name": "Fond-Du-Lac ", "shortName": "Fond-Du-Lac", "municipalityName": "Fond-Du-Lac", "location": {"lat": 59.3344, "lon": -107.182}, "countryCode": "CA"}, "averageDailyFlights": 0.29, "operators": [{"name": "Transwest Air", "iata": "4T", "icao": "WEW"}]}]}