{"routes": [{"destination": {"icao": "CYQB", "iata": "YQB", "name": "Quebec Jean Lesage", "shortName": "Jean Lesage", "municipalityName": "Quebec", "location": {"lat": 46.7911, "lon": -71.3933}, "countryCode": "CA"}, "averageDailyFlights": 2.43, "operators": [{"name": "PAL Airlines", "iata": "PB", "icao": "PVL"}, {"name": "Air Liaison", "iata": "DU", "icao": "LIZ"}, {"name": "Air Inuit", "iata": "3H", "icao": "AIE"}, {"name": "Pascan Aviation", "iata": "P6", "icao": "PSC"}]}, {"destination": {"icao": "CYUL", "iata": "YUL", "name": "Montreal Trudeau", "shortName": "Trudeau", "municipalityName": "Montreal", "location": {"lat": 45.4706, "lon": -73.7408}, "countryCode": "CA"}, "averageDailyFlights": 1.75, "operators": [{"name": "Air Canada", "iata": "AC", "icao": "ACA"}, {"name": "PAL Airlines", "iata": "PB", "icao": "PVL"}]}, {"destination": {"icao": "CYKL", "iata": "YKL", "name": "Schefferville ", "shortName": "Schefferville", "municipalityName": "Schefferville", "location": {"lat": 54.8053, "lon": -66.8053}, "countryCode": "CA"}, "averageDailyFlights": 1.43, "operators": [{"name": "Air Inuit", "iata": "3H", "icao": "AIE"}]}, {"destination": {"icao": "CYWK", "iata": "YWK", "name": "Wabush ", "shortName": "Wabush", "municipalityName": "Wabush", "location": {"lat": 52.9219, "lon": -66.8644}, "countryCode": "CA"}, "averageDailyFlights": 1.43, "operators": [{"name": "PAL Airlines", "iata": "PB", "icao": "PVL"}, {"name": "Pascan Aviation", "iata": "P6", "icao": "PSC"}]}, {"destination": {"icao": "CYNA", "iata": "YNA", "name": "Natashquan ", "shortName": "Natashquan", "municipalityName": "Natashquan", "location": {"lat": 50.19, "lon": -61.7892}, "countryCode": "CA"}, "averageDailyFlights": 1.14, "operators": [{"name": "Air Liaison", "iata": "DU", "icao": "LIZ"}]}, {"destination": {"icao": "CYBX", "iata": "YBX", "name": "Lourdes-De-Blanc-Sablon Lourdes de Blanc Sablon", "shortName": "Lourdes de Blanc Sablon", "municipalityName": "Lourdes-De-Blanc-Sablon", "location": {"lat": 51.4436, "lon": -57.1853}, "countryCode": "CA"}, "averageDailyFlights": 1.0, "operators": [{"name": "Air Liaison", "iata": "DU", "icao": "LIZ"}]}, {"destination": {"icao": "CYBC", "iata": "YBC", "name": "Baie-Comeau Baie Comeau", "shortName": "Baie Comeau", "municipalityName": "Baie-Comeau", "location": {"lat": 49.1325, "lon": -68.2044}, "countryCode": "CA"}, "averageDailyFlights": 0.71, "operators": [{"name": "Air Liaison", "iata": "DU", "icao": "LIZ"}]}, {"destination": {"name": "Dzhetsemani"}, "averageDailyFlights": 0.71, "operators": [{"name": "Air Liaison", "iata": "DU", "icao": "LIZ"}]}]}