{"routes": [{"destination": {"icao": "DNAA", "iata": "ABV", "name": "Abuja Nnamdi Azikiwe", "shortName": "Nnamdi Azikiwe", "municipalityName": "Abuja", "location": {"lat": 9.00679, "lon": 7.263169}, "countryCode": "NG"}, "averageDailyFlights": 3.0, "operators": [{"name": "Air Peace", "iata": "P4", "icao": "APK"}, {"name": "Qatar Airways", "iata": "QR", "icao": "QTR"}, {"name": "Aero Contractors Company of Nigeria Ltd"}]}, {"destination": {"icao": "DNMM", "iata": "LOS", "name": "Lagos Murtala Muhammed", "shortName": "Murtala Muhammed", "municipalityName": "Lagos", "location": {"lat": 6.57737, "lon": 3.32116}, "countryCode": "NG"}, "averageDailyFlights": 2.43, "operators": [{"name": "Aero Contractors Company of Nigeria Ltd"}, {"name": "Air Peace", "iata": "P4", "icao": "APK"}]}, {"destination": {"icao": "HAAB", "iata": "ADD", "name": "Addis Ababa Bole", "shortName": "Bole", "municipalityName": "Addis Ababa", "location": {"lat": 8.97789, "lon": 38.7993}, "countryCode": "ET"}, "averageDailyFlights": 0.71, "operators": [{"name": "Ethiopian Airlines", "iata": "ET", "icao": "ETH"}]}, {"destination": {"icao": "DNAS", "iata": "ABB", "name": "Asaba ", "shortName": "Asaba", "municipalityName": "Asaba", "location": {"lat": 6.203333, "lon": 6.658888}, "countryCode": "NG"}, "averageDailyFlights": 0.71, "operators": [{"name": "Air Peace", "iata": "P4", "icao": "APK"}]}, {"destination": {"icao": "HECA", "iata": "CAI", "name": "Cairo ", "shortName": "Cairo", "municipalityName": "Cairo", "location": {"lat": 30.1219, "lon": 31.4056}, "countryCode": "EG"}, "averageDailyFlights": 0.57, "operators": [{"name": "EgyptAir", "iata": "MS", "icao": "MSR"}]}, {"destination": {"name": "Jeddah"}, "averageDailyFlights": 0.43, "operators": [{"name": "Saudi Arabian Airlines", "iata": "SV", "icao": "SVA"}]}, {"destination": {"icao": "DNPO", "iata": "PHC", "name": "Port Harcourt ", "shortName": "Port Harcourt", "municipalityName": "Port Harcourt", "location": {"lat": 5.01549, "lon": 6.94959}, "countryCode": "NG"}, "averageDailyFlights": 0.29, "operators": [{"name": "Air Peace", "iata": "P4", "icao": "APK"}]}]}