{"routes": [{"destination": {"icao": "DNMM", "iata": "LOS", "name": "Lagos Murtala Muhammed", "shortName": "Murtala Muhammed", "municipalityName": "Lagos", "location": {"lat": 6.57737, "lon": 3.32116}, "countryCode": "NG"}, "averageDailyFlights": 5.43, "operators": [{"name": "Air Peace", "iata": "P4", "icao": "APK"}, {"name": "Dana Airlines", "iata": "9J", "icao": "DAN"}, {"name": "Aero Contractors Company of Nigeria Ltd"}]}, {"destination": {"icao": "DNAA", "iata": "ABV", "name": "Abuja Nnamdi Azikiwe", "shortName": "Nnamdi Azikiwe", "municipalityName": "Abuja", "location": {"lat": 9.00679, "lon": 7.263169}, "countryCode": "NG"}, "averageDailyFlights": 5.14, "operators": [{"name": "Air Peace", "iata": "P4", "icao": "APK"}, {"name": "Dana Airlines", "iata": "9J", "icao": "DAN"}, {"name": "Aero Contractors Company of Nigeria Ltd"}, {"name": "Lufthansa", "iata": "LH", "icao": "DLH"}, {"name": "Qatar Airways", "iata": "QR", "icao": "QTR"}]}, {"destination": {"icao": "DNBE", "iata": "BNI", "name": "Benin ", "shortName": "Benin", "municipalityName": "Benin", "location": {"lat": 6.316979, "lon": 5.5995}, "countryCode": "NG"}, "averageDailyFlights": 0.43, "operators": [{"name": "Air Peace", "iata": "P4", "icao": "APK"}]}, {"destination": {"icao": "FKKD", "iata": "DLA", "name": "Douala ", "shortName": "Douala", "municipalityName": "Douala", "location": {"lat": 4.00608, "lon": 9.719479}, "countryCode": "CM"}, "averageDailyFlights": 0.43, "operators": [{"name": "Air Peace", "iata": "P4", "icao": "APK"}]}, {"destination": {"icao": "DNKN", "iata": "KAN", "name": "Kano Mallam Aminu", "shortName": "Mallam Aminu", "municipalityName": "Kano", "location": {"lat": 12.047599, "lon": 8.52462}, "countryCode": "NG"}, "averageDailyFlights": 0.29, "operators": [{"name": "Air Peace", "iata": "P4", "icao": "APK"}]}]}