{"routes": [{"destination": {"icao": "EHAM", "iata": "AMS", "name": "Amsterdam Schiphol", "shortName": "Schiphol", "municipalityName": "Amsterdam", "location": {"lat": 52.3086, "lon": 4.763889}, "countryCode": "NL"}, "averageDailyFlights": 7.3, "operators": [{"name": "KLM", "iata": "KL", "icao": "KLM"}, {"name": "British Airways", "iata": "BA", "icao": "BAW"}]}, {"destination": {"icao": "LSZH", "iata": "ZRH", "name": "Zurich Kloten", "shortName": "Kloten", "municipalityName": "Zurich", "location": {"lat": 47.4647, "lon": 8.549169}, "countryCode": "CH"}, "averageDailyFlights": 6.71, "operators": [{"name": "SWISS", "iata": "LX", "icao": "SWR"}, {"name": "British Airways", "iata": "BA", "icao": "BAW"}]}, {"destination": {"icao": "LIML", "iata": "LIN", "name": "Milan Linate", "shortName": "Linate", "municipalityName": "Milan", "location": {"lat": 45.4451, "lon": 9.27674}, "countryCode": "IT"}, "averageDailyFlights": 5.43, "operators": [{"name": "ITY"}, {"name": "Alitalia", "iata": "AZ", "icao": "AZA"}]}, {"destination": {"icao": "EDDF", "iata": "FRA", "name": "Frankfurt-am-Main ", "shortName": "Frankfurt-am-Main", "municipalityName": "Frankfurt-am-Main", "location": {"lat": 50.0264, "lon": 8.543129}, "countryCode": "DE"}, "averageDailyFlights": 5.14, "operators": [{"name": "British Airways", "iata": "BA", "icao": "BAW"}, {"name": "Lufthansa", "iata": "LH", "icao": "DLH"}, {"name": "NJE"}]}, {"destination": {"icao": "ELLX", "iata": "LUX", "name": "Luxembourg -Findel", "shortName": "-Findel", "municipalityName": "Luxembourg", "location": {"lat": 49.6266, "lon": 6.21152}, "countryCode": "LU"}, "averageDailyFlights": 5.0, "operators": [{"name": "Luxair", "iata": "LG", "icao": "LGL"}]}, {"destination": {"icao": "EGPF", "iata": "GLA", "name": "Glasgow ", "shortName": "Glasgow", "municipalityName": "Glasgow", "location": {"lat": 55.8719, "lon": -4.43306}, "countryCode": "GB"}, "averageDailyFlights": 4.0, "operators": [{"name": "British Airways", "iata": "BA", "icao": "BAW"}]}, {"destination": {"icao": "EGAC", "iata": "BHD", "name": "Belfast George Best  City", "shortName": "George Best  City", "municipalityName": "Belfast", "location": {"lat": 54.6181, "lon": -5.872499}, "countryCode": "GB"}, "averageDailyFlights": 2.71, "operators": [{"name": "British Airways", "iata": "BA", "icao": "BAW"}]}, {"destination": {"icao": "EDDB", "iata": "BER", "name": "Berlin Brandenburg", "shortName": "Brandenburg", "municipalityName": "Berlin", "location": {"lat": 52.35139, "lon": 13.493889}, "countryCode": "DE"}, "averageDailyFlights": 2.71, "operators": [{"name": "British Airways", "iata": "BA", "icao": "BAW"}]}, {"destination": {"icao": "EDDL", "iata": "DUS", "name": "Duesseldorf D\u00fcsseldorf", "shortName": "D\u00fcsseldorf", "municipalityName": "Duesseldorf", "location": {"lat": 51.2895, "lon": 6.766779}, "countryCode": "DE"}, "averageDailyFlights": 2.14, "operators": [{"name": "British Airways", "iata": "BA", "icao": "BAW"}]}, {"destination": {"icao": "LIRQ", "iata": "FLR", "name": "Firenze Peretola", "shortName": "Peretola", "municipalityName": "Firenze", "location": {"lat": 43.81, "lon": 11.2051}, "countryCode": "IT"}, "averageDailyFlights": 2.14, "operators": [{"name": "British Airways", "iata": "BA", "icao": "BAW"}]}, {"destination": {"icao": "LSGG", "iata": "GVA", "name": "Geneva Cointrin", "shortName": "Cointrin", "municipalityName": "Geneva", "location": {"lat": 46.2381, "lon": 6.10895}, "countryCode": "CH"}, "averageDailyFlights": 2.14, "operators": [{"name": "British Airways", "iata": "BA", "icao": "BAW"}, {"name": "SWISS", "iata": "LX", "icao": "SWR"}]}, {"destination": {"icao": "LEIB", "iata": "IBZ", "name": "Ibiza Town Ibiza", "shortName": "Ibiza", "municipalityName": "Ibiza Town", "location": {"lat": 38.8729, "lon": 1.373119}, "countryCode": "ES"}, "averageDailyFlights": 1.86, "operators": [{"name": "British Airways", "iata": "BA", "icao": "BAW"}]}, {"destination": {"icao": "EGPN", "iata": "DND", "name": "Dundee ", "shortName": "Dundee", "municipalityName": "Dundee", "location": {"lat": 56.4525, "lon": -3.02583}, "countryCode": "GB"}, "averageDailyFlights": 1.43, "operators": [{"name": "Loganair", "iata": "LM", "icao": "LOG"}]}, {"destination": {"icao": "LFMN", "iata": "NCE", "name": "Nice -C\u00f4te d'Azur", "shortName": "-C\u00f4te d'Azur", "municipalityName": "Nice", "location": {"lat": 43.6584, "lon": 7.215869}, "countryCode": "FR"}, "averageDailyFlights": 1.29, "operators": [{"name": "British Airways", "iata": "BA", "icao": "BAW"}]}, {"destination": {"icao": "LEMG", "iata": "AGP", "name": "M\u00e1laga ", "shortName": "M\u00e1laga", "municipalityName": "M\u00e1laga", "location": {"lat": 36.6749, "lon": -4.49911}, "countryCode": "ES"}, "averageDailyFlights": 1.14, "operators": [{"name": "British Airways", "iata": "BA", "icao": "BAW"}]}, {"destination": {"icao": "EGNS", "iata": "IOM", "name": "Castletown Isle of Man", "shortName": "Isle of Man", "municipalityName": "Castletown", "location": {"lat": 54.0833, "lon": -4.623889}, "countryCode": "IM"}, "averageDailyFlights": 1.0, "operators": [{"name": "Loganair", "iata": "LM", "icao": "LOG"}]}, {"destination": {"icao": "EYVI", "iata": "VNO", "localCode": "\u0412\u0418\u041b", "name": "Vilnius ", "shortName": "Vilnius", "municipalityName": "Vilnius", "location": {"lat": 54.6341, "lon": 25.2858}, "countryCode": "LT"}, "averageDailyFlights": 1.0, "operators": [{"name": "LOT - Polish Airlines", "iata": "LO", "icao": "LOT"}]}, {"destination": {"icao": "LEBL", "iata": "BCN", "name": "Barcelona ", "shortName": "Barcelona", "municipalityName": "Barcelona", "location": {"lat": 41.2971, "lon": 2.078459}, "countryCode": "ES"}, "averageDailyFlights": 0.86, "operators": [{"name": "British Airways", "iata": "BA", "icao": "BAW"}]}, {"destination": {"icao": "EKBI", "iata": "BLL", "name": "Billund ", "shortName": "Billund", "municipalityName": "Billund", "location": {"lat": 55.7403, "lon": 9.15178}, "countryCode": "DK"}, "averageDailyFlights": 0.71, "operators": [{"name": "British Airways", "iata": "BA", "icao": "BAW"}]}, {"destination": {"icao": "LEPA", "iata": "PMI", "name": "Palma De Mallorca ", "shortName": "Palma De Mallorca", "municipalityName": "Palma De Mallorca", "location": {"lat": 39.5517, "lon": 2.73881}, "countryCode": "ES"}, "averageDailyFlights": 0.71, "operators": [{"name": "British Airways", "iata": "BA", "icao": "BAW"}]}, {"destination": {"icao": "EBAW", "iata": "ANR", "name": "Antwerp (Deurne)", "shortName": "(Deurne)", "municipalityName": "Antwerp", "location": {"lat": 51.1894, "lon": 4.460279}, "countryCode": "BE"}, "averageDailyFlights": 0.43, "operators": [{"name": "Luxair", "iata": "LG", "icao": "LGL"}]}, {"destination": {"name": "Dublin"}, "averageDailyFlights": 0.43, "operators": [{"name": "British Airways", "iata": "BA", "icao": "BAW"}]}, {"destination": {"name": "Edinburgh"}, "averageDailyFlights": 0.29, "operators": [{"name": "British Airways", "iata": "BA", "icao": "BAW"}]}, {"destination": {"name": "Rotterdam"}, "averageDailyFlights": 0.29, "operators": [{"name": "British Airways", "iata": "BA", "icao": "BAW"}]}, {"destination": {"icao": "EDDS", "iata": "STR", "name": "Stuttgart ", "shortName": "Stuttgart", "municipalityName": "Stuttgart", "location": {"lat": 48.6899, "lon": 9.22196}, "countryCode": "DE"}, "averageDailyFlights": 0.14, "operators": [{"name": "BTX"}]}]}