{"routes": [{"destination": {"icao": "EKCH", "iata": "CPH", "name": "Copenhagen Kastrup", "shortName": "Kastrup", "municipalityName": "Copenhagen", "location": {"lat": 55.6179, "lon": 12.656}, "countryCode": "DK"}, "averageDailyFlights": 3.88, "operators": [{"name": "SAS", "iata": "SK", "icao": "SAS"}, {"name": "Air Cairo", "iata": "SM", "icao": "MSC"}]}, {"destination": {"icao": "EGSS", "iata": "STN", "name": "London Stansted", "shortName": "Stansted", "municipalityName": "London", "location": {"lat": 51.885, "lon": 0.234999}, "countryCode": "GB"}, "averageDailyFlights": 1.57, "operators": [{"name": "Ryanair", "iata": "FR", "icao": "RYR"}]}, {"destination": {"icao": "ESSB", "iata": "BMA", "name": "Stockholm -Bromma", "shortName": "-Bromma", "municipalityName": "Stockholm", "location": {"lat": 59.3544, "lon": 17.941698}, "countryCode": "SE"}, "averageDailyFlights": 0.71, "operators": [{"name": "Braathens Regional", "iata": "TF", "icao": "BRX"}]}, {"destination": {"icao": "EPGD", "iata": "GDN", "name": "Gda\u0144sk Lech Wa\u0142\u0119sa", "shortName": "Lech Wa\u0142\u0119sa", "municipalityName": "Gda\u0144sk", "location": {"lat": 54.3776, "lon": 18.4662}, "countryCode": "PL"}, "averageDailyFlights": 0.57, "operators": [{"name": "Ryanair", "iata": "FR", "icao": "RYR"}]}, {"destination": {"icao": "LIMC", "iata": "MXP", "name": "Milan Malpensa", "shortName": "Malpensa", "municipalityName": "Milan", "location": {"lat": 45.6306, "lon": 8.72811}, "countryCode": "IT"}, "averageDailyFlights": 0.43, "operators": [{"name": "Ryanair", "iata": "FR", "icao": "RYR"}]}, {"destination": {"icao": "EVRA", "iata": "RIX", "localCode": "\u0420\u0418\u0425", "name": "Riga ", "shortName": "Riga", "municipalityName": "Riga", "location": {"lat": 56.9236, "lon": 23.9711}, "countryCode": "LV"}, "averageDailyFlights": 0.43, "operators": [{"name": "Ryanair", "iata": "FR", "icao": "RYR"}]}, {"destination": {"name": "Oslo"}, "averageDailyFlights": 0.43, "operators": [{"name": "SAS", "iata": "SK", "icao": "SAS"}]}, {"destination": {"icao": "LROP", "iata": "OTP", "name": "Bucharest Henri Coand\u0103", "shortName": "Henri Coand\u0103", "municipalityName": "Bucharest", "location": {"lat": 44.5722, "lon": 26.1022}, "countryCode": "RO"}, "averageDailyFlights": 0.29, "operators": [{"name": "Ulendo Airlink", "iata": "W4"}]}, {"destination": {"icao": "LPFR", "iata": "FAO", "name": "Faro ", "shortName": "Faro", "municipalityName": "Faro", "location": {"lat": 37.0144, "lon": -7.965909}, "countryCode": "PT"}, "averageDailyFlights": 0.29, "operators": [{"name": "Ryanair", "iata": "FR", "icao": "RYR"}]}, {"destination": {"icao": "LEMG", "iata": "AGP", "name": "M\u00e1laga ", "shortName": "M\u00e1laga", "municipalityName": "M\u00e1laga", "location": {"lat": 36.6749, "lon": -4.49911}, "countryCode": "ES"}, "averageDailyFlights": 0.29, "operators": [{"name": "Ryanair", "iata": "FR", "icao": "RYR"}]}, {"destination": {"icao": "LEPA", "iata": "PMI", "name": "Palma De Mallorca ", "shortName": "Palma De Mallorca", "municipalityName": "Palma De Mallorca", "location": {"lat": 39.5517, "lon": 2.73881}, "countryCode": "ES"}, "averageDailyFlights": 0.29, "operators": [{"name": "Ryanair", "iata": "FR", "icao": "RYR"}]}, {"destination": {"icao": "HEGN", "iata": "HRG", "name": "Hurghada ", "shortName": "Hurghada", "municipalityName": "Hurghada", "location": {"lat": 27.1783, "lon": 33.7994}, "countryCode": "EG"}, "averageDailyFlights": 0.14, "operators": [{"name": "Air Cairo", "iata": "SM", "icao": "MSC"}]}]}