{"routes": [{"destination": {"icao": "FALE", "iata": "DUR", "name": "Durban King Shaka", "shortName": "King Shaka", "municipalityName": "Durban", "location": {"lat": -29.614445, "lon": 31.119722}, "countryCode": "ZA"}, "averageDailyFlights": 30.71, "operators": [{"name": "South African Airways", "iata": "SA", "icao": "SAA"}, {"name": "Safair", "iata": "FA", "icao": "SFR"}, {"name": "South African Airlink", "iata": "4Z", "icao": "LNK"}, {"name": "CemAir", "iata": "5Z", "icao": "KEM"}, {"name": "Qatar Airways", "iata": "QR", "icao": "QTR"}, {"name": "FlexFlight", "iata": "W2", "icao": "FXT"}, {"name": "Turkish Airlines", "iata": "TK", "icao": "THY"}]}, {"destination": {"icao": "FACT", "iata": "CPT", "name": "Cape Town ", "shortName": "Cape Town", "municipalityName": "Cape Town", "location": {"lat": -33.9648, "lon": 18.6017}, "countryCode": "ZA"}, "averageDailyFlights": 14.75, "operators": [{"name": "CemAir", "iata": "5Z", "icao": "KEM"}, {"name": "South African Airways", "iata": "SA", "icao": "SAA"}, {"name": "Singapore Airlines", "iata": "SQ", "icao": "SIA"}, {"name": "FlexFlight", "iata": "W2", "icao": "FXT"}, {"name": "Air Belgium", "iata": "KF", "icao": "ABB"}, {"name": "Safair", "iata": "FA", "icao": "SFR"}, {"name": "South African Airlink", "iata": "4Z", "icao": "LNK"}]}, {"destination": {"icao": "FAPE", "iata": "PLZ", "name": "Port Elizabeth ", "shortName": "Port Elizabeth", "municipalityName": "Port Elizabeth", "location": {"lat": -33.9849, "lon": 25.6173}, "countryCode": "ZA"}, "averageDailyFlights": 12.86, "operators": [{"name": "CemAir", "iata": "5Z", "icao": "KEM"}, {"name": "Safair", "iata": "FA", "icao": "SFR"}, {"name": "South African Airlink", "iata": "4Z", "icao": "LNK"}]}, {"destination": {"icao": "FLLS", "iata": "LUN", "name": "Lusaka ", "shortName": "Lusaka", "municipalityName": "Lusaka", "location": {"lat": -15.3308, "lon": 28.4526}, "countryCode": "ZM"}, "averageDailyFlights": 8.29, "operators": [{"name": "South African Airways", "iata": "SA", "icao": "SAA"}, {"name": "South African Airlink", "iata": "4Z", "icao": "LNK"}, {"name": "Proflight Zambia", "iata": "P0", "icao": "PFZ"}, {"name": "RwandAir", "iata": "WB", "icao": "RWD"}, {"name": "Wright Air", "iata": "8V", "icao": "WRT"}]}, {"destination": {"icao": "FBSK", "iata": "GBE", "name": "Gaborone Sir Seretse Khama", "shortName": "Sir Seretse Khama", "municipalityName": "Gaborone", "location": {"lat": -24.5552, "lon": 25.9182}, "countryCode": "BW"}, "averageDailyFlights": 7.43, "operators": [{"name": "Air Botswana", "iata": "BP", "icao": "BOT"}, {"name": "South African Airlink", "iata": "4Z", "icao": "LNK"}]}, {"destination": {"icao": "FAEL", "iata": "ELS", "name": "East London Ben Schoeman", "shortName": "Ben Schoeman", "municipalityName": "East London", "location": {"lat": -33.0356, "lon": 27.8259}, "countryCode": "ZA"}, "averageDailyFlights": 6.86, "operators": [{"name": "Safair", "iata": "FA", "icao": "SFR"}, {"name": "South African Airlink", "iata": "4Z", "icao": "LNK"}]}, {"destination": {"icao": "FAGG", "iata": "GRJ", "name": "George ", "shortName": "George", "municipalityName": "George", "location": {"lat": -34.0056, "lon": 22.3789}, "countryCode": "ZA"}, "averageDailyFlights": 6.77, "operators": [{"name": "Safair", "iata": "FA", "icao": "SFR"}, {"name": "South African Airlink", "iata": "4Z", "icao": "LNK"}, {"name": "CemAir", "iata": "5Z", "icao": "KEM"}]}, {"destination": {"icao": "FVHA", "iata": "HRE", "name": "Harare ", "shortName": "Harare", "municipalityName": "Harare", "location": {"lat": -17.9318, "lon": 31.0928}, "countryCode": "ZW"}, "averageDailyFlights": 6.57, "operators": [{"name": "South African Airways", "iata": "SA", "icao": "SAA"}, {"name": "South African Airlink", "iata": "4Z", "icao": "LNK"}, {"name": "Air Zimbabwe", "iata": "UM", "icao": "AZW"}]}, {"destination": {"icao": "FYWH", "iata": "WDH", "name": "Windhoek Hosea Kutako", "shortName": "Hosea Kutako", "municipalityName": "Windhoek", "location": {"lat": -22.4799, "lon": 17.4709}, "countryCode": "NA"}, "averageDailyFlights": 6.29, "operators": [{"name": "South African Airways", "iata": "SA", "icao": "SAA"}, {"name": "South African Airlink", "iata": "4Z", "icao": "LNK"}]}, {"destination": {"icao": "FQMA", "iata": "MPM", "name": "Maputo ", "shortName": "Maputo", "municipalityName": "Maputo", "location": {"lat": -25.9208, "lon": 32.5726}, "countryCode": "MZ"}, "averageDailyFlights": 6.14, "operators": [{"name": "Turkish Airlines", "iata": "TK", "icao": "THY"}, {"name": "Wright Air", "iata": "8V", "icao": "WRT"}, {"name": "LAM", "iata": "TM", "icao": "LAM"}, {"name": "South African Airlink", "iata": "4Z", "icao": "LNK"}]}, {"destination": {"icao": "FAKN", "iata": "MQP", "name": "Mpumalanga Kruger", "shortName": "Kruger", "municipalityName": "Mpumalanga", "location": {"lat": -25.3832, "lon": 31.1056}, "countryCode": "ZA"}, "averageDailyFlights": 6.0, "operators": [{"name": "South African Airlink", "iata": "4Z", "icao": "LNK"}]}, {"destination": {"icao": "FABL", "iata": "BFN", "name": "Bloemfontain Bram Fischer", "shortName": "Bram Fischer", "municipalityName": "Bloemfontain", "location": {"lat": -29.0927, "lon": 26.3024}, "countryCode": "ZA"}, "averageDailyFlights": 5.57, "operators": [{"name": "South African Airlink", "iata": "4Z", "icao": "LNK"}, {"name": "Safair", "iata": "FA", "icao": "SFR"}, {"name": "CemAir", "iata": "5Z", "icao": "KEM"}]}, {"destination": {"icao": "FVFA", "iata": "VFA", "name": "Victoria Falls ", "shortName": "Victoria Falls", "municipalityName": "Victoria Falls", "location": {"lat": -18.0959, "lon": 25.839}, "countryCode": "ZW"}, "averageDailyFlights": 5.57, "operators": [{"name": "Fastjet Zimbabwe", "iata": "FN", "icao": "FJW"}, {"name": "South African Airways", "iata": "SA", "icao": "SAA"}, {"name": "South African Airlink", "iata": "4Z", "icao": "LNK"}]}, {"destination": {"icao": "HKJK", "iata": "NBO", "name": "Nairobi Jomo Kenyatta", "shortName": "Jomo Kenyatta", "municipalityName": "Nairobi", "location": {"lat": -1.319239, "lon": 36.9278}, "countryCode": "KE"}, "averageDailyFlights": 5.01, "operators": [{"name": "Wright Air", "iata": "8V", "icao": "WRT"}, {"name": "Kenya Airways", "iata": "KQ", "icao": "KQA"}, {"name": "South African Airlink", "iata": "4Z", "icao": "LNK"}, {"name": "AZUR Air", "iata": "ZF", "icao": "KTK"}]}, {"destination": {"icao": "FAKM", "iata": "KIM", "name": "Kimberley ", "shortName": "Kimberley", "municipalityName": "Kimberley", "location": {"lat": -28.8028, "lon": 24.7652}, "countryCode": "ZA"}, "averageDailyFlights": 4.43, "operators": [{"name": "South African Airlink", "iata": "4Z", "icao": "LNK"}, {"name": "CemAir", "iata": "5Z", "icao": "KEM"}]}, {"destination": {"icao": "FAPM", "iata": "PZB", "name": "Pietermaritzburg ", "shortName": "Pietermaritzburg", "municipalityName": "Pietermaritzburg", "location": {"lat": -29.649, "lon": 30.3987}, "countryCode": "ZA"}, "averageDailyFlights": 3.86, "operators": [{"name": "South African Airlink", "iata": "4Z", "icao": "LNK"}]}, {"destination": {"icao": "OMDB", "iata": "DXB", "name": "Dubai ", "shortName": "Dubai", "municipalityName": "Dubai", "location": {"lat": 25.252798, "lon": 55.3644}, "countryCode": "AE"}, "averageDailyFlights": 3.43, "operators": [{"name": "Emirates", "iata": "EK", "icao": "UAE"}]}, {"destination": {"icao": "FAHS", "iata": "HDS", "name": "Hoedspruit Air Force Base", "shortName": "Air Force Base", "municipalityName": "Hoedspruit", "location": {"lat": -24.3686, "lon": 31.0487}, "countryCode": "ZA"}, "averageDailyFlights": 3.43, "operators": [{"name": "South African Airlink", "iata": "4Z", "icao": "LNK"}, {"name": "CemAir", "iata": "5Z", "icao": "KEM"}]}, {"destination": {"icao": "EGLL", "iata": "LHR", "name": "London Heathrow", "shortName": "Heathrow", "municipalityName": "London", "location": {"lat": 51.4706, "lon": -0.461941}, "countryCode": "GB"}, "averageDailyFlights": 3.43, "operators": [{"name": "British Airways", "iata": "BA", "icao": "BAW"}, {"name": "Virgin Atlantic", "iata": "VS", "icao": "VIR"}]}, {"destination": {"icao": "FAUT", "iata": "UTT", "name": "Mthatha K. D. Matanzima", "shortName": "K. D. Matanzima", "municipalityName": "Mthatha", "location": {"lat": -31.546364, "lon": 28.673355}, "countryCode": "ZA"}, "averageDailyFlights": 3.43, "operators": [{"name": "South African Airlink", "iata": "4Z", "icao": "LNK"}]}, {"destination": {"icao": "FBMN", "iata": "MUB", "name": "Maun ", "shortName": "Maun", "municipalityName": "Maun", "location": {"lat": -19.9726, "lon": 23.4311}, "countryCode": "BW"}, "averageDailyFlights": 3.14, "operators": [{"name": "South African Airlink", "iata": "4Z", "icao": "LNK"}, {"name": "Air Botswana", "iata": "BP", "icao": "BOT"}, {"name": "CemAir", "iata": "5Z", "icao": "KEM"}]}, {"destination": {"icao": "FXMM", "iata": "MSU", "name": "Maseru Moshoeshoe I", "shortName": "Moshoeshoe I", "municipalityName": "Maseru", "location": {"lat": -29.4623, "lon": 27.5525}, "countryCode": "LS"}, "averageDailyFlights": 2.86, "operators": [{"name": "South African Airlink", "iata": "4Z", "icao": "LNK"}]}, {"destination": {"icao": "FAPP", "iata": "PTG", "name": "Potgietersrus Polokwane", "shortName": "Polokwane", "municipalityName": "Potgietersrus", "location": {"lat": -23.8453, "lon": 29.4586}, "countryCode": "ZA"}, "averageDailyFlights": 2.86, "operators": [{"name": "South African Airlink", "iata": "4Z", "icao": "LNK"}]}, {"destination": {"icao": "FIMP", "iata": "MRU", "name": "Port Louis Sir Seewoosagur Ramgoolam", "shortName": "Sir Seewoosagur Ramgoolam", "municipalityName": "Port Louis", "location": {"lat": -20.4302, "lon": 57.6836}, "countryCode": "MU"}, "averageDailyFlights": 2.71, "operators": [{"name": "South African Airways", "iata": "SA", "icao": "SAA"}, {"name": "Air Mauritius", "iata": "MK", "icao": "MAU"}, {"name": "Safair", "iata": "FA", "icao": "SFR"}]}, {"destination": {"icao": "FARB", "iata": "RCB", "name": "Richards Bay ", "shortName": "Richards Bay", "municipalityName": "Richards Bay", "location": {"lat": -28.741, "lon": 32.0921}, "countryCode": "ZA"}, "averageDailyFlights": 2.71, "operators": [{"name": "South African Airlink", "iata": "4Z", "icao": "LNK"}]}, {"destination": {"icao": "FAUP", "iata": "UTN", "name": "Upington Pierre Van Ryneveld", "shortName": "Pierre Van Ryneveld", "municipalityName": "Upington", "location": {"lat": -28.3991, "lon": 21.2602}, "countryCode": "ZA"}, "averageDailyFlights": 2.43, "operators": [{"name": "South African Airlink", "iata": "4Z", "icao": "LNK"}]}, {"destination": {"icao": "FASZ", "iata": "SZK", "name": "Skukuza ", "shortName": "Skukuza", "municipalityName": "Skukuza", "location": {"lat": -24.9609, "lon": 31.5887}, "countryCode": "ZA"}, "averageDailyFlights": 2.29, "operators": [{"name": "South African Airlink", "iata": "4Z", "icao": "LNK"}]}, {"destination": {"icao": "FVBU", "iata": "BUQ", "name": "Bulawayo Joshua Mqabuko Nkomo", "shortName": "Joshua Mqabuko Nkomo", "municipalityName": "Bulawayo", "location": {"lat": -20.0174, "lon": 28.6179}, "countryCode": "ZW"}, "averageDailyFlights": 2.14, "operators": [{"name": "South African Airlink", "iata": "4Z", "icao": "LNK"}]}, {"destination": {"icao": "FASS", "iata": "SIS", "name": "Sishen ", "shortName": "Sishen", "municipalityName": "Sishen", "location": {"lat": -27.6486, "lon": 22.9993}, "countryCode": "ZA"}, "averageDailyFlights": 2.0, "operators": [{"name": "South African Airlink", "iata": "4Z", "icao": "LNK"}]}, {"destination": {"icao": "FNLU", "iata": "LAD", "name": "Luanda Quatro de Fevereiro", "shortName": "Quatro de Fevereiro", "municipalityName": "Luanda", "location": {"lat": -8.858369, "lon": 13.2312}, "countryCode": "AO"}, "averageDailyFlights": 1.86, "operators": [{"name": "South African Airlink", "iata": "4Z", "icao": "LNK"}, {"name": "TAAG", "iata": "DT", "icao": "DTA"}]}, {"destination": {"icao": "KATL", "iata": "ATL", "name": "Atlanta Hartsfield Jackson", "shortName": "Hartsfield Jackson", "municipalityName": "Atlanta", "location": {"lat": 33.6367, "lon": -84.4281}, "countryCode": "US"}, "averageDailyFlights": 1.71, "operators": [{"name": "Delta Air Lines", "iata": "DL", "icao": "DAL"}]}, {"destination": {"icao": "FZAA", "iata": "FIH", "name": "Kinshasa Ndjili", "shortName": "Ndjili", "municipalityName": "Kinshasa", "location": {"lat": -4.385749, "lon": 15.4446}, "countryCode": "CD"}, "averageDailyFlights": 1.71, "operators": [{"name": "ASKY", "iata": "KP", "icao": "SKK"}, {"name": "South African Airways", "iata": "SA", "icao": "SAA"}, {"name": "Air Cote D'Ivoire", "iata": "HF", "icao": "VRE"}]}, {"destination": {"icao": "FBKE", "iata": "BBK", "name": "Kasane ", "shortName": "Kasane", "municipalityName": "Kasane", "location": {"lat": -17.8329, "lon": 25.1624}, "countryCode": "BW"}, "averageDailyFlights": 1.57, "operators": [{"name": "South African Airlink", "iata": "4Z", "icao": "LNK"}, {"name": "Air Botswana", "iata": "BP", "icao": "BOT"}]}, {"destination": {"icao": "FLND", "iata": "NLA", "name": "Ndola ", "shortName": "Ndola", "municipalityName": "Ndola", "location": {"lat": -12.9981, "lon": 28.6649}, "countryCode": "ZM"}, "averageDailyFlights": 1.57, "operators": [{"name": "South African Airlink", "iata": "4Z", "icao": "LNK"}, {"name": "Proflight Zambia", "iata": "P0", "icao": "PFZ"}]}, {"destination": {"icao": "FWCL", "iata": "BLZ", "name": "Blantyre Chileka", "shortName": "Chileka", "municipalityName": "Blantyre", "location": {"lat": -15.6791, "lon": 34.974}, "countryCode": "MW"}, "averageDailyFlights": 1.43, "operators": [{"name": "Ethiopian Airlines", "iata": "ET", "icao": "ETH"}, {"name": "South African Airways", "iata": "SA", "icao": "SAA"}]}, {"destination": {"icao": "DNMM", "iata": "LOS", "name": "Lagos Murtala Muhammed", "shortName": "Murtala Muhammed", "municipalityName": "Lagos", "location": {"lat": 6.57737, "lon": 3.32116}, "countryCode": "NG"}, "averageDailyFlights": 1.29, "operators": [{"name": "Air Peace", "iata": "P4", "icao": "APK"}, {"name": "South African Airways", "iata": "SA", "icao": "SAA"}]}, {"destination": {"icao": "FYWB", "iata": "WVB", "name": "Walvis Bay ", "shortName": "Walvis Bay", "municipalityName": "Walvis Bay", "location": {"lat": -22.9799, "lon": 14.645299}, "countryCode": "NA"}, "averageDailyFlights": 1.29, "operators": [{"name": "South African Airlink", "iata": "4Z", "icao": "LNK"}]}, {"destination": {"icao": "EHAM", "iata": "AMS", "name": "Amsterdam Schiphol", "shortName": "Schiphol", "municipalityName": "Amsterdam", "location": {"lat": 52.3086, "lon": 4.763889}, "countryCode": "NL"}, "averageDailyFlights": 1.14, "operators": [{"name": "KLM", "iata": "KL", "icao": "KLM"}]}, {"destination": {"icao": "EDDF", "iata": "FRA", "name": "Frankfurt-am-Main ", "shortName": "Frankfurt-am-Main", "municipalityName": "Frankfurt-am-Main", "location": {"lat": 50.0264, "lon": 8.543129}, "countryCode": "DE"}, "averageDailyFlights": 1.14, "operators": [{"name": "Lufthansa", "iata": "LH", "icao": "DLH"}]}, {"destination": {"icao": "LTFM", "iata": "IST", "name": "Istanbul ", "shortName": "Istanbul", "municipalityName": "Istanbul", "location": {"lat": 41.275276, "lon": 28.751944}, "countryCode": "TR"}, "averageDailyFlights": 1.14, "operators": [{"name": "Turkish Airlines", "iata": "TK", "icao": "THY"}]}, {"destination": {"icao": "HUEN", "iata": "EBB", "name": "Kampala Entebbe", "shortName": "Entebbe", "municipalityName": "Kampala", "location": {"lat": 0.042385, "lon": 32.4435}, "countryCode": "UG"}, "averageDailyFlights": 1.14, "operators": [{"name": "South African Airlink", "iata": "4Z", "icao": "LNK"}, {"name": "Uganda Airlines", "iata": "UR"}]}, {"destination": {"icao": "HRYR", "iata": "KGL", "name": "Kigali ", "shortName": "Kigali", "municipalityName": "Kigali", "location": {"lat": -1.968629, "lon": 30.1395}, "countryCode": "RW"}, "averageDailyFlights": 1.14, "operators": [{"name": "RwandAir", "iata": "WB", "icao": "RWD"}]}, {"destination": {"icao": "FZQA", "iata": "FBM", "name": "Lubumbashi ", "shortName": "Lubumbashi", "municipalityName": "Lubumbashi", "location": {"lat": -11.5913, "lon": 27.5309}, "countryCode": "CD"}, "averageDailyFlights": 1.14, "operators": [{"name": "South African Airlink", "iata": "4Z", "icao": "LNK"}]}, {"destination": {"icao": "WSSS", "iata": "SIN", "name": "Singapore Changi", "shortName": "Changi", "municipalityName": "Singapore", "location": {"lat": 1.35019, "lon": 103.994}, "countryCode": "SG"}, "averageDailyFlights": 1.14, "operators": [{"name": "Singapore Airlines", "iata": "SQ", "icao": "SIA"}]}, {"destination": {"icao": "FQVL", "iata": "VNX", "name": "Vilanculo Vilankulo", "shortName": "Vilankulo", "municipalityName": "Vilanculo", "location": {"lat": -22.0184, "lon": 35.3133}, "countryCode": "MZ"}, "averageDailyFlights": 1.14, "operators": [{"name": "South African Airlink", "iata": "4Z", "icao": "LNK"}]}, {"destination": {"icao": "LSZH", "iata": "ZRH", "name": "Zurich Kloten", "shortName": "Kloten", "municipalityName": "Zurich", "location": {"lat": 47.4647, "lon": 8.549169}, "countryCode": "CH"}, "averageDailyFlights": 1.14, "operators": [{"name": "SWISS", "iata": "LX", "icao": "SWR"}]}, {"destination": {"name": "Plettenberg"}, "averageDailyFlights": 1.14, "operators": [{"name": "CemAir", "iata": "5Z", "icao": "KEM"}]}, {"destination": {"icao": "FLLI", "iata": "LVI", "name": "Livingstone ", "shortName": "Livingstone", "municipalityName": "Livingstone", "location": {"lat": -17.8218, "lon": 25.8227}, "countryCode": "ZM"}, "averageDailyFlights": 1.0, "operators": [{"name": "South African Airlink", "iata": "4Z", "icao": "LNK"}]}, {"destination": {"icao": "KEWR", "iata": "EWR", "name": "Newark Liberty", "shortName": "Liberty", "municipalityName": "Newark", "location": {"lat": 40.6925, "lon": -74.1687}, "countryCode": "US"}, "averageDailyFlights": 1.0, "operators": [{"name": "United Airlines", "iata": "UA", "icao": "UAL"}]}, {"destination": {"icao": "YSSY", "iata": "SYD", "name": "Sydney City Sydney Kingsford Smith", "shortName": "Sydney Kingsford Smith", "municipalityName": "Sydney City", "location": {"lat": -33.9461, "lon": 151.177}, "countryCode": "AU"}, "averageDailyFlights": 1.0, "operators": [{"name": "Qantas", "iata": "QF", "icao": "QFA"}]}, {"destination": {"name": "Margat"}, "averageDailyFlights": 1.0, "operators": [{"name": "CemAir", "iata": "5Z", "icao": "KEM"}]}, {"destination": {"icao": "FMMI", "iata": "TNR", "name": "Antananarivo Ivato", "shortName": "Ivato", "municipalityName": "Antananarivo", "location": {"lat": -18.7969, "lon": 47.4788}, "countryCode": "MG"}, "averageDailyFlights": 0.86, "operators": [{"name": "South African Airlink", "iata": "4Z", "icao": "LNK"}]}, {"destination": {"icao": "FQBR", "iata": "BEW", "name": "Beira ", "shortName": "Beira", "municipalityName": "Beira", "location": {"lat": -19.7964, "lon": 34.9076}, "countryCode": "MZ"}, "averageDailyFlights": 0.86, "operators": [{"name": "South African Airlink", "iata": "4Z", "icao": "LNK"}]}, {"destination": {"icao": "HTDA", "iata": "DAR", "name": "Dar es Salaam Julius Nyerere", "shortName": "Julius Nyerere", "municipalityName": "Dar es Salaam", "location": {"lat": -6.878109, "lon": 39.2026}, "countryCode": "TZ"}, "averageDailyFlights": 0.86, "operators": [{"name": "South African Airlink", "iata": "4Z", "icao": "LNK"}]}, {"destination": {"icao": "OMAA", "iata": "AUH", "name": "Abu Dhabi Island and Internal Islands City Abu Dhabi", "shortName": "Abu Dhabi", "municipalityName": "Abu Dhabi Island and Internal Islands City", "location": {"lat": 24.433, "lon": 54.6511}, "countryCode": "AE"}, "averageDailyFlights": 0.71, "operators": [{"name": "Etihad Airways", "iata": "EY", "icao": "ETD"}]}, {"destination": {"icao": "FQPB", "iata": "POL", "name": "Pemba / Porto Amelia Pemba", "shortName": "Pemba", "municipalityName": "Pemba / Porto Amelia", "location": {"lat": -12.991762, "lon": 40.524014}, "countryCode": "MZ"}, "averageDailyFlights": 0.71, "operators": [{"name": "South African Airlink", "iata": "4Z", "icao": "LNK"}]}, {"destination": {"icao": "LLBG", "iata": "TLV", "name": "Tel Aviv Yafo Ben Gurion", "shortName": "Ben Gurion", "municipalityName": "Tel Aviv Yafo", "location": {"lat": 32.0114, "lon": 34.8867}, "countryCode": "IL"}, "averageDailyFlights": 0.57, "operators": [{"name": "El Al", "iata": "LY", "icao": "ELY"}]}, {"destination": {"icao": "FQTT", "iata": "TET", "name": "Tete Chingozi", "shortName": "Chingozi", "municipalityName": "Tete", "location": {"lat": -16.1048, "lon": 33.6402}, "countryCode": "MZ"}, "averageDailyFlights": 0.57, "operators": [{"name": "South African Airlink", "iata": "4Z", "icao": "LNK"}]}, {"destination": {"name": "Siteki"}, "averageDailyFlights": 0.57, "operators": [{"name": "South African Airlink", "iata": "4Z", "icao": "LNK"}]}, {"destination": {"icao": "DGAA", "iata": "ACC", "name": "Accra Kotoka", "shortName": "Kotoka", "municipalityName": "Accra", "location": {"lat": 5.605189, "lon": -0.166786}, "countryCode": "GH"}, "averageDailyFlights": 0.43, "operators": [{"name": "South African Airways", "iata": "SA", "icao": "SAA"}]}, {"destination": {"icao": "FSIA", "iata": "SEZ", "name": "Mahe Island Seychelles", "shortName": "Seychelles", "municipalityName": "Mahe Island", "location": {"lat": -4.674339, "lon": 55.5218}, "countryCode": "SC"}, "averageDailyFlights": 0.43, "operators": [{"name": "Air Seychelles", "iata": "HM", "icao": "SEY"}]}, {"destination": {"icao": "FMEE", "iata": "RUN", "name": "St Denis Roland Garros", "shortName": "Roland Garros", "municipalityName": "St Denis", "location": {"lat": -20.8871, "lon": 55.5103}, "countryCode": "RE"}, "averageDailyFlights": 0.43, "operators": [{"name": "Air Austral", "iata": "UU", "icao": "REU"}]}, {"destination": {"icao": "DAAG", "iata": "ALG", "name": "Algiers Houari Boumediene", "shortName": "Houari Boumediene", "municipalityName": "Algiers", "location": {"lat": 36.691, "lon": 3.215409}, "countryCode": "DZ"}, "averageDailyFlights": 0.29, "operators": [{"name": "Air Algerie", "iata": "AH", "icao": "DAH"}]}, {"destination": {"icao": "EBBR", "iata": "BRU", "name": "Brussels ", "shortName": "Brussels", "municipalityName": "Brussels", "location": {"lat": 50.9014, "lon": 4.484439}, "countryCode": "BE"}, "averageDailyFlights": 0.29, "operators": [{"name": "Air Belgium", "iata": "KF", "icao": "ABB"}]}, {"destination": {"icao": "FOOL", "iata": "LBV", "name": "Libreville Leon M'ba", "shortName": "Leon M'ba", "municipalityName": "Libreville", "location": {"lat": 0.4586, "lon": 9.41228}, "countryCode": "GA"}, "averageDailyFlights": 0.29, "operators": [{"name": "ASKY", "iata": "KP", "icao": "SKK"}]}, {"destination": {"icao": "FQNP", "iata": "APL", "name": "Nampula ", "shortName": "Nampula", "municipalityName": "Nampula", "location": {"lat": -15.1056, "lon": 39.2818}, "countryCode": "MZ"}, "averageDailyFlights": 0.29, "operators": [{"name": "South African Airlink", "iata": "4Z", "icao": "LNK"}]}, {"destination": {"icao": "ZGSZ", "iata": "SZX", "name": "Shenzhen Bao'an", "shortName": "Bao'an", "municipalityName": "Shenzhen", "location": {"lat": 22.6393, "lon": 113.811}, "countryCode": "CN"}, "averageDailyFlights": 0.14, "operators": [{"name": "Air China", "iata": "CA", "icao": "CCA"}]}, {"destination": {"icao": "HTZA", "iata": "ZNZ", "name": "Zanzibar Abeid Amani Karume", "shortName": "Abeid Amani Karume", "municipalityName": "Zanzibar", "location": {"lat": -6.22202, "lon": 39.2249}, "countryCode": "TZ"}, "averageDailyFlights": 0.14, "operators": [{"name": "Safair", "iata": "FA", "icao": "SFR"}]}, {"destination": {"name": "Addis Ababa"}, "averageDailyFlights": 0.14, "operators": [{"name": "Ethiopian Airlines", "iata": "ET", "icao": "ETH"}]}, {"destination": {"name": "Cairo"}, "averageDailyFlights": 0.14, "operators": [{"name": "EgyptAir", "iata": "MS", "icao": "MSR"}]}, {"destination": {"name": "Doha"}, "averageDailyFlights": 0.14, "operators": [{"name": "Qatar Airways", "iata": "QR", "icao": "QTR"}]}, {"destination": {"name": "Entebbe"}, "averageDailyFlights": 0.14, "operators": [{"name": "Uganda Airlines", "iata": "UR"}]}, {"destination": {"name": "Paris"}, "averageDailyFlights": 0.14, "operators": [{"name": "Air France", "iata": "AF", "icao": "AFR"}]}, {"destination": {"name": "Sen-Deni"}, "averageDailyFlights": 0.14, "operators": [{"name": "Air Austral", "iata": "UU", "icao": "REU"}]}]}