{"routes": [{"destination": {"icao": "FCPP", "iata": "PNR", "name": "Pointe Noire ", "shortName": "Pointe Noire", "municipalityName": "Pointe Noire", "location": {"lat": -4.81603, "lon": 11.886599}, "countryCode": "CG"}, "averageDailyFlights": 1.57, "operators": [{"name": "Ethiopian Airlines", "iata": "ET", "icao": "ETH"}, {"name": "Air Cote D'Ivoire", "iata": "HF", "icao": "VRE"}]}, {"destination": {"icao": "FZAA", "iata": "FIH", "name": "Kinshasa Ndjili", "shortName": "Ndjili", "municipalityName": "Kinshasa", "location": {"lat": -4.385749, "lon": 15.4446}, "countryCode": "CD"}, "averageDailyFlights": 1.14, "operators": [{"name": "Air France", "iata": "AF", "icao": "AFR"}, {"name": "ASKY", "iata": "KP", "icao": "SKK"}]}, {"destination": {"icao": "FOOL", "iata": "LBV", "name": "Libreville Leon M'ba", "shortName": "Leon M'ba", "municipalityName": "Libreville", "location": {"lat": 0.4586, "lon": 9.41228}, "countryCode": "GA"}, "averageDailyFlights": 0.71, "operators": [{"name": "FlexFlight", "iata": "W2", "icao": "FXT"}, {"name": "Afrijet", "iata": "J7", "icao": "ABS"}, {"name": "Groupe Transair", "iata": "R2", "icao": "GTS"}]}, {"destination": {"icao": "GMMN", "iata": "CMN", "name": "Casablanca Mohammed V", "shortName": "Mohammed V", "municipalityName": "Casablanca", "location": {"lat": 33.3675, "lon": -7.58997}, "countryCode": "MA"}, "averageDailyFlights": 0.29, "operators": [{"name": "Royal Air Maroc", "iata": "AT", "icao": "RAM"}]}, {"destination": {"icao": "DBBB", "iata": "COO", "name": "Cotonou Cadjehoun", "shortName": "Cadjehoun", "municipalityName": "Cotonou", "location": {"lat": 6.35723, "lon": 2.38435}, "countryCode": "BJ"}, "averageDailyFlights": 0.29, "operators": [{"name": "Mauritania Airlines International", "iata": "L6", "icao": "MAI"}]}, {"destination": {"icao": "FKKD", "iata": "DLA", "name": "Douala ", "shortName": "Douala", "municipalityName": "Douala", "location": {"lat": 4.00608, "lon": 9.719479}, "countryCode": "CM"}, "averageDailyFlights": 0.29, "operators": [{"name": "RwandAir", "iata": "WB", "icao": "RWD"}]}, {"destination": {"icao": "HRYR", "iata": "KGL", "name": "Kigali ", "shortName": "Kigali", "municipalityName": "Kigali", "location": {"lat": -1.968629, "lon": 30.1395}, "countryCode": "RW"}, "averageDailyFlights": 0.14, "operators": [{"name": "RwandAir", "iata": "WB", "icao": "RWD"}]}, {"destination": {"name": "Dakar"}, "averageDailyFlights": 0.14, "operators": [{"name": "FlexFlight", "iata": "W2", "icao": "FXT"}]}, {"destination": {"name": "Paris"}, "averageDailyFlights": 0.14, "operators": [{"name": "Air France", "iata": "AF", "icao": "AFR"}]}]}