{"routes": [{"destination": {"icao": "GOBD", "iata": "DSS", "name": "Dakar Blaise Diagne", "shortName": "Blaise Diagne", "municipalityName": "Dakar", "location": {"lat": 14.671111, "lon": -17.066944}, "countryCode": "SN"}, "averageDailyFlights": 2.14, "operators": [{"name": "Mauritania Airlines International", "iata": "L6", "icao": "MAI"}, {"name": "Air Senegal", "iata": "HC", "icao": "SZN"}, {"name": "Wasaya Airways", "iata": "WT", "icao": "WSG"}]}, {"destination": {"icao": "GMMN", "iata": "CMN", "name": "Casablanca Mohammed V", "shortName": "Mohammed V", "municipalityName": "Casablanca", "location": {"lat": 33.3675, "lon": -7.58997}, "countryCode": "MA"}, "averageDailyFlights": 1.86, "operators": [{"name": "Royal Air Maroc", "iata": "AT", "icao": "RAM"}, {"name": "Mauritania Airlines International", "iata": "L6", "icao": "MAI"}]}, {"destination": {"icao": "GQPP", "iata": "NDB", "name": "Nouadhibou ", "shortName": "Nouadhibou", "municipalityName": "Nouadhibou", "location": {"lat": 20.9331, "lon": -17.03}, "countryCode": "MR"}, "averageDailyFlights": 0.86, "operators": [{"name": "Mauritania Airlines International", "iata": "L6", "icao": "MAI"}]}, {"destination": {"icao": "LTFM", "iata": "IST", "name": "Istanbul ", "shortName": "Istanbul", "municipalityName": "Istanbul", "location": {"lat": 41.275276, "lon": 28.751944}, "countryCode": "TR"}, "averageDailyFlights": 0.71, "operators": [{"name": "Turkish Airlines", "iata": "TK", "icao": "THY"}]}, {"destination": {"icao": "DTTA", "iata": "TUN", "name": "Tunis Carthage", "shortName": "Carthage", "municipalityName": "Tunis", "location": {"lat": 36.851, "lon": 10.227199}, "countryCode": "TN"}, "averageDailyFlights": 0.71, "operators": [{"name": "Tunisair", "iata": "TU", "icao": "TAR"}, {"name": "Mauritania Airlines International", "iata": "L6", "icao": "MAI"}]}, {"destination": {"icao": "GCLP", "iata": "LPA", "name": "Gran Canaria Island Gran Canaria", "shortName": "Gran Canaria", "municipalityName": "Gran Canaria Island", "location": {"lat": 27.9319, "lon": -15.386599}, "countryCode": "ES"}, "averageDailyFlights": 0.57, "operators": [{"name": "Binter Canarias", "iata": "NT", "icao": "IBB"}, {"name": "Mauritania Airlines International", "iata": "L6", "icao": "MAI"}]}, {"destination": {"icao": "DAAG", "iata": "ALG", "name": "Algiers Houari Boumediene", "shortName": "Houari Boumediene", "municipalityName": "Algiers", "location": {"lat": 36.691, "lon": 3.215409}, "countryCode": "DZ"}, "averageDailyFlights": 0.43, "operators": [{"name": "Air Algerie", "iata": "AH", "icao": "DAH"}]}, {"destination": {"icao": "GUCY", "iata": "CKY", "name": "Conakry ", "shortName": "Conakry", "municipalityName": "Conakry", "location": {"lat": 9.57689, "lon": -13.612}, "countryCode": "GN"}, "averageDailyFlights": 0.43, "operators": [{"name": "Air France", "iata": "AF", "icao": "AFR"}]}, {"destination": {"icao": "GBYD", "iata": "BJL", "name": "Banjul ", "shortName": "Banjul", "municipalityName": "Banjul", "location": {"lat": 13.338, "lon": -16.6522}, "countryCode": "GM"}, "averageDailyFlights": 0.29, "operators": [{"name": "Turkish Airlines", "iata": "TK", "icao": "THY"}]}, {"destination": {"icao": "LFPG", "iata": "CDG", "name": "Paris Charles de Gaulle", "shortName": "Charles de Gaulle", "municipalityName": "Paris", "location": {"lat": 49.0128, "lon": 2.549999}, "countryCode": "FR"}, "averageDailyFlights": 0.29, "operators": [{"name": "Air France", "iata": "AF", "icao": "AFR"}]}, {"destination": {"icao": "GABS", "iata": "BKO", "name": "Senou ", "shortName": "Senou", "municipalityName": "Senou", "location": {"lat": 12.533499, "lon": -7.94994}, "countryCode": "ML"}, "averageDailyFlights": 0.29, "operators": [{"name": "Mauritania Airlines International", "iata": "L6", "icao": "MAI"}]}, {"destination": {"name": "Nema"}, "averageDailyFlights": 0.14, "operators": [{"name": "Mauritania Airlines International", "iata": "L6", "icao": "MAI"}]}]}