{"routes": [{"destination": {"icao": "OEJN", "iata": "JED", "name": "Jeddah King Abdulaziz", "shortName": "King Abdulaziz", "municipalityName": "Jeddah", "location": {"lat": 21.6796, "lon": 39.1565}, "countryCode": "SA"}, "averageDailyFlights": 13.42, "operators": [{"name": "Air Cairo", "iata": "SM", "icao": "MSC"}, {"name": "Air Arabia Egypt", "iata": "E5", "icao": "RBG"}, {"name": "flynas", "iata": "XY", "icao": "KNE"}, {"name": "Nile Air", "iata": "NP", "icao": "NIA"}, {"name": "Saudi Arabian Airlines", "iata": "SV", "icao": "SVA"}, {"name": "EgyptAir", "iata": "MS", "icao": "MSR"}, {"name": "Nesma Airlines", "iata": "NE", "icao": "NMA"}, {"name": "FlyEgypt", "iata": "FT", "icao": "FEG"}, {"name": "flyadeal", "iata": "F3", "icao": "FAD"}]}, {"destination": {"icao": "OEMA", "iata": "MED", "name": "Medina Prince Mohammad Bin Abdulaziz", "shortName": "Prince Mohammad Bin Abdulaziz", "municipalityName": "Medina", "location": {"lat": 24.5534, "lon": 39.7051}, "countryCode": "SA"}, "averageDailyFlights": 10.57, "operators": [{"name": "Saudi Arabian Airlines", "iata": "SV", "icao": "SVA"}, {"name": "EgyptAir", "iata": "MS", "icao": "MSR"}, {"name": "flynas", "iata": "XY", "icao": "KNE"}]}, {"destination": {"icao": "OKBK", "iata": "KWI", "name": "Kuwait City Kuwait", "shortName": "Kuwait", "municipalityName": "Kuwait City", "location": {"lat": 29.2266, "lon": 47.9689}, "countryCode": "KW"}, "averageDailyFlights": 8.3, "operators": [{"name": "EgyptAir", "iata": "MS", "icao": "MSR"}, {"name": "Kuwait Airways", "iata": "KU", "icao": "KAC"}, {"name": "Jazeera Airways", "iata": "J9", "icao": "JZR"}, {"name": "Nile Air", "iata": "NP", "icao": "NIA"}, {"name": "AlMasria", "iata": "UJ", "icao": "LMU"}]}, {"destination": {"icao": "OEDF", "iata": "DMM", "name": "Ad Dammam King Fahd", "shortName": "King Fahd", "municipalityName": "Ad Dammam", "location": {"lat": 26.4712, "lon": 49.7979}, "countryCode": "SA"}, "averageDailyFlights": 8.29, "operators": [{"name": "EgyptAir", "iata": "MS", "icao": "MSR"}, {"name": "Nile Air", "iata": "NP", "icao": "NIA"}, {"name": "Air Cairo", "iata": "SM", "icao": "MSC"}, {"name": "flynas", "iata": "XY", "icao": "KNE"}, {"name": "flyadeal", "iata": "F3", "icao": "FAD"}, {"name": "Air Arabia Egypt", "iata": "E5", "icao": "RBG"}]}, {"destination": {"icao": "OMDB", "iata": "DXB", "name": "Dubai ", "shortName": "Dubai", "municipalityName": "Dubai", "location": {"lat": 25.252798, "lon": 55.3644}, "countryCode": "AE"}, "averageDailyFlights": 8.14, "operators": [{"name": "EgyptAir", "iata": "MS", "icao": "MSR"}, {"name": "Emirates", "iata": "EK", "icao": "UAE"}]}, {"destination": {"icao": "OERK", "iata": "RUH", "name": "Riyadh King Khaled", "shortName": "King Khaled", "municipalityName": "Riyadh", "location": {"lat": 24.9576, "lon": 46.6988}, "countryCode": "SA"}, "averageDailyFlights": 7.74, "operators": [{"name": "Air Cairo", "iata": "SM", "icao": "MSC"}, {"name": "Air Arabia Egypt", "iata": "E5", "icao": "RBG"}, {"name": "Saudi Arabian Airlines", "iata": "SV", "icao": "SVA"}, {"name": "Nile Air", "iata": "NP", "icao": "NIA"}, {"name": "Nesma Airlines", "iata": "NE", "icao": "NMA"}, {"name": "flynas", "iata": "XY", "icao": "KNE"}, {"name": "flyadeal", "iata": "F3", "icao": "FAD"}, {"name": "FlyEgypt", "iata": "FT", "icao": "FEG"}, {"name": "EgyptAir", "iata": "MS", "icao": "MSR"}]}, {"destination": {"icao": "HESH", "iata": "SSH", "name": "Sharm el Sheikh ", "shortName": "Sharm el Sheikh", "municipalityName": "Sharm el Sheikh", "location": {"lat": 27.9773, "lon": 34.395}, "countryCode": "EG"}, "averageDailyFlights": 7.14, "operators": [{"name": "EgyptAir", "iata": "MS", "icao": "MSR"}, {"name": "Nile Air", "iata": "NP", "icao": "NIA"}, {"name": "Air Cairo", "iata": "SM", "icao": "MSC"}]}, {"destination": {"icao": "LTFM", "iata": "IST", "name": "Istanbul ", "shortName": "Istanbul", "municipalityName": "Istanbul", "location": {"lat": 41.275276, "lon": 28.751944}, "countryCode": "TR"}, "averageDailyFlights": 6.71, "operators": [{"name": "Turkish Airlines", "iata": "TK", "icao": "THY"}, {"name": "EgyptAir", "iata": "MS", "icao": "MSR"}]}, {"destination": {"icao": "OLBA", "iata": "BEY", "name": "Beirut Rafic Hariri", "shortName": "Rafic Hariri", "municipalityName": "Beirut", "location": {"lat": 33.8209, "lon": 35.4884}, "countryCode": "LB"}, "averageDailyFlights": 5.57, "operators": [{"name": "Middle East Airlines", "iata": "ME", "icao": "MEA"}, {"name": "EgyptAir", "iata": "MS", "icao": "MSR"}]}, {"destination": {"icao": "OJAI", "iata": "AMM", "name": "Amman Queen Alia", "shortName": "Queen Alia", "municipalityName": "Amman", "location": {"lat": 31.7226, "lon": 35.9932}, "countryCode": "JO"}, "averageDailyFlights": 5.21, "operators": [{"name": "Royal Jordanian", "iata": "RJ", "icao": "RJA"}, {"name": "Jordan Aviation Airlines", "iata": "R5", "icao": "JAV"}, {"name": "EgyptAir", "iata": "MS", "icao": "MSR"}]}, {"destination": {"icao": "OMAA", "iata": "AUH", "name": "Abu Dhabi Island and Internal Islands City Abu Dhabi", "shortName": "Abu Dhabi", "municipalityName": "Abu Dhabi Island and Internal Islands City", "location": {"lat": 24.433, "lon": 54.6511}, "countryCode": "AE"}, "averageDailyFlights": 4.01, "operators": [{"name": "Air Arabia Abu Dhabi", "iata": "3L", "icao": "ADY"}, {"name": "Etihad Airways", "iata": "EY", "icao": "ETD"}, {"name": "EgyptAir", "iata": "MS", "icao": "MSR"}]}, {"destination": {"icao": "LIRF", "iata": "FCO", "name": "Rome Leonardo da Vinci\u2013Fiumicino", "shortName": "Leonardo da Vinci\u2013Fiumicino", "municipalityName": "Rome", "location": {"lat": 41.8045, "lon": 12.2508}, "countryCode": "IT"}, "averageDailyFlights": 3.57, "operators": [{"name": "Alitalia", "iata": "AZ", "icao": "AZA"}, {"name": "EgyptAir", "iata": "MS", "icao": "MSR"}, {"name": "Air Cairo", "iata": "SM", "icao": "MSC"}]}, {"destination": {"icao": "OMSJ", "iata": "SHJ", "name": "Sharjah ", "shortName": "Sharjah", "municipalityName": "Sharjah", "location": {"lat": 25.3286, "lon": 55.5172}, "countryCode": "AE"}, "averageDailyFlights": 3.44, "operators": [{"name": "Nile Air", "iata": "NP", "icao": "NIA"}, {"name": "Air Arabia", "iata": "G9", "icao": "ABY"}, {"name": "FlyEgypt", "iata": "FT", "icao": "FEG"}, {"name": "EgyptAir", "iata": "MS", "icao": "MSR"}]}, {"destination": {"icao": "LIMC", "iata": "MXP", "name": "Milan Malpensa", "shortName": "Malpensa", "municipalityName": "Milan", "location": {"lat": 45.6306, "lon": 8.72811}, "countryCode": "IT"}, "averageDailyFlights": 3.43, "operators": [{"name": "EgyptAir", "iata": "MS", "icao": "MSR"}, {"name": "Air Cairo", "iata": "SM", "icao": "MSC"}, {"name": "Neos", "iata": "NO", "icao": "NOS"}]}, {"destination": {"icao": "EDDF", "iata": "FRA", "name": "Frankfurt-am-Main ", "shortName": "Frankfurt-am-Main", "municipalityName": "Frankfurt-am-Main", "location": {"lat": 50.0264, "lon": 8.543129}, "countryCode": "DE"}, "averageDailyFlights": 3.29, "operators": [{"name": "Lufthansa", "iata": "LH", "icao": "DLH"}, {"name": "EgyptAir", "iata": "MS", "icao": "MSR"}]}, {"destination": {"icao": "LGAV", "iata": "ATH", "name": "Athens Eleftherios Venizelos", "shortName": "Eleftherios Venizelos", "municipalityName": "Athens", "location": {"lat": 37.9364, "lon": 23.944498}, "countryCode": "GR"}, "averageDailyFlights": 3.14, "operators": [{"name": "Aegean Airlines", "iata": "A3", "icao": "AEE"}, {"name": "EgyptAir", "iata": "MS", "icao": "MSR"}]}, {"destination": {"icao": "LFPG", "iata": "CDG", "name": "Paris Charles de Gaulle", "shortName": "Charles de Gaulle", "municipalityName": "Paris", "location": {"lat": 49.0128, "lon": 2.549999}, "countryCode": "FR"}, "averageDailyFlights": 2.86, "operators": [{"name": "Air France", "iata": "AF", "icao": "AFR"}, {"name": "EgyptAir", "iata": "MS", "icao": "MSR"}]}, {"destination": {"icao": "HSSS", "iata": "KRT", "name": "Khartoum ", "shortName": "Khartoum", "municipalityName": "Khartoum", "location": {"lat": 15.5895, "lon": 32.5532}, "countryCode": "SD"}, "averageDailyFlights": 2.57, "operators": [{"name": "EgyptAir", "iata": "MS", "icao": "MSR"}, {"name": "Tarco Aviation", "iata": "3T", "icao": "TRQ"}, {"name": "AlMasria", "iata": "UJ", "icao": "LMU"}, {"name": "Air Arabia Egypt", "iata": "E5", "icao": "RBG"}, {"name": "Nile Air", "iata": "NP", "icao": "NIA"}]}, {"destination": {"name": "Moscow"}, "averageDailyFlights": 2.29, "operators": [{"name": "EgyptAir", "iata": "MS", "icao": "MSR"}]}, {"destination": {"icao": "EGLL", "iata": "LHR", "name": "London Heathrow", "shortName": "Heathrow", "municipalityName": "London", "location": {"lat": 51.4706, "lon": -0.461941}, "countryCode": "GB"}, "averageDailyFlights": 2.25, "operators": [{"name": "EgyptAir", "iata": "MS", "icao": "MSR"}, {"name": "British Airways", "iata": "BA", "icao": "BAW"}]}, {"destination": {"icao": "EDDM", "iata": "MUC", "name": "Munich ", "shortName": "Munich", "municipalityName": "Munich", "location": {"lat": 48.3538, "lon": 11.7861}, "countryCode": "DE"}, "averageDailyFlights": 2.14, "operators": [{"name": "Lufthansa", "iata": "LH", "icao": "DLH"}, {"name": "EgyptAir", "iata": "MS", "icao": "MSR"}]}, {"destination": {"icao": "GMMN", "iata": "CMN", "name": "Casablanca Mohammed V", "shortName": "Mohammed V", "municipalityName": "Casablanca", "location": {"lat": 33.3675, "lon": -7.58997}, "countryCode": "MA"}, "averageDailyFlights": 1.88, "operators": [{"name": "EgyptAir", "iata": "MS", "icao": "MSR"}, {"name": "Royal Air Maroc", "iata": "AT", "icao": "RAM"}]}, {"destination": {"icao": "ORBI", "iata": "BGW", "name": "Baghdad ", "shortName": "Baghdad", "municipalityName": "Baghdad", "location": {"lat": 33.2625, "lon": 44.2346}, "countryCode": "IQ"}, "averageDailyFlights": 1.72, "operators": [{"name": "EgyptAir", "iata": "MS", "icao": "MSR"}, {"name": "I A W", "iata": "IA", "icao": "IAW"}, {"name": "Nile Air", "iata": "NP", "icao": "NIA"}, {"name": "Fly Baghdad", "iata": "IF", "icao": "FBA"}]}, {"destination": {"icao": "LEMD", "iata": "MAD", "name": "Madrid Adolfo Su\u00e1rez \u2013Barajas", "shortName": "Adolfo Su\u00e1rez \u2013Barajas", "municipalityName": "Madrid", "location": {"lat": 40.4936, "lon": -3.56676}, "countryCode": "ES"}, "averageDailyFlights": 1.71, "operators": [{"name": "EgyptAir", "iata": "MS", "icao": "MSR"}, {"name": "Nile Air", "iata": "NP", "icao": "NIA"}]}, {"destination": {"icao": "OEAB", "iata": "AHB", "name": "Abha Regional", "shortName": "Regional", "municipalityName": "Abha", "location": {"lat": 18.2404, "lon": 42.6566}, "countryCode": "SA"}, "averageDailyFlights": 1.57, "operators": [{"name": "Air Cairo", "iata": "SM", "icao": "MSC"}, {"name": "Nile Air", "iata": "NP", "icao": "NIA"}, {"name": "Air Arabia Egypt", "iata": "E5", "icao": "RBG"}]}, {"destination": {"icao": "HLLB", "iata": "BEN", "name": "Benghazi Benina", "shortName": "Benina", "municipalityName": "Benghazi", "location": {"lat": 32.0968, "lon": 20.2695}, "countryCode": "LY"}, "averageDailyFlights": 1.46, "operators": [{"name": "EgyptAir", "iata": "MS", "icao": "MSR"}, {"name": "Afriqiyah Airways", "iata": "8U", "icao": "AAW"}]}, {"destination": {"icao": "OESK", "iata": "AJF", "name": "Al-Jawf Domestic", "shortName": "Domestic", "municipalityName": "Al-Jawf", "location": {"lat": 29.7851, "lon": 40.1}, "countryCode": "SA"}, "averageDailyFlights": 1.43, "operators": [{"name": "Nile Air", "iata": "NP", "icao": "NIA"}, {"name": "Air Arabia Egypt", "iata": "E5", "icao": "RBG"}]}, {"destination": {"icao": "LIME", "iata": "BGY", "name": "Bergamo Orio al Serio", "shortName": "Orio al Serio", "municipalityName": "Bergamo", "location": {"lat": 45.6739, "lon": 9.70417}, "countryCode": "IT"}, "averageDailyFlights": 1.43, "operators": [{"name": "Air Arabia Egypt", "iata": "E5", "icao": "RBG"}, {"name": "AlMasria", "iata": "UJ", "icao": "LMU"}]}, {"destination": {"icao": "LCLK", "iata": "LCA", "name": "Larnarca Larnaca", "shortName": "Larnaca", "municipalityName": "Larnarca", "location": {"lat": 34.8751, "lon": 33.6249}, "countryCode": "CY"}, "averageDailyFlights": 1.43, "operators": [{"name": "EgyptAir", "iata": "MS", "icao": "MSR"}, {"name": "Cyprus Airways", "iata": "CY"}]}, {"destination": {"icao": "OBBI", "iata": "BAH", "name": "Manama Bahrain", "shortName": "Bahrain", "municipalityName": "Manama", "location": {"lat": 26.2708, "lon": 50.6336}, "countryCode": "BH"}, "averageDailyFlights": 1.3, "operators": [{"name": "Air Arabia Egypt", "iata": "E5", "icao": "RBG"}, {"name": "EgyptAir", "iata": "MS", "icao": "MSR"}, {"name": "Gulf Air", "iata": "GF", "icao": "GFA"}]}, {"destination": {"icao": "OOMS", "iata": "MCT", "name": "Muscat ", "shortName": "Muscat", "municipalityName": "Muscat", "location": {"lat": 23.5933, "lon": 58.2844}, "countryCode": "OM"}, "averageDailyFlights": 1.22, "operators": [{"name": "Air Arabia Egypt", "iata": "E5", "icao": "RBG"}, {"name": "EgyptAir", "iata": "MS", "icao": "MSR"}, {"name": "Oman Air", "iata": "WY", "icao": "OMA"}]}, {"destination": {"icao": "DAAG", "iata": "ALG", "name": "Algiers Houari Boumediene", "shortName": "Houari Boumediene", "municipalityName": "Algiers", "location": {"lat": 36.691, "lon": 3.215409}, "countryCode": "DZ"}, "averageDailyFlights": 1.16, "operators": [{"name": "EgyptAir", "iata": "MS", "icao": "MSR"}, {"name": "Air Algerie", "iata": "AH", "icao": "DAH"}]}, {"destination": {"icao": "OTHH", "iata": "DOH", "name": "Doha Hamad", "shortName": "Hamad", "municipalityName": "Doha", "location": {"lat": 25.273056, "lon": 51.608055}, "countryCode": "QA"}, "averageDailyFlights": 1.16, "operators": [{"name": "EgyptAir", "iata": "MS", "icao": "MSR"}, {"name": "Qatar Airways", "iata": "QR", "icao": "QTR"}]}, {"destination": {"icao": "DTTA", "iata": "TUN", "name": "Tunis Carthage", "shortName": "Carthage", "municipalityName": "Tunis", "location": {"lat": 36.851, "lon": 10.227199}, "countryCode": "TN"}, "averageDailyFlights": 1.16, "operators": [{"name": "EgyptAir", "iata": "MS", "icao": "MSR"}, {"name": "Tunisair", "iata": "TU", "icao": "TAR"}]}, {"destination": {"icao": "EHAM", "iata": "AMS", "name": "Amsterdam Schiphol", "shortName": "Schiphol", "municipalityName": "Amsterdam", "location": {"lat": 52.3086, "lon": 4.763889}, "countryCode": "NL"}, "averageDailyFlights": 1.14, "operators": [{"name": "EgyptAir", "iata": "MS", "icao": "MSR"}]}, {"destination": {"icao": "KJFK", "iata": "JFK", "name": "New York John F Kennedy", "shortName": "John F Kennedy", "municipalityName": "New York", "location": {"lat": 40.6398, "lon": -73.7789}, "countryCode": "US"}, "averageDailyFlights": 1.14, "operators": [{"name": "EgyptAir", "iata": "MS", "icao": "MSR"}]}, {"destination": {"icao": "LLBG", "iata": "TLV", "name": "Tel Aviv Yafo Ben Gurion", "shortName": "Ben Gurion", "municipalityName": "Tel Aviv Yafo", "location": {"lat": 32.0114, "lon": 34.8867}, "countryCode": "IL"}, "averageDailyFlights": 1.14, "operators": [{"name": "EgyptAir", "iata": "MS", "icao": "MSR"}]}, {"destination": {"icao": "HLLM", "iata": "MJI", "name": "Tripoli Mitiga", "shortName": "Mitiga", "municipalityName": "Tripoli", "location": {"lat": 32.8941, "lon": 13.276}, "countryCode": "LY"}, "averageDailyFlights": 1.14, "operators": [{"name": "EgyptAir", "iata": "MS", "icao": "MSR"}]}, {"destination": {"icao": "HESN", "iata": "ASW", "name": "Aswan ", "shortName": "Aswan", "municipalityName": "Aswan", "location": {"lat": 23.9644, "lon": 32.82}, "countryCode": "EG"}, "averageDailyFlights": 1.03, "operators": [{"name": "Nile Air", "iata": "NP", "icao": "NIA"}, {"name": "Air Cairo", "iata": "SM", "icao": "MSC"}, {"name": "AlMasria", "iata": "UJ", "icao": "LMU"}, {"name": "EgyptAir", "iata": "MS", "icao": "MSR"}]}, {"destination": {"icao": "LEBL", "iata": "BCN", "name": "Barcelona ", "shortName": "Barcelona", "municipalityName": "Barcelona", "location": {"lat": 41.2971, "lon": 2.078459}, "countryCode": "ES"}, "averageDailyFlights": 1.02, "operators": [{"name": "EgyptAir", "iata": "MS", "icao": "MSR"}, {"name": "Vueling", "iata": "VY", "icao": "VLG"}]}, {"destination": {"icao": "HAAB", "iata": "ADD", "name": "Addis Ababa Bole", "shortName": "Bole", "municipalityName": "Addis Ababa", "location": {"lat": 8.97789, "lon": 38.7993}, "countryCode": "ET"}, "averageDailyFlights": 1.0, "operators": [{"name": "EgyptAir", "iata": "MS", "icao": "MSR"}]}, {"destination": {"icao": "EDDB", "iata": "BER", "name": "Berlin Brandenburg", "shortName": "Brandenburg", "municipalityName": "Berlin", "location": {"lat": 52.35139, "lon": 13.493889}, "countryCode": "DE"}, "averageDailyFlights": 1.0, "operators": [{"name": "EgyptAir", "iata": "MS", "icao": "MSR"}]}, {"destination": {"icao": "LTFJ", "iata": "SAW", "name": "Istanbul Sabiha G\u00f6k\u00e7en", "shortName": "Sabiha G\u00f6k\u00e7en", "municipalityName": "Istanbul", "location": {"lat": 40.8986, "lon": 29.3092}, "countryCode": "TR"}, "averageDailyFlights": 1.0, "operators": [{"name": "Nile Air", "iata": "NP", "icao": "NIA"}]}, {"destination": {"name": "Sochi"}, "averageDailyFlights": 1.0, "operators": [{"name": "Aeroflot", "iata": "SU", "icao": "AFL"}]}, {"destination": {"icao": "LOWW", "iata": "VIE", "name": "Vienna Schwechat", "shortName": "Schwechat", "municipalityName": "Vienna", "location": {"lat": 48.1103, "lon": 16.5697}, "countryCode": "AT"}, "averageDailyFlights": 0.88, "operators": [{"name": "EgyptAir", "iata": "MS", "icao": "MSR"}, {"name": "Austrian", "iata": "OS", "icao": "AUA"}]}, {"destination": {"icao": "EBBR", "iata": "BRU", "name": "Brussels ", "shortName": "Brussels", "municipalityName": "Brussels", "location": {"lat": 50.9014, "lon": 4.484439}, "countryCode": "BE"}, "averageDailyFlights": 0.86, "operators": [{"name": "EgyptAir", "iata": "MS", "icao": "MSR"}]}, {"destination": {"icao": "OEGN", "iata": "GIZ", "name": "Jazan Jizan Regional", "shortName": "Jizan Regional", "municipalityName": "Jazan", "location": {"lat": 16.9011, "lon": 42.5858}, "countryCode": "SA"}, "averageDailyFlights": 0.86, "operators": [{"name": "Air Arabia Egypt", "iata": "E5", "icao": "RBG"}, {"name": "Nile Air", "iata": "NP", "icao": "NIA"}]}, {"destination": {"icao": "ORER", "iata": "EBL", "name": "Arbil Erbil", "shortName": "Erbil", "municipalityName": "Arbil", "location": {"lat": 36.2376, "lon": 43.9632}, "countryCode": "IQ"}, "averageDailyFlights": 0.71, "operators": [{"name": "EgyptAir", "iata": "MS", "icao": "MSR"}, {"name": "I A W", "iata": "IA", "icao": "IAW"}]}, {"destination": {"icao": "HEAT", "iata": "ATZ", "name": "Assiut ", "shortName": "Assiut", "municipalityName": "Assiut", "location": {"lat": 27.0465, "lon": 31.012}, "countryCode": "EG"}, "averageDailyFlights": 0.71, "operators": [{"name": "EgyptAir", "iata": "MS", "icao": "MSR"}, {"name": "Petroleum Air Services", "iata": "UF", "icao": "PER"}]}, {"destination": {"icao": "LROP", "iata": "OTP", "name": "Bucharest Henri Coand\u0103", "shortName": "Henri Coand\u0103", "municipalityName": "Bucharest", "location": {"lat": 44.5722, "lon": 26.1022}, "countryCode": "RO"}, "averageDailyFlights": 0.71, "operators": [{"name": "TAROM", "iata": "RO", "icao": "ROT"}]}, {"destination": {"icao": "LHBP", "iata": "BUD", "name": "Budapest Ferenc Liszt", "shortName": "Ferenc Liszt", "municipalityName": "Budapest", "location": {"lat": 47.4369, "lon": 19.255598}, "countryCode": "HU"}, "averageDailyFlights": 0.71, "operators": [{"name": "EgyptAir", "iata": "MS", "icao": "MSR"}]}, {"destination": {"icao": "EKCH", "iata": "CPH", "name": "Copenhagen Kastrup", "shortName": "Kastrup", "municipalityName": "Copenhagen", "location": {"lat": 55.6179, "lon": 12.656}, "countryCode": "DK"}, "averageDailyFlights": 0.71, "operators": [{"name": "EgyptAir", "iata": "MS", "icao": "MSR"}]}, {"destination": {"icao": "EIDW", "iata": "DUB", "name": "Dublin ", "shortName": "Dublin", "municipalityName": "Dublin", "location": {"lat": 53.4213, "lon": -6.27007}, "countryCode": "IE"}, "averageDailyFlights": 0.71, "operators": [{"name": "EgyptAir", "iata": "MS", "icao": "MSR"}]}, {"destination": {"icao": "EDDL", "iata": "DUS", "name": "Duesseldorf D\u00fcsseldorf", "shortName": "D\u00fcsseldorf", "municipalityName": "Duesseldorf", "location": {"lat": 51.2895, "lon": 6.766779}, "countryCode": "DE"}, "averageDailyFlights": 0.71, "operators": [{"name": "EgyptAir", "iata": "MS", "icao": "MSR"}]}, {"destination": {"icao": "LSGG", "iata": "GVA", "name": "Geneva Cointrin", "shortName": "Cointrin", "municipalityName": "Geneva", "location": {"lat": 46.2381, "lon": 6.10895}, "countryCode": "CH"}, "averageDailyFlights": 0.71, "operators": [{"name": "EgyptAir", "iata": "MS", "icao": "MSR"}]}, {"destination": {"icao": "ZGGG", "iata": "CAN", "name": "Guangzhou Baiyun", "shortName": "Baiyun", "municipalityName": "Guangzhou", "location": {"lat": 23.3924, "lon": 113.299}, "countryCode": "CN"}, "averageDailyFlights": 0.71, "operators": [{"name": "EgyptAir", "iata": "MS", "icao": "MSR"}]}, {"destination": {"icao": "FTTJ", "iata": "NDJ", "name": "N'Djamena ", "shortName": "N'Djamena", "municipalityName": "N'Djamena", "location": {"lat": 12.1337, "lon": 15.034}, "countryCode": "TD"}, "averageDailyFlights": 0.71, "operators": [{"name": "EgyptAir", "iata": "MS", "icao": "MSR"}]}, {"destination": {"icao": "CYYZ", "iata": "YYZ", "name": "Toronto Pearson", "shortName": "Pearson", "municipalityName": "Toronto", "location": {"lat": 43.6772, "lon": -79.6306}, "countryCode": "CA"}, "averageDailyFlights": 0.71, "operators": [{"name": "EgyptAir", "iata": "MS", "icao": "MSR"}]}, {"destination": {"icao": "LSZH", "iata": "ZRH", "name": "Zurich Kloten", "shortName": "Kloten", "municipalityName": "Zurich", "location": {"lat": 47.4647, "lon": 8.549169}, "countryCode": "CH"}, "averageDailyFlights": 0.71, "operators": [{"name": "SWISS", "iata": "LX", "icao": "SWR"}]}, {"destination": {"name": "Tabuk"}, "averageDailyFlights": 0.71, "operators": [{"name": "Nesma Airlines", "iata": "NE", "icao": "NMA"}]}, {"destination": {"icao": "ZBAA", "iata": "PEK", "name": "Beijing Capital", "shortName": "Capital", "municipalityName": "Beijing", "location": {"lat": 40.0801, "lon": 116.585}, "countryCode": "CN"}, "averageDailyFlights": 0.68, "operators": [{"name": "EgyptAir", "iata": "MS", "icao": "MSR"}, {"name": "Sichuan Airlines", "iata": "3U", "icao": "CSC"}]}, {"destination": {"icao": "DNAA", "iata": "ABV", "name": "Abuja Nnamdi Azikiwe", "shortName": "Nnamdi Azikiwe", "municipalityName": "Abuja", "location": {"lat": 9.00679, "lon": 7.263169}, "countryCode": "NG"}, "averageDailyFlights": 0.57, "operators": [{"name": "EgyptAir", "iata": "MS", "icao": "MSR"}]}, {"destination": {"icao": "DGAA", "iata": "ACC", "name": "Accra Kotoka", "shortName": "Kotoka", "municipalityName": "Accra", "location": {"lat": 5.605189, "lon": -0.166786}, "countryCode": "GH"}, "averageDailyFlights": 0.57, "operators": [{"name": "EgyptAir", "iata": "MS", "icao": "MSR"}]}, {"destination": {"icao": "OMAL", "iata": "AAN", "name": "Al Ain City Al Ain", "shortName": "Al Ain", "municipalityName": "Al Ain City", "location": {"lat": 24.2617, "lon": 55.6092}, "countryCode": "AE"}, "averageDailyFlights": 0.57, "operators": [{"name": "Nile Air", "iata": "NP", "icao": "NIA"}]}, {"destination": {"icao": "FAOR", "iata": "JNB", "name": "Jo'anna OR Tambo", "shortName": "OR Tambo", "municipalityName": "Jo'anna", "location": {"lat": -26.1392, "lon": 28.246}, "countryCode": "ZA"}, "averageDailyFlights": 0.57, "operators": [{"name": "EgyptAir", "iata": "MS", "icao": "MSR"}]}, {"destination": {"icao": "DNKN", "iata": "KAN", "name": "Kano Mallam Aminu", "shortName": "Mallam Aminu", "municipalityName": "Kano", "location": {"lat": 12.047599, "lon": 8.52462}, "countryCode": "NG"}, "averageDailyFlights": 0.57, "operators": [{"name": "EgyptAir", "iata": "MS", "icao": "MSR"}]}, {"destination": {"icao": "FZAA", "iata": "FIH", "name": "Kinshasa Ndjili", "shortName": "Ndjili", "municipalityName": "Kinshasa", "location": {"lat": -4.385749, "lon": 15.4446}, "countryCode": "CD"}, "averageDailyFlights": 0.57, "operators": [{"name": "EgyptAir", "iata": "MS", "icao": "MSR"}]}, {"destination": {"icao": "LFPO", "iata": "ORY", "name": "Paris -Orly", "shortName": "-Orly", "municipalityName": "Paris", "location": {"lat": 48.7253, "lon": 2.35944}, "countryCode": "FR"}, "averageDailyFlights": 0.57, "operators": [{"name": "Transavia France", "iata": "TO", "icao": "TVF"}, {"name": "Vueling", "iata": "VY", "icao": "VLG"}]}, {"destination": {"name": "Taif"}, "averageDailyFlights": 0.57, "operators": [{"name": "Nesma Airlines", "iata": "NE", "icao": "NMA"}]}, {"destination": {"icao": "OJAQ", "iata": "AQJ", "name": "Aqaba King Hussein", "shortName": "King Hussein", "municipalityName": "Aqaba", "location": {"lat": 29.6116, "lon": 35.0181}, "countryCode": "JO"}, "averageDailyFlights": 0.45, "operators": [{"name": "Petroleum Air Services", "iata": "UF", "icao": "PER"}, {"name": "Air Cairo", "iata": "SM", "icao": "MSC"}, {"name": "Ethiopian Airlines", "iata": "ET", "icao": "ETH"}]}, {"destination": {"icao": "FKKD", "iata": "DLA", "name": "Douala ", "shortName": "Douala", "municipalityName": "Douala", "location": {"lat": 4.00608, "lon": 9.719479}, "countryCode": "CM"}, "averageDailyFlights": 0.43, "operators": [{"name": "EgyptAir", "iata": "MS", "icao": "MSR"}]}, {"destination": {"icao": "ZSHC", "iata": "HGH", "name": "Hangzhou Xiaoshan", "shortName": "Xiaoshan", "municipalityName": "Hangzhou", "location": {"lat": 30.2295, "lon": 120.434}, "countryCode": "CN"}, "averageDailyFlights": 0.43, "operators": [{"name": "EgyptAir", "iata": "MS", "icao": "MSR"}]}, {"destination": {"icao": "HUEN", "iata": "EBB", "name": "Kampala Entebbe", "shortName": "Entebbe", "municipalityName": "Kampala", "location": {"lat": 0.042385, "lon": 32.4435}, "countryCode": "UG"}, "averageDailyFlights": 0.43, "operators": [{"name": "EgyptAir", "iata": "MS", "icao": "MSR"}]}, {"destination": {"icao": "HRYR", "iata": "KGL", "name": "Kigali ", "shortName": "Kigali", "municipalityName": "Kigali", "location": {"lat": -1.968629, "lon": 30.1395}, "countryCode": "RW"}, "averageDailyFlights": 0.43, "operators": [{"name": "EgyptAir", "iata": "MS", "icao": "MSR"}]}, {"destination": {"icao": "HEMA", "iata": "RMF", "name": "Marsa Alam ", "shortName": "Marsa Alam", "municipalityName": "Marsa Alam", "location": {"lat": 25.5571, "lon": 34.5837}, "countryCode": "EG"}, "averageDailyFlights": 0.43, "operators": [{"name": "EgyptAir", "iata": "MS", "icao": "MSR"}]}, {"destination": {"icao": "CYUL", "iata": "YUL", "name": "Montreal Trudeau", "shortName": "Trudeau", "municipalityName": "Montreal", "location": {"lat": 45.4706, "lon": -73.7408}, "countryCode": "CA"}, "averageDailyFlights": 0.43, "operators": [{"name": "Air Canada", "iata": "AC", "icao": "ACA"}]}, {"destination": {"icao": "OMRK", "iata": "RKT", "name": "Ras Al Khaimah ", "shortName": "Ras Al Khaimah", "municipalityName": "Ras Al Khaimah", "location": {"lat": 25.6135, "lon": 55.9388}, "countryCode": "AE"}, "averageDailyFlights": 0.43, "operators": [{"name": "Air Arabia", "iata": "G9", "icao": "ABY"}]}, {"destination": {"icao": "HEMK", "iata": "HMB", "name": "Sohag ", "shortName": "Sohag", "municipalityName": "Sohag", "location": {"lat": 26.342777, "lon": 31.742777}, "countryCode": "EG"}, "averageDailyFlights": 0.43, "operators": [{"name": "EgyptAir", "iata": "MS", "icao": "MSR"}]}, {"destination": {"icao": "ESSA", "iata": "ARN", "name": "Stockholm -Arlanda", "shortName": "-Arlanda", "municipalityName": "Stockholm", "location": {"lat": 59.6519, "lon": 17.9186}, "countryCode": "SE"}, "averageDailyFlights": 0.43, "operators": [{"name": "Nile Air", "iata": "NP", "icao": "NIA"}]}, {"destination": {"name": "Warsaw"}, "averageDailyFlights": 0.43, "operators": [{"name": "LOT - Polish Airlines", "iata": "LO", "icao": "LOT"}]}, {"destination": {"icao": "HEGN", "iata": "HRG", "name": "Hurghada ", "shortName": "Hurghada", "municipalityName": "Hurghada", "location": {"lat": 27.1783, "lon": 33.7994}, "countryCode": "EG"}, "averageDailyFlights": 0.36, "operators": [{"name": "Nesma Airlines", "iata": "NE", "icao": "NMA"}, {"name": "EgyptAir", "iata": "MS", "icao": "MSR"}]}, {"destination": {"icao": "HSSJ", "iata": "JUB", "name": "Juba ", "shortName": "Juba", "municipalityName": "Juba", "location": {"lat": 4.87201, "lon": 31.6011}, "countryCode": "SS"}, "averageDailyFlights": 0.29, "operators": [{"name": "EgyptAir", "iata": "MS", "icao": "MSR"}]}, {"destination": {"icao": "HELX", "iata": "LXR", "name": "Luxor ", "shortName": "Luxor", "municipalityName": "Luxor", "location": {"lat": 25.671, "lon": 32.7066}, "countryCode": "EG"}, "averageDailyFlights": 0.29, "operators": [{"name": "Air Cairo", "iata": "SM", "icao": "MSC"}, {"name": "EgyptAir", "iata": "MS", "icao": "MSR"}]}, {"destination": {"icao": "LFML", "iata": "MRS", "name": "Marseille Provence", "shortName": "Provence", "municipalityName": "Marseille", "location": {"lat": 43.43927, "lon": 5.221424}, "countryCode": "FR"}, "averageDailyFlights": 0.29, "operators": [{"name": "Air Arabia Egypt", "iata": "E5", "icao": "RBG"}]}, {"destination": {"icao": "RJAA", "iata": "NRT", "name": "Tokyo Narita", "shortName": "Narita", "municipalityName": "Tokyo", "location": {"lat": 35.7647, "lon": 140.386}, "countryCode": "JP"}, "averageDailyFlights": 0.29, "operators": [{"name": "EgyptAir", "iata": "MS", "icao": "MSR"}]}, {"destination": {"name": "District of Columbia"}, "averageDailyFlights": 0.29, "operators": [{"name": "EgyptAir", "iata": "MS", "icao": "MSR"}]}, {"destination": {"name": "King Fakhd"}, "averageDailyFlights": 0.29, "operators": [{"name": "flynas", "iata": "XY", "icao": "KNE"}, {"name": "flyadeal", "iata": "F3", "icao": "FAD"}]}, {"destination": {"name": "Mitiga"}, "averageDailyFlights": 0.29, "operators": [{"name": "Afriqiyah Airways", "iata": "8U", "icao": "AAW"}]}, {"destination": {"name": "Mizerata"}, "averageDailyFlights": 0.29, "operators": [{"name": "Afriqiyah Airways", "iata": "8U", "icao": "AAW"}]}, {"destination": {"icao": "ORMM", "iata": "BSR", "name": "Basrah ", "shortName": "Basrah", "municipalityName": "Basrah", "location": {"lat": 30.5491, "lon": 47.6621}, "countryCode": "IQ"}, "averageDailyFlights": 0.14, "operators": [{"name": "I A W", "iata": "IA", "icao": "IAW"}]}, {"destination": {"icao": "HDAM", "iata": "JIB", "name": "Djibouti City Djibouti-Ambouli", "shortName": "Djibouti-Ambouli", "municipalityName": "Djibouti City", "location": {"lat": 11.5473, "lon": 43.1595}, "countryCode": "DJ"}, "averageDailyFlights": 0.14, "operators": [{"name": "AlMasria", "iata": "UJ", "icao": "LMU"}]}, {"destination": {"icao": "LEMG", "iata": "AGP", "name": "M\u00e1laga ", "shortName": "M\u00e1laga", "municipalityName": "M\u00e1laga", "location": {"lat": 36.6749, "lon": -4.49911}, "countryCode": "ES"}, "averageDailyFlights": 0.14, "operators": [{"name": "Air Cairo", "iata": "SM", "icao": "MSC"}]}, {"destination": {"icao": "HSPN", "iata": "PZU", "name": "Port Sudan New", "shortName": "New", "municipalityName": "Port Sudan", "location": {"lat": 19.4336, "lon": 37.2341}, "countryCode": "SD"}, "averageDailyFlights": 0.14, "operators": [{"name": "Tarco Aviation", "iata": "3T", "icao": "TRQ"}]}, {"destination": {"icao": "ORSU", "iata": "ISU", "name": "Sulaymaniyah ", "shortName": "Sulaymaniyah", "municipalityName": "Sulaymaniyah", "location": {"lat": 35.56175, "lon": 45.31674}, "countryCode": "IQ"}, "averageDailyFlights": 0.14, "operators": [{"name": "I A W", "iata": "IA", "icao": "IAW"}]}, {"destination": {"name": "Abu-Simbel"}, "averageDailyFlights": 0.14, "operators": [{"name": "EgyptAir", "iata": "MS", "icao": "MSR"}]}, {"destination": {"name": "Asmara"}, "averageDailyFlights": 0.14, "operators": [{"name": "EgyptAir", "iata": "MS", "icao": "MSR"}]}, {"destination": {"name": "Bilbao"}, "averageDailyFlights": 0.14, "operators": [{"name": "Air Cairo", "iata": "SM", "icao": "MSC"}]}, {"destination": {"name": "Burayda"}, "averageDailyFlights": 0.14, "operators": [{"name": "Nesma Airlines", "iata": "NE", "icao": "NMA"}]}, {"destination": {"name": "Catania"}, "averageDailyFlights": 0.14, "operators": [{"name": "Air Cairo", "iata": "SM", "icao": "MSC"}]}, {"destination": {"name": "Dar es Salaam"}, "averageDailyFlights": 0.14, "operators": [{"name": "EgyptAir", "iata": "MS", "icao": "MSR"}]}, {"destination": {"name": "Lagos"}, "averageDailyFlights": 0.14, "operators": [{"name": "EgyptAir", "iata": "MS", "icao": "MSR"}]}, {"destination": {"name": "Mumbai"}, "averageDailyFlights": 0.14, "operators": [{"name": "EgyptAir", "iata": "MS", "icao": "MSR"}]}, {"destination": {"name": "Nairobi"}, "averageDailyFlights": 0.14, "operators": [{"name": "EgyptAir", "iata": "MS", "icao": "MSR"}]}, {"destination": {"name": "Rasal-Kauman"}, "averageDailyFlights": 0.14, "operators": [{"name": "Air Arabia", "iata": "G9", "icao": "ABY"}]}, {"destination": {"name": "Tashkent"}, "averageDailyFlights": 0.14, "operators": [{"name": "FlyEgypt", "iata": "FT", "icao": "FEG"}]}, {"destination": {"name": "Valencia"}, "averageDailyFlights": 0.14, "operators": [{"name": "Air Cairo", "iata": "SM", "icao": "MSC"}]}]}