{"routes": [{"destination": {"icao": "HKJK", "iata": "NBO", "name": "Nairobi Jomo Kenyatta", "shortName": "Jomo Kenyatta", "municipalityName": "Nairobi", "location": {"lat": -1.319239, "lon": 36.9278}, "countryCode": "KE"}, "averageDailyFlights": 18.71, "operators": [{"name": "Kenya Airways", "iata": "KQ", "icao": "KQA"}, {"name": "Jambojet Limited", "iata": "JM", "icao": "JMA"}]}, {"destination": {"icao": "HKNW", "iata": "WIL", "name": "Nairobi Wilson", "shortName": "Wilson", "municipalityName": "Nairobi", "location": {"lat": -1.32172, "lon": 36.8148}, "countryCode": "KE"}, "averageDailyFlights": 3.43, "operators": [{"name": "Safarilink", "iata": "F2", "icao": "XLK"}, {"name": "Skyward Express", "iata": "OW", "icao": "SEW"}, {"name": "FlexFlight", "iata": "W2", "icao": "FXT"}]}, {"destination": {"icao": "HTZA", "iata": "ZNZ", "name": "Zanzibar Abeid Amani Karume", "shortName": "Abeid Amani Karume", "municipalityName": "Zanzibar", "location": {"lat": -6.22202, "lon": 39.2249}, "countryCode": "TZ"}, "averageDailyFlights": 1.43, "operators": [{"name": "FlexFlight", "iata": "W2", "icao": "FXT"}, {"name": "Condor", "iata": "DE", "icao": "CFG"}, {"name": "Safarilink", "iata": "F2", "icao": "XLK"}]}, {"destination": {"icao": "HAAB", "iata": "ADD", "name": "Addis Ababa Bole", "shortName": "Bole", "municipalityName": "Addis Ababa", "location": {"lat": 8.97789, "lon": 38.7993}, "countryCode": "ET"}, "averageDailyFlights": 1.14, "operators": [{"name": "Ethiopian Airlines", "iata": "ET", "icao": "ETH"}]}, {"destination": {"icao": "HKEL", "iata": "EDL", "name": "Eldoret ", "shortName": "Eldoret", "municipalityName": "Eldoret", "location": {"lat": 0.404457, "lon": 35.2389}, "countryCode": "KE"}, "averageDailyFlights": 1.14, "operators": [{"name": "Jambojet Limited", "iata": "JM", "icao": "JMA"}]}, {"destination": {"icao": "HKLU", "iata": "LAU", "name": "Lamu Manda Airstrip", "shortName": "Manda Airstrip", "municipalityName": "Lamu", "location": {"lat": -2.252419, "lon": 40.9131}, "countryCode": "KE"}, "averageDailyFlights": 1.14, "operators": [{"name": "Skyward Express", "iata": "OW", "icao": "SEW"}]}, {"destination": {"icao": "OMDB", "iata": "DXB", "name": "Dubai ", "shortName": "Dubai", "municipalityName": "Dubai", "location": {"lat": 25.252798, "lon": 55.3644}, "countryCode": "AE"}, "averageDailyFlights": 0.57, "operators": [{"name": "Kenya Airways", "iata": "KQ", "icao": "KQA"}]}, {"destination": {"icao": "HUEN", "iata": "EBB", "name": "Kampala Entebbe", "shortName": "Entebbe", "municipalityName": "Kampala", "location": {"lat": 0.042385, "lon": 32.4435}, "countryCode": "UG"}, "averageDailyFlights": 0.57, "operators": [{"name": "Uganda Airlines", "iata": "UR"}]}, {"destination": {"icao": "HRYR", "iata": "KGL", "name": "Kigali ", "shortName": "Kigali", "municipalityName": "Kigali", "location": {"lat": -1.968629, "lon": 30.1395}, "countryCode": "RW"}, "averageDailyFlights": 0.43, "operators": [{"name": "RwandAir", "iata": "WB", "icao": "RWD"}]}, {"destination": {"icao": "HKKI", "iata": "KIS", "name": "Kisumu ", "shortName": "Kisumu", "municipalityName": "Kisumu", "location": {"lat": -0.086139, "lon": 34.7289}, "countryCode": "KE"}, "averageDailyFlights": 0.43, "operators": [{"name": "Jambojet Limited", "iata": "JM", "icao": "JMA"}]}, {"destination": {"icao": "VABB", "iata": "BOM", "name": "Mumbai Chhatrapati Shivaji", "shortName": "Chhatrapati Shivaji", "municipalityName": "Mumbai", "location": {"lat": 19.0887, "lon": 72.8679}, "countryCode": "IN"}, "averageDailyFlights": 0.29, "operators": [{"name": "RwandAir", "iata": "WB", "icao": "RWD"}]}, {"destination": {"icao": "HKUK", "iata": "UKA", "name": "Ukunda Airstrip", "shortName": "Airstrip", "municipalityName": "Ukunda", "location": {"lat": -4.29333, "lon": 39.5711}, "countryCode": "KE"}, "averageDailyFlights": 0.29, "operators": [{"name": "Skyward Express", "iata": "OW", "icao": "SEW"}]}]}