{"routes": [{"destination": {"icao": "HECA", "iata": "CAI", "name": "Cairo ", "shortName": "Cairo", "municipalityName": "Cairo", "location": {"lat": 30.1219, "lon": 31.4056}, "countryCode": "EG"}, "averageDailyFlights": 1.43, "operators": [{"name": "EgyptAir", "iata": "MS", "icao": "MSR"}, {"name": "Afriqiyah Airways", "iata": "8U", "icao": "AAW"}]}, {"destination": {"icao": "HEBA", "iata": "HBE", "name": "Alexandria Borg El Arab", "shortName": "Borg El Arab", "municipalityName": "Alexandria", "location": {"lat": 30.9177, "lon": 29.6964}, "countryCode": "EG"}, "averageDailyFlights": 0.29, "operators": [{"name": "Afriqiyah Airways", "iata": "8U", "icao": "AAW"}]}, {"destination": {"icao": "LTFM", "iata": "IST", "name": "Istanbul ", "shortName": "Istanbul", "municipalityName": "Istanbul", "location": {"lat": 41.275276, "lon": 28.751944}, "countryCode": "TR"}, "averageDailyFlights": 0.29, "operators": [{"name": "Afriqiyah Airways", "iata": "8U", "icao": "AAW"}]}, {"destination": {"icao": "HLLM", "iata": "MJI", "name": "Tripoli Mitiga", "shortName": "Mitiga", "municipalityName": "Tripoli", "location": {"lat": 32.8941, "lon": 13.276}, "countryCode": "LY"}, "averageDailyFlights": 0.14, "operators": [{"name": "Afriqiyah Airways", "iata": "8U", "icao": "AAW"}]}, {"destination": {"icao": "DTTA", "iata": "TUN", "name": "Tunis Carthage", "shortName": "Carthage", "municipalityName": "Tunis", "location": {"lat": 36.851, "lon": 10.227199}, "countryCode": "TN"}, "averageDailyFlights": 0.14, "operators": [{"name": "Afriqiyah Airways", "iata": "8U", "icao": "AAW"}]}]}