{"routes": [{"destination": {"icao": "K1G4", "iata": "GCW", "name": "Peach Springs Grand Canyon West", "shortName": "Grand Canyon West", "municipalityName": "Peach Springs", "location": {"lat": 35.9904, "lon": -113.816}, "countryCode": "US"}, "averageDailyFlights": 0.71, "operators": [{"name": "Scenic Airlines", "iata": "YR", "icao": "SCE"}]}, {"destination": {"icao": "KGCN", "iata": "GCN", "name": "Grand Canyon National Park", "shortName": "National Park", "municipalityName": "Grand Canyon", "location": {"lat": 35.9524, "lon": -112.147}, "countryCode": "US"}, "averageDailyFlights": 0.14, "operators": [{"name": "GAJ"}]}, {"destination": {"icao": "KHOU", "iata": "HOU", "name": "Houston William P Hobby", "shortName": "William P Hobby", "municipalityName": "Houston", "location": {"lat": 29.6454, "lon": -95.2789}, "countryCode": "US"}, "averageDailyFlights": 0.14, "operators": [{"name": "CNS"}]}, {"destination": {"icao": "KSBP", "iata": "SBP", "name": "San Luis Obispo San Luis County Regional", "shortName": "San Luis County Regional", "municipalityName": "San Luis Obispo", "location": {"lat": 35.2368, "lon": -120.642}, "countryCode": "US"}, "averageDailyFlights": 0.14, "operators": [{"name": "CNS"}]}, {"destination": {"icao": "KTUS", "iata": "TUS", "name": "Tucson ", "shortName": "Tucson", "municipalityName": "Tucson", "location": {"lat": 32.1161, "lon": -110.941}, "countryCode": "US"}, "averageDailyFlights": 0.14, "operators": [{"name": "CNS"}]}, {"destination": {"icao": "KVNY", "iata": "VNY", "name": "Van Nuys ", "shortName": "Van Nuys", "municipalityName": "Van Nuys", "location": {"lat": 34.2098, "lon": -118.49}, "countryCode": "US"}, "averageDailyFlights": 0.14, "operators": [{"name": "CNS"}]}]}