{"routes": [{"destination": {"icao": "KORD", "iata": "ORD", "name": "Chicago O'Hare", "shortName": "O'Hare", "municipalityName": "Chicago", "location": {"lat": 41.9786, "lon": -87.9048}, "countryCode": "US"}, "averageDailyFlights": 7.86, "operators": [{"name": "United Airlines", "iata": "UA", "icao": "UAL"}, {"name": "American Airlines", "iata": "AA", "icao": "AAL"}, {"name": "Envoy Air", "iata": "MQ", "icao": "ENY"}]}, {"destination": {"icao": "KDEN", "iata": "DEN", "name": "Denver ", "shortName": "Denver", "municipalityName": "Denver", "location": {"lat": 39.8617, "lon": -104.673}, "countryCode": "US"}, "averageDailyFlights": 7.14, "operators": [{"name": "United Airlines", "iata": "UA", "icao": "UAL"}, {"name": "Southwest Airlines", "iata": "WN", "icao": "SWA"}, {"name": "Frontier Airlines", "iata": "F9", "icao": "FFT"}, {"name": "Delta Air Lines", "iata": "DL", "icao": "DAL"}, {"name": "SkyWest Airlines", "iata": "OO", "icao": "SKW"}]}, {"destination": {"icao": "KMSP", "iata": "MSP", "name": "Minneapolis Wold-Chamberlain", "shortName": "Wold-Chamberlain", "municipalityName": "Minneapolis", "location": {"lat": 44.882, "lon": -93.2218}, "countryCode": "US"}, "averageDailyFlights": 3.43, "operators": [{"name": "Delta Air Lines", "iata": "DL", "icao": "DAL"}, {"name": "NetJets Aviation", "iata": "1I", "icao": "EJA"}, {"name": "Sun Country Airlines", "iata": "SY", "icao": "SCX"}]}, {"destination": {"icao": "KDFW", "iata": "DFW", "name": "Dallas-Fort Worth ", "shortName": "Dallas-Fort Worth", "municipalityName": "Dallas-Fort Worth", "location": {"lat": 32.8968, "lon": -97.038}, "countryCode": "US"}, "averageDailyFlights": 3.29, "operators": [{"name": "American Airlines", "iata": "AA", "icao": "AAL"}, {"name": "Envoy Air", "iata": "MQ", "icao": "ENY"}]}, {"destination": {"icao": "KDTW", "iata": "DTW", "name": "Detroit Metropolitan Wayne County", "shortName": "Metropolitan Wayne County", "municipalityName": "Detroit", "location": {"lat": 42.2124, "lon": -83.3534}, "countryCode": "US"}, "averageDailyFlights": 3.29, "operators": [{"name": "Delta Air Lines", "iata": "DL", "icao": "DAL"}]}, {"destination": {"icao": "KDCA", "iata": "DCA", "name": "District of Columbia Ronald Reagan Washington National", "shortName": "Ronald Reagan Washington National", "municipalityName": "District of Columbia", "location": {"lat": 38.8521, "lon": -77.0377}, "countryCode": "US"}, "averageDailyFlights": 3.29, "operators": [{"name": "American Airlines", "iata": "AA", "icao": "AAL"}]}, {"destination": {"icao": "KATL", "iata": "ATL", "name": "Atlanta Hartsfield Jackson", "shortName": "Hartsfield Jackson", "municipalityName": "Atlanta", "location": {"lat": 33.6367, "lon": -84.4281}, "countryCode": "US"}, "averageDailyFlights": 3.14, "operators": [{"name": "Delta Air Lines", "iata": "DL", "icao": "DAL"}]}, {"destination": {"icao": "KSTL", "iata": "STL", "name": "Saint Louis Lambert St Louis", "shortName": "Lambert St Louis", "municipalityName": "Saint Louis", "location": {"lat": 38.7487, "lon": -90.37}, "countryCode": "US"}, "averageDailyFlights": 2.43, "operators": [{"name": "Southwest Airlines", "iata": "WN", "icao": "SWA"}, {"name": "LXJ"}]}, {"destination": {"icao": "KCLT", "iata": "CLT", "name": "Charlotte Douglas", "shortName": "Douglas", "municipalityName": "Charlotte", "location": {"lat": 35.214, "lon": -80.9431}, "countryCode": "US"}, "averageDailyFlights": 2.29, "operators": [{"name": "American Airlines", "iata": "AA", "icao": "AAL"}]}, {"destination": {"icao": "KIAH", "iata": "IAH", "name": "Houston George Bush", "shortName": "George Bush", "municipalityName": "Houston", "location": {"lat": 29.9844, "lon": -95.3414}, "countryCode": "US"}, "averageDailyFlights": 2.29, "operators": [{"name": "Delta Air Lines", "iata": "DL", "icao": "DAL"}, {"name": "United Airlines", "iata": "UA", "icao": "UAL"}]}, {"destination": {"icao": "KPHX", "iata": "PHX", "name": "Phoenix Sky Harbor", "shortName": "Sky Harbor", "municipalityName": "Phoenix", "location": {"lat": 33.4343, "lon": -112.012}, "countryCode": "US"}, "averageDailyFlights": 2.29, "operators": [{"name": "American Airlines", "iata": "AA", "icao": "AAL"}]}, {"destination": {"icao": "KAFW", "iata": "AFW", "name": "Fort Worth Alliance", "shortName": "Alliance", "municipalityName": "Fort Worth", "location": {"lat": 32.9876, "lon": -97.3188}, "countryCode": "US"}, "averageDailyFlights": 1.14, "operators": [{"name": "Silver Airways", "iata": "3M", "icao": "SIL"}]}, {"destination": {"icao": "KLAS", "iata": "LAS", "name": "Las Vegas McCarran", "shortName": "McCarran", "municipalityName": "Las Vegas", "location": {"lat": 36.0801, "lon": -115.152}, "countryCode": "US"}, "averageDailyFlights": 1.0, "operators": [{"name": "Southwest Airlines", "iata": "WN", "icao": "SWA"}, {"name": "Allegiant Air", "iata": "G4", "icao": "AAY"}]}, {"destination": {"icao": "KLGA", "iata": "LGA", "name": "New York La Guardia", "shortName": "La Guardia", "municipalityName": "New York", "location": {"lat": 40.7772, "lon": -73.8726}, "countryCode": "US"}, "averageDailyFlights": 1.0, "operators": [{"name": "Delta Air Lines", "iata": "DL", "icao": "DAL"}]}, {"destination": {"icao": "KAFJ", "iata": "WSG", "name": "District of Columbia Washington County", "shortName": "Washington County", "municipalityName": "District of Columbia", "location": {"lat": 40.1365, "lon": -80.2902}, "countryCode": "US"}, "averageDailyFlights": 0.86, "operators": [{"name": "UWD"}]}, {"destination": {"icao": "KBNA", "iata": "BNA", "name": "Nashville ", "shortName": "Nashville", "municipalityName": "Nashville", "location": {"lat": 36.1245, "lon": -86.6782}, "countryCode": "US"}, "averageDailyFlights": 0.86, "operators": [{"name": "Allegiant Air", "iata": "G4", "icao": "AAY"}, {"name": "JIT"}]}, {"destination": {"icao": "KOMA", "iata": "OMA", "name": "Omaha Eppley Airfield", "shortName": "Eppley Airfield", "municipalityName": "Omaha", "location": {"lat": 41.3032, "lon": -95.8941}, "countryCode": "US"}, "averageDailyFlights": 0.57, "operators": [{"name": "NetJets Aviation", "iata": "1I", "icao": "EJA"}]}, {"destination": {"icao": "KSUX", "iata": "SUX", "name": "Sioux City Sioux Gateway Col. Bud Day Field", "shortName": "Sioux Gateway Col. Bud Day Field", "municipalityName": "Sioux City", "location": {"lat": 42.4026, "lon": -96.3844}, "countryCode": "US"}, "averageDailyFlights": 0.57, "operators": [{"name": "DCM"}, {"name": "NEW"}]}, {"destination": {"icao": "KAUS", "iata": "AUS", "name": "Austin Bergstrom", "shortName": "Bergstrom", "municipalityName": "Austin", "location": {"lat": 30.194498, "lon": -97.6699}, "countryCode": "US"}, "averageDailyFlights": 0.43, "operators": [{"name": "Allegiant Air", "iata": "G4", "icao": "AAY"}]}, {"destination": {"icao": "KBTV", "iata": "BTV", "name": "Burlington ", "shortName": "Burlington", "municipalityName": "Burlington", "location": {"lat": 44.4719, "lon": -73.1533}, "countryCode": "US"}, "averageDailyFlights": 0.43, "operators": [{"name": "YEL"}]}, {"destination": {"icao": "KDVN", "iata": "DVN", "name": "Davenport Municipal", "shortName": "Municipal", "municipalityName": "Davenport", "location": {"lat": 41.6103, "lon": -90.5883}, "countryCode": "US"}, "averageDailyFlights": 0.43, "operators": [{"name": "FRV"}]}, {"destination": {"icao": "KHOU", "iata": "HOU", "name": "Houston William P Hobby", "shortName": "William P Hobby", "municipalityName": "Houston", "location": {"lat": 29.6454, "lon": -95.2789}, "countryCode": "US"}, "averageDailyFlights": 0.43, "operators": [{"name": "Allegiant Air", "iata": "G4", "icao": "AAY"}]}, {"destination": {"icao": "KLNK", "iata": "LNK", "name": "Lincoln ", "shortName": "Lincoln", "municipalityName": "Lincoln", "location": {"lat": 40.851, "lon": -96.7592}, "countryCode": "US"}, "averageDailyFlights": 0.43, "operators": [{"name": "SLH"}]}, {"destination": {"icao": "KEWR", "iata": "EWR", "name": "Newark Liberty", "shortName": "Liberty", "municipalityName": "Newark", "location": {"lat": 40.6925, "lon": -74.1687}, "countryCode": "US"}, "averageDailyFlights": 0.43, "operators": [{"name": "Allegiant Air", "iata": "G4", "icao": "AAY"}]}, {"destination": {"icao": "KPDX", "iata": "PDX", "name": "Portland ", "shortName": "Portland", "municipalityName": "Portland", "location": {"lat": 45.5887, "lon": -122.598}, "countryCode": "US"}, "averageDailyFlights": 0.43, "operators": [{"name": "Allegiant Air", "iata": "G4", "icao": "AAY"}]}, {"destination": {"icao": "KSUS", "iata": "SUS", "name": "Saint Louis Spirit of St Louis", "shortName": "Spirit of St Louis", "municipalityName": "Saint Louis", "location": {"lat": 38.6621, "lon": -90.652}, "countryCode": "US"}, "averageDailyFlights": 0.43, "operators": [{"name": "NetJets Aviation", "iata": "1I", "icao": "EJA"}, {"name": "GTW"}]}, {"destination": {"icao": "KSNA", "iata": "SNA", "name": "Santa Ana John Wayne -Orange County", "shortName": "John Wayne -Orange County", "municipalityName": "Santa Ana", "location": {"lat": 33.6757, "lon": -117.868}, "countryCode": "US"}, "averageDailyFlights": 0.43, "operators": [{"name": "Allegiant Air", "iata": "G4", "icao": "AAY"}]}, {"destination": {"icao": "KHKA", "iata": "HKA", "name": "Blytheville Municipal", "shortName": "Municipal", "municipalityName": "Blytheville", "location": {"lat": 35.9404, "lon": -89.8308}, "countryCode": "US"}, "averageDailyFlights": 0.29, "operators": [{"name": "FTH"}]}, {"destination": {"icao": "KMDW", "iata": "MDW", "name": "Chicago Midway", "shortName": "Midway", "municipalityName": "Chicago", "location": {"lat": 41.786, "lon": -87.7524}, "countryCode": "US"}, "averageDailyFlights": 0.29, "operators": [{"name": "NetJets Aviation", "iata": "1I", "icao": "EJA"}, {"name": "GAJ"}]}, {"destination": {"icao": "KDAL", "iata": "DAL", "name": "Dallas Love Field", "shortName": "Love Field", "municipalityName": "Dallas", "location": {"lat": 32.8471, "lon": -96.8518}, "countryCode": "US"}, "averageDailyFlights": 0.29, "operators": [{"name": "FTD"}, {"name": "LXJ"}]}, {"destination": {"icao": "KAPA", "iata": "APA", "name": "Denver Centennial", "shortName": "Centennial", "municipalityName": "Denver", "location": {"lat": 39.5701, "lon": -104.849}, "countryCode": "US"}, "averageDailyFlights": 0.29, "operators": [{"name": "Libyan Airlines", "iata": "LN", "icao": "LAA"}]}, {"destination": {"icao": "KFLL", "iata": "FLL", "name": "Fort Lauderdale Hollywood", "shortName": "Hollywood", "municipalityName": "Fort Lauderdale", "location": {"lat": 26.0726, "lon": -80.1527}, "countryCode": "US"}, "averageDailyFlights": 0.29, "operators": [{"name": "Allegiant Air", "iata": "G4", "icao": "AAY"}]}, {"destination": {"icao": "KIFA", "iata": "IFA", "name": "Iowa Falls Municipal", "shortName": "Municipal", "municipalityName": "Iowa Falls", "location": {"lat": 42.4708, "lon": -93.27}, "countryCode": "US"}, "averageDailyFlights": 0.29, "operators": [{"name": "DCM"}]}, {"destination": {"icao": "KMKC", "iata": "MKC", "name": "Kansas City Charles B. Wheeler Downtown", "shortName": "Charles B. Wheeler Downtown", "municipalityName": "Kansas City", "location": {"lat": 39.1232, "lon": -94.5928}, "countryCode": "US"}, "averageDailyFlights": 0.29, "operators": [{"name": "NetJets Aviation", "iata": "1I", "icao": "EJA"}]}, {"destination": {"icao": "KSFB", "iata": "SFB", "name": "Orlando Sanford", "shortName": "Sanford", "municipalityName": "Orlando", "location": {"lat": 28.7776, "lon": -81.2375}, "countryCode": "US"}, "averageDailyFlights": 0.29, "operators": [{"name": "Allegiant Air", "iata": "G4", "icao": "AAY"}]}, {"destination": {"icao": "KIWA", "iata": "AZA", "name": "Phoenix -Mesa-Gateway", "shortName": "-Mesa-Gateway", "municipalityName": "Phoenix", "location": {"lat": 33.3078, "lon": -111.655}, "countryCode": "US"}, "averageDailyFlights": 0.29, "operators": [{"name": "Allegiant Air", "iata": "G4", "icao": "AAY"}]}, {"destination": {"icao": "KSAN", "iata": "SAN", "name": "San Diego ", "shortName": "San Diego", "municipalityName": "San Diego", "location": {"lat": 32.7336, "lon": -117.19}, "countryCode": "US"}, "averageDailyFlights": 0.29, "operators": [{"name": "Allegiant Air", "iata": "G4", "icao": "AAY"}]}, {"destination": {"icao": "KSDL", "iata": "SCF", "name": "Scottsdale ", "shortName": "Scottsdale", "municipalityName": "Scottsdale", "location": {"lat": 33.6229, "lon": -111.911}, "countryCode": "US"}, "averageDailyFlights": 0.29, "operators": [{"name": "PXT"}]}, {"destination": {"icao": "KPIE", "iata": "PIE", "name": "St Petersburg-Clearwater St Petersburg Clearwater", "shortName": "St Petersburg Clearwater", "municipalityName": "St Petersburg-Clearwater", "location": {"lat": 27.9102, "lon": -82.6874}, "countryCode": "US"}, "averageDailyFlights": 0.29, "operators": [{"name": "Allegiant Air", "iata": "G4", "icao": "AAY"}]}, {"destination": {"icao": "KTOL", "iata": "TOL", "name": "Toledo Express", "shortName": "Express", "municipalityName": "Toledo", "location": {"lat": 41.5868, "lon": -83.8078}, "countryCode": "US"}, "averageDailyFlights": 0.29, "operators": [{"name": "MVP"}]}, {"destination": {"icao": "KTUS", "iata": "TUS", "name": "Tucson ", "shortName": "Tucson", "municipalityName": "Tucson", "location": {"lat": 32.1161, "lon": -110.941}, "countryCode": "US"}, "averageDailyFlights": 0.29, "operators": [{"name": "Sierra Pacific Airlines", "iata": "SI", "icao": "SPA"}]}, {"destination": {"icao": "KART", "iata": "ART", "name": "Watertown ", "shortName": "Watertown", "municipalityName": "Watertown", "location": {"lat": 43.9919, "lon": -76.0217}, "countryCode": "US"}, "averageDailyFlights": 0.29, "operators": [{"name": "UWD"}]}, {"destination": {"name": "Sharlot Kaunti"}, "averageDailyFlights": 0.29, "operators": [{"name": "Allegiant Air", "iata": "G4", "icao": "AAY"}]}, {"destination": {"icao": "KCMI", "iata": "CMI", "name": "Champaign/Urbana University of Illinois Willard", "shortName": "University of Illinois Willard", "municipalityName": "Champaign/Urbana", "location": {"lat": 40.0392, "lon": -88.2781}, "countryCode": "US"}, "averageDailyFlights": 0.14, "operators": [{"name": "SLH"}]}, {"destination": {"icao": "KCHS", "iata": "CHS", "name": "Charleston Air Force Base-", "shortName": "Air Force Base-", "municipalityName": "Charleston", "location": {"lat": 32.8986, "lon": -80.0405}, "countryCode": "US"}, "averageDailyFlights": 0.14, "operators": [{"name": "TKK"}]}, {"destination": {"icao": "KDPA", "iata": "DPA", "name": "Chicago/West Chicago Dupage", "shortName": "Dupage", "municipalityName": "Chicago/West Chicago", "location": {"lat": 41.9078, "lon": -88.2486}, "countryCode": "US"}, "averageDailyFlights": 0.14, "operators": [{"name": "FRV"}]}, {"destination": {"icao": "KLUK", "iata": "LUK", "name": "Cincinnati Municipal  Lunken Field", "shortName": "Municipal  Lunken Field", "municipalityName": "Cincinnati", "location": {"lat": 39.1033, "lon": -84.4186}, "countryCode": "US"}, "averageDailyFlights": 0.14, "operators": [{"name": "EDG"}]}, {"destination": {"icao": "KCSG", "iata": "CSG", "name": "Columbus Metropolitan", "shortName": "Metropolitan", "municipalityName": "Columbus", "location": {"lat": 32.5163, "lon": -84.9389}, "countryCode": "US"}, "averageDailyFlights": 0.14, "operators": [{"name": "Libyan Airlines", "iata": "LN", "icao": "LAA"}]}, {"destination": {"icao": "KDSM", "iata": "DSM", "name": "Des Moines ", "shortName": "Des Moines", "municipalityName": "Des Moines", "location": {"lat": 41.534, "lon": -93.6631}, "countryCode": "US"}, "averageDailyFlights": 0.14, "operators": [{"name": "Nordwind Airlines", "iata": "N4", "icao": "NWS"}]}, {"destination": {"icao": "KYIP", "iata": "YIP", "name": "Detroit Willow Run", "shortName": "Willow Run", "municipalityName": "Detroit", "location": {"lat": 42.2379, "lon": -83.5304}, "countryCode": "US"}, "averageDailyFlights": 0.14, "operators": [{"name": "NSH"}]}, {"destination": {"icao": "KFNL", "iata": "FNL", "name": "Fort Collins/Loveland Fort Collins Loveland Municipal", "shortName": "Fort Collins Loveland Municipal", "municipalityName": "Fort Collins/Loveland", "location": {"lat": 40.4518, "lon": -105.011}, "countryCode": "US"}, "averageDailyFlights": 0.14, "operators": [{"name": "LXJ"}]}, {"destination": {"icao": "TXKF", "iata": "BDA", "name": "Hamilton L.F. Wade", "shortName": "L.F. Wade", "municipalityName": "Hamilton", "location": {"lat": 32.364, "lon": -64.6787}, "countryCode": "BM"}, "averageDailyFlights": 0.14, "operators": [{"name": "LXJ"}]}, {"destination": {"icao": "KIPL", "iata": "IPL", "name": "Imperial County", "shortName": "County", "municipalityName": "Imperial", "location": {"lat": 32.8342, "lon": -115.579}, "countryCode": "US"}, "averageDailyFlights": 0.14, "operators": [{"name": "NetJets Aviation", "iata": "1I", "icao": "EJA"}]}, {"destination": {"icao": "KGPI", "iata": "FCA", "name": "Kalispell Glacier Park", "shortName": "Glacier Park", "municipalityName": "Kalispell", "location": {"lat": 48.3105, "lon": -114.256}, "countryCode": "US"}, "averageDailyFlights": 0.14, "operators": [{"name": "NOAA"}]}, {"destination": {"icao": "KMHK", "iata": "MHK", "name": "Manhattan Regional", "shortName": "Regional", "municipalityName": "Manhattan", "location": {"lat": 39.141, "lon": -96.6708}, "countryCode": "US"}, "averageDailyFlights": 0.14, "operators": [{"name": "GAJ"}]}, {"destination": {"icao": "KMCW", "iata": "MCW", "name": "Mason City Municipal", "shortName": "Municipal", "municipalityName": "Mason City", "location": {"lat": 43.1578, "lon": -93.3313}, "countryCode": "US"}, "averageDailyFlights": 0.14, "operators": [{"name": "FRV"}]}, {"destination": {"icao": "KFCM", "iata": "FCM", "name": "Minneapolis Flying Cloud", "shortName": "Flying Cloud", "municipalityName": "Minneapolis", "location": {"lat": 44.8272, "lon": -93.4571}, "countryCode": "US"}, "averageDailyFlights": 0.14, "operators": [{"name": "NOAA"}]}, {"destination": {"icao": "KOFK", "iata": "OFK", "name": "Norfolk Karl Stefan Memorial", "shortName": "Karl Stefan Memorial", "municipalityName": "Norfolk", "location": {"lat": 41.9855, "lon": -97.4351}, "countryCode": "US"}, "averageDailyFlights": 0.14, "operators": [{"name": "SLH"}]}, {"destination": {"icao": "KMCO", "iata": "MCO", "name": "Orlando ", "shortName": "Orlando", "municipalityName": "Orlando", "location": {"lat": 28.4294, "lon": -81.309}, "countryCode": "US"}, "averageDailyFlights": 0.14, "operators": [{"name": "Southwest Airlines", "iata": "WN", "icao": "SWA"}]}, {"destination": {"icao": "KPSP", "iata": "PSP", "name": "Palm Springs ", "shortName": "Palm Springs", "municipalityName": "Palm Springs", "location": {"lat": 33.8297, "lon": -116.507}, "countryCode": "US"}, "averageDailyFlights": 0.14, "operators": [{"name": "Allegiant Air", "iata": "G4", "icao": "AAY"}]}, {"destination": {"icao": "KSLC", "iata": "SLC", "name": "Salt Lake City ", "shortName": "Salt Lake City", "municipalityName": "Salt Lake City", "location": {"lat": 40.7884, "lon": -111.978}, "countryCode": "US"}, "averageDailyFlights": 0.14, "operators": [{"name": "FTH"}]}, {"destination": {"icao": "KSFO", "iata": "SFO", "name": "San Francisco ", "shortName": "San Francisco", "municipalityName": "San Francisco", "location": {"lat": 37.619, "lon": -122.375}, "countryCode": "US"}, "averageDailyFlights": 0.14, "operators": [{"name": "NetJets Aviation", "iata": "1I", "icao": "EJA"}]}, {"destination": {"icao": "KSBM", "iata": "SBM", "name": "Sheboygan County Memorial", "shortName": "County Memorial", "municipalityName": "Sheboygan", "location": {"lat": 43.7696, "lon": -87.8514}, "countryCode": "US"}, "averageDailyFlights": 0.14, "operators": [{"name": "NetJets Aviation", "iata": "1I", "icao": "EJA"}]}, {"destination": {"icao": "KSPW", "iata": "SPW", "name": "Spencer Municipal", "shortName": "Municipal", "municipalityName": "Spencer", "location": {"lat": 43.1655, "lon": -95.2028}, "countryCode": "US"}, "averageDailyFlights": 0.14, "operators": [{"name": "FRG"}]}, {"destination": {"icao": "KSUA", "iata": "SUA", "name": "Stuart Witham Field", "shortName": "Witham Field", "municipalityName": "Stuart", "location": {"lat": 27.1817, "lon": -80.2211}, "countryCode": "US"}, "averageDailyFlights": 0.14, "operators": [{"name": "MVP"}]}, {"destination": {"icao": "KFOE", "iata": "FOE", "name": "Topeka Regional  - Forbes Field", "shortName": "Regional  - Forbes Field", "municipalityName": "Topeka", "location": {"lat": 38.9509, "lon": -95.6636}, "countryCode": "US"}, "averageDailyFlights": 0.14, "operators": [{"name": "NSH"}]}, {"destination": {"icao": "CYYZ", "iata": "YYZ", "name": "Toronto Pearson", "shortName": "Pearson", "municipalityName": "Toronto", "location": {"lat": 43.6772, "lon": -79.6306}, "countryCode": "CA"}, "averageDailyFlights": 0.14, "operators": [{"name": "ASP"}]}, {"destination": {"icao": "KVNY", "iata": "VNY", "name": "Van Nuys ", "shortName": "Van Nuys", "municipalityName": "Van Nuys", "location": {"lat": 34.2098, "lon": -118.49}, "countryCode": "US"}, "averageDailyFlights": 0.14, "operators": [{"name": "LXJ"}]}]}