{"routes": [{"destination": {"icao": "KGFK", "iata": "GFK", "name": "Grand Forks ", "shortName": "Grand Forks", "municipalityName": "Grand Forks", "location": {"lat": 47.9493, "lon": -97.1761}, "countryCode": "US"}, "averageDailyFlights": 56.14, "operators": [{"name": "NDU"}, {"name": "Aeroflot", "iata": "SU", "icao": "AFL"}]}, {"destination": {"icao": "KFAR", "iata": "FAR", "name": "Fargo Hector", "shortName": "Hector", "municipalityName": "Fargo", "location": {"lat": 46.9207, "lon": -96.8158}, "countryCode": "US"}, "averageDailyFlights": 6.14, "operators": [{"name": "NDU"}, {"name": "MVK"}, {"name": "Libyan Airlines", "iata": "LN", "icao": "LAA"}]}, {"destination": {"icao": "KTVF", "iata": "TVF", "name": "Thief River Falls Regional", "shortName": "Regional", "municipalityName": "Thief River Falls", "location": {"lat": 48.0657, "lon": -96.185}, "countryCode": "US"}, "averageDailyFlights": 4.71, "operators": [{"name": "NDU"}]}, {"destination": {"icao": "KMSP", "iata": "MSP", "name": "Minneapolis Wold-Chamberlain", "shortName": "Wold-Chamberlain", "municipalityName": "Minneapolis", "location": {"lat": 44.882, "lon": -93.2218}, "countryCode": "US"}, "averageDailyFlights": 3.43, "operators": [{"name": "Delta Air Lines", "iata": "DL", "icao": "DAL"}]}, {"destination": {"icao": "KDVL", "iata": "DVL", "name": "Devils Lake Regional", "shortName": "Regional", "municipalityName": "Devils Lake", "location": {"lat": 48.1142, "lon": -98.9088}, "countryCode": "US"}, "averageDailyFlights": 2.14, "operators": [{"name": "NDU"}, {"name": "Libyan Airlines", "iata": "LN", "icao": "LAA"}]}, {"destination": {"icao": "KBJI", "iata": "BJI", "name": "Bemidji Regional", "shortName": "Regional", "municipalityName": "Bemidji", "location": {"lat": 47.5094, "lon": -94.9337}, "countryCode": "US"}, "averageDailyFlights": 1.71, "operators": [{"name": "NDU"}, {"name": "Libyan Airlines", "iata": "LN", "icao": "LAA"}]}, {"destination": {"icao": "KFFM", "iata": "FFM", "name": "Fergus Falls Municipal  - Einar Mickelson Field", "shortName": "Municipal  - Einar Mickelson Field", "municipalityName": "Fergus Falls", "location": {"lat": 46.2844, "lon": -96.1567}, "countryCode": "US"}, "averageDailyFlights": 1.29, "operators": [{"name": "NDU"}]}, {"destination": {"icao": "KBWP", "iata": "WAH", "name": "Wahpeton Harry Stern", "shortName": "Harry Stern", "municipalityName": "Wahpeton", "location": {"lat": 46.2441, "lon": -96.6074}, "countryCode": "US"}, "averageDailyFlights": 1.0, "operators": [{"name": "NDU"}]}, {"destination": {"icao": "KDTL", "iata": "DTL", "name": "Detroit Lakes - Wething Field", "shortName": "- Wething Field", "municipalityName": "Detroit Lakes", "location": {"lat": 46.8252, "lon": -95.8857}, "countryCode": "US"}, "averageDailyFlights": 0.57, "operators": [{"name": "NDU"}]}, {"destination": {"icao": "KJMS", "iata": "JMS", "name": "Jamestown Regional", "shortName": "Regional", "municipalityName": "Jamestown", "location": {"lat": 46.9297, "lon": -98.6782}, "countryCode": "US"}, "averageDailyFlights": 0.57, "operators": [{"name": "NDU"}]}, {"destination": {"icao": "KBRD", "iata": "BRD", "name": "Brainerd Lakes Regional", "shortName": "Lakes Regional", "municipalityName": "Brainerd", "location": {"lat": 46.3983, "lon": -94.1381}, "countryCode": "US"}, "averageDailyFlights": 0.43, "operators": [{"name": "NDU"}]}, {"destination": {"icao": "KCKN", "iata": "CKN", "name": "Crookston Municipal Kirkwood Field", "shortName": "Municipal Kirkwood Field", "municipalityName": "Crookston", "location": {"lat": 47.8417, "lon": -96.6216}, "countryCode": "US"}, "averageDailyFlights": 0.43, "operators": [{"name": "NDU"}]}, {"destination": {"icao": "KINL", "iata": "INL", "name": "International Falls Falls", "shortName": "Falls", "municipalityName": "International Falls", "location": {"lat": 48.5662, "lon": -93.4031}, "countryCode": "US"}, "averageDailyFlights": 0.43, "operators": [{"name": "NDU"}]}, {"destination": {"icao": "KLAS", "iata": "LAS", "name": "Las Vegas McCarran", "shortName": "McCarran", "municipalityName": "Las Vegas", "location": {"lat": 36.0801, "lon": -115.152}, "countryCode": "US"}, "averageDailyFlights": 0.43, "operators": [{"name": "Allegiant Air", "iata": "G4", "icao": "AAY"}]}, {"destination": {"icao": "KAXN", "iata": "AXN", "name": "Alexandria Chandler Field", "shortName": "Chandler Field", "municipalityName": "Alexandria", "location": {"lat": 45.8663, "lon": -95.3947}, "countryCode": "US"}, "averageDailyFlights": 0.29, "operators": [{"name": "NDU"}]}, {"destination": {"icao": "KBDE", "iata": "BDE", "name": "Baudette ", "shortName": "Baudette", "municipalityName": "Baudette", "location": {"lat": 48.7284, "lon": -94.6122}, "countryCode": "US"}, "averageDailyFlights": 0.29, "operators": [{"name": "NDU"}]}, {"destination": {"icao": "KIWA", "iata": "AZA", "name": "Phoenix -Mesa-Gateway", "shortName": "-Mesa-Gateway", "municipalityName": "Phoenix", "location": {"lat": 33.3078, "lon": -111.655}, "countryCode": "US"}, "averageDailyFlights": 0.29, "operators": [{"name": "Allegiant Air", "iata": "G4", "icao": "AAY"}]}, {"destination": {"icao": "KSTP", "iata": "STP", "name": "St Paul Downtown Holman Field", "shortName": "Downtown Holman Field", "municipalityName": "St Paul", "location": {"lat": 44.9345, "lon": -93.06}, "countryCode": "US"}, "averageDailyFlights": 0.29, "operators": [{"name": "Libyan Airlines", "iata": "LN", "icao": "LAA"}]}, {"destination": {"icao": "KMOT", "iata": "MOT", "name": "Minot ", "shortName": "Minot", "municipalityName": "Minot", "location": {"lat": 48.2594, "lon": -101.28}, "countryCode": "US"}, "averageDailyFlights": 0.14, "operators": [{"name": "NDU"}]}, {"destination": {"icao": "KSFB", "iata": "SFB", "name": "Orlando Sanford", "shortName": "Sanford", "municipalityName": "Orlando", "location": {"lat": 28.7776, "lon": -81.2375}, "countryCode": "US"}, "averageDailyFlights": 0.14, "operators": [{"name": "Allegiant Air", "iata": "G4", "icao": "AAY"}]}, {"destination": {"icao": "KRST", "iata": "RST", "name": "Rochester ", "shortName": "Rochester", "municipalityName": "Rochester", "location": {"lat": 43.9083, "lon": -92.5}, "countryCode": "US"}, "averageDailyFlights": 0.14, "operators": [{"name": "Libyan Airlines", "iata": "LN", "icao": "LAA"}]}, {"destination": {"icao": "KRRT", "iata": "RRT", "name": "Warroad Memorial", "shortName": "Memorial", "municipalityName": "Warroad", "location": {"lat": 48.9414, "lon": -95.3484}, "countryCode": "US"}, "averageDailyFlights": 0.14, "operators": [{"name": "NDU"}]}]}