{"routes": [{"destination": {"icao": "KATL", "iata": "ATL", "name": "Atlanta Hartsfield Jackson", "shortName": "Hartsfield Jackson", "municipalityName": "Atlanta", "location": {"lat": 33.6367, "lon": -84.4281}, "countryCode": "US"}, "averageDailyFlights": 5.14, "operators": [{"name": "Delta Air Lines", "iata": "DL", "icao": "DAL"}]}, {"destination": {"icao": "KCLT", "iata": "CLT", "name": "Charlotte Douglas", "shortName": "Douglas", "municipalityName": "Charlotte", "location": {"lat": 35.214, "lon": -80.9431}, "countryCode": "US"}, "averageDailyFlights": 4.57, "operators": [{"name": "American Airlines", "iata": "AA", "icao": "AAL"}, {"name": "Envoy Air", "iata": "MQ", "icao": "ENY"}, {"name": "MXY"}]}, {"destination": {"icao": "KDAB", "iata": "DAB", "name": "Daytona Beach ", "shortName": "Daytona Beach", "municipalityName": "Daytona Beach", "location": {"lat": 29.1799, "lon": -81.0581}, "countryCode": "US"}, "averageDailyFlights": 1.71, "operators": [{"name": "ERU"}, {"name": "JED"}, {"name": "CXK"}]}, {"destination": {"icao": "KMIA", "iata": "MIA", "name": "Miami ", "shortName": "Miami", "municipalityName": "Miami", "location": {"lat": 25.7932, "lon": -80.2906}, "countryCode": "US"}, "averageDailyFlights": 1.43, "operators": [{"name": "Envoy Air", "iata": "MQ", "icao": "ENY"}, {"name": "GXA"}]}, {"destination": {"icao": "KDFW", "iata": "DFW", "name": "Dallas-Fort Worth ", "shortName": "Dallas-Fort Worth", "municipalityName": "Dallas-Fort Worth", "location": {"lat": 32.8968, "lon": -97.038}, "countryCode": "US"}, "averageDailyFlights": 1.14, "operators": [{"name": "Envoy Air", "iata": "MQ", "icao": "ENY"}, {"name": "American Airlines", "iata": "AA", "icao": "AAL"}]}, {"destination": {"icao": "KCRG", "iata": "CRG", "name": "Jacksonville Executive at Craig", "shortName": "Executive at Craig", "municipalityName": "Jacksonville", "location": {"lat": 30.3363, "lon": -81.5144}, "countryCode": "US"}, "averageDailyFlights": 0.57, "operators": [{"name": "LFA"}, {"name": "RNI"}, {"name": "CXK"}]}, {"destination": {"icao": "KSRQ", "iata": "SRQ", "name": "Sarasota/Bradenton Sarasota Bradenton", "shortName": "Sarasota Bradenton", "municipalityName": "Sarasota/Bradenton", "location": {"lat": 27.3954, "lon": -82.5544}, "countryCode": "US"}, "averageDailyFlights": 0.57, "operators": [{"name": "CNS"}, {"name": "Vuela El Salvador", "iata": "N3", "icao": "VOS"}]}, {"destination": {"icao": "KMCO", "iata": "MCO", "name": "Orlando ", "shortName": "Orlando", "municipalityName": "Orlando", "location": {"lat": 28.4294, "lon": -81.309}, "countryCode": "US"}, "averageDailyFlights": 0.43, "operators": [{"name": "LBQ"}]}, {"destination": {"icao": "KSUA", "iata": "SUA", "name": "Stuart Witham Field", "shortName": "Witham Field", "municipalityName": "Stuart", "location": {"lat": 27.1817, "lon": -80.2211}, "countryCode": "US"}, "averageDailyFlights": 0.43, "operators": [{"name": "Vuela El Salvador", "iata": "N3", "icao": "VOS"}, {"name": "NetJets Aviation", "iata": "1I", "icao": "EJA"}]}, {"destination": {"icao": "KPDK", "iata": "PDK", "name": "Atlanta DeKalb Peachtree", "shortName": "DeKalb Peachtree", "municipalityName": "Atlanta", "location": {"lat": 33.8756, "lon": -84.302}, "countryCode": "US"}, "averageDailyFlights": 0.29, "operators": [{"name": "Bul Air", "iata": "LB", "icao": "BVL"}, {"name": "Libyan Airlines", "iata": "LN", "icao": "LAA"}]}, {"destination": {"icao": "KCHS", "iata": "CHS", "name": "Charleston Air Force Base-", "shortName": "Air Force Base-", "municipalityName": "Charleston", "location": {"lat": 32.8986, "lon": -80.0405}, "countryCode": "US"}, "averageDailyFlights": 0.29, "operators": [{"name": "WSP"}]}, {"destination": {"icao": "KDTS", "iata": "DSI", "name": "Destin Fort Walton Beach", "shortName": "Fort Walton Beach", "municipalityName": "Destin", "location": {"lat": 30.4001, "lon": -86.4715}, "countryCode": "US"}, "averageDailyFlights": 0.29, "operators": [{"name": "Vuela El Salvador", "iata": "N3", "icao": "VOS"}]}, {"destination": {"icao": "KFMY", "iata": "FMY", "name": "Fort Myers Page Field", "shortName": "Page Field", "municipalityName": "Fort Myers", "location": {"lat": 26.5866, "lon": -81.8633}, "countryCode": "US"}, "averageDailyFlights": 0.29, "operators": [{"name": "Libyan Airlines", "iata": "LN", "icao": "LAA"}]}, {"destination": {"icao": "KSDF", "iata": "SDF", "name": "Louisville Standiford Field", "shortName": "Standiford Field", "municipalityName": "Louisville", "location": {"lat": 38.1744, "lon": -85.736}, "countryCode": "US"}, "averageDailyFlights": 0.29, "operators": [{"name": "TMB"}]}, {"destination": {"icao": "KAPF", "iata": "APF", "name": "Naples Municipal", "shortName": "Municipal", "municipalityName": "Naples", "location": {"lat": 26.1526, "lon": -81.7753}, "countryCode": "US"}, "averageDailyFlights": 0.29, "operators": [{"name": "NetJets Aviation", "iata": "1I", "icao": "EJA"}, {"name": "WSP"}]}, {"destination": {"icao": "KORF", "iata": "ORF", "name": "Norfolk ", "shortName": "Norfolk", "municipalityName": "Norfolk", "location": {"lat": 36.8946, "lon": -76.2012}, "countryCode": "US"}, "averageDailyFlights": 0.29, "operators": [{"name": "MXY"}]}, {"destination": {"icao": "KBCT", "iata": "BCT", "name": "Boca Raton ", "shortName": "Boca Raton", "municipalityName": "Boca Raton", "location": {"lat": 26.378498, "lon": -80.1077}, "countryCode": "US"}, "averageDailyFlights": 0.14, "operators": [{"name": "CNS"}]}, {"destination": {"icao": "KCLL", "iata": "CLL", "name": "College Station Easterwood Field", "shortName": "Easterwood Field", "municipalityName": "College Station", "location": {"lat": 30.5886, "lon": -96.3638}, "countryCode": "US"}, "averageDailyFlights": 0.14, "operators": [{"name": "MXY"}]}, {"destination": {"icao": "KDAL", "iata": "DAL", "name": "Dallas Love Field", "shortName": "Love Field", "municipalityName": "Dallas", "location": {"lat": 32.8471, "lon": -96.8518}, "countryCode": "US"}, "averageDailyFlights": 0.14, "operators": [{"name": "Libyan Airlines", "iata": "LN", "icao": "LAA"}]}, {"destination": {"icao": "KFHB", "iata": "FHB", "name": "Fernandina Beach Municipal", "shortName": "Municipal", "municipalityName": "Fernandina Beach", "location": {"lat": 30.6118, "lon": -81.4612}, "countryCode": "US"}, "averageDailyFlights": 0.14, "operators": [{"name": "N2"}]}, {"destination": {"icao": "KHSV", "iata": "HSV", "name": "Huntsville Carl T Jones Field", "shortName": "Carl T Jones Field", "municipalityName": "Huntsville", "location": {"lat": 34.6372, "lon": -86.7751}, "countryCode": "US"}, "averageDailyFlights": 0.14, "operators": [{"name": "EMD"}]}, {"destination": {"icao": "07FA", "iata": "OCA", "name": "Key Largo Ocean Reef Club", "shortName": "Ocean Reef Club", "municipalityName": "Key Largo", "location": {"lat": 25.3254, "lon": -80.2748}, "countryCode": "US"}, "averageDailyFlights": 0.14, "operators": [{"name": "LXJ"}]}, {"destination": {"icao": "KLEX", "iata": "LEX", "name": "Lexington Blue Grass", "shortName": "Blue Grass", "municipalityName": "Lexington", "location": {"lat": 38.0365, "lon": -84.6059}, "countryCode": "US"}, "averageDailyFlights": 0.14, "operators": [{"name": "FRG"}]}, {"destination": {"icao": "KLOU", "iata": "LOU", "name": "Louisville Bowman Field", "shortName": "Bowman Field", "municipalityName": "Louisville", "location": {"lat": 38.228, "lon": -85.6637}, "countryCode": "US"}, "averageDailyFlights": 0.14, "operators": [{"name": "CNS"}]}, {"destination": {"icao": "KOCF", "iata": "OCF", "name": "Ocala - Jim Taylor Field", "shortName": "- Jim Taylor Field", "municipalityName": "Ocala", "location": {"lat": 29.1726, "lon": -82.2242}, "countryCode": "US"}, "averageDailyFlights": 0.14, "operators": [{"name": "RNI"}]}, {"destination": {"icao": "KOGB", "iata": "OGB", "name": "Orangeburg Municipal", "shortName": "Municipal", "municipalityName": "Orangeburg", "location": {"lat": 33.4568, "lon": -80.8595}, "countryCode": "US"}, "averageDailyFlights": 0.14, "operators": [{"name": "CNS"}]}, {"destination": {"icao": "KSFB", "iata": "SFB", "name": "Orlando Sanford", "shortName": "Sanford", "municipalityName": "Orlando", "location": {"lat": 28.7776, "lon": -81.2375}, "countryCode": "US"}, "averageDailyFlights": 0.14, "operators": [{"name": "LFA"}]}, {"destination": {"icao": "KPAH", "iata": "PAH", "name": "Paducah Barkley Regional", "shortName": "Barkley Regional", "municipalityName": "Paducah", "location": {"lat": 37.0608, "lon": -88.7738}, "countryCode": "US"}, "averageDailyFlights": 0.14, "operators": [{"name": "TMB"}]}, {"destination": {"icao": "KPHL", "iata": "PHL", "name": "Philadelphia ", "shortName": "Philadelphia", "municipalityName": "Philadelphia", "location": {"lat": 39.8719, "lon": -75.2411}, "countryCode": "US"}, "averageDailyFlights": 0.14, "operators": [{"name": "GXA"}]}, {"destination": {"icao": "KPVD", "iata": "PVD", "name": "Providence Theodore Francis Green State", "shortName": "Theodore Francis Green State", "municipalityName": "Providence", "location": {"lat": 41.7326, "lon": -71.4204}, "countryCode": "US"}, "averageDailyFlights": 0.14, "operators": [{"name": "NetJets Aviation", "iata": "1I", "icao": "EJA"}]}, {"destination": {"icao": "KSAV", "iata": "SAV", "name": "Savannah Hilton Head", "shortName": "Hilton Head", "municipalityName": "Savannah", "location": {"lat": 32.1276, "lon": -81.2021}, "countryCode": "US"}, "averageDailyFlights": 0.14, "operators": [{"name": "N1"}]}, {"destination": {"icao": "KTUP", "iata": "TUP", "name": "Tupelo Regional", "shortName": "Regional", "municipalityName": "Tupelo", "location": {"lat": 34.2681, "lon": -88.7699}, "countryCode": "US"}, "averageDailyFlights": 0.14, "operators": [{"name": "Swift Air", "iata": "WQ", "icao": "SWQ"}]}, {"destination": {"icao": "KTCL", "iata": "TCL", "name": "Tuscaloosa Regional", "shortName": "Regional", "municipalityName": "Tuscaloosa", "location": {"lat": 33.2206, "lon": -87.6114}, "countryCode": "US"}, "averageDailyFlights": 0.14, "operators": [{"name": "GAJ"}]}, {"destination": {"icao": "KVRB", "iata": "VRB", "name": "Vero Beach Municipal", "shortName": "Municipal", "municipalityName": "Vero Beach", "location": {"lat": 27.6556, "lon": -80.4179}, "countryCode": "US"}, "averageDailyFlights": 0.14, "operators": [{"name": "SFY"}]}, {"destination": {"icao": "KPBI", "iata": "PBI", "name": "West Palm Beach Palm Beach", "shortName": "Palm Beach", "municipalityName": "West Palm Beach", "location": {"lat": 26.6832, "lon": -80.0956}, "countryCode": "US"}, "averageDailyFlights": 0.14, "operators": [{"name": "NetJets Aviation", "iata": "1I", "icao": "EJA"}]}]}