{"routes": [{"destination": {"icao": "KMCO", "iata": "MCO", "name": "Orlando ", "shortName": "Orlando", "municipalityName": "Orlando", "location": {"lat": 28.4294, "lon": -81.309}, "countryCode": "US"}, "averageDailyFlights": 1.43, "operators": [{"name": "VXP"}]}, {"destination": {"icao": "KFLL", "iata": "FLL", "name": "Fort Lauderdale Hollywood", "shortName": "Hollywood", "municipalityName": "Fort Lauderdale", "location": {"lat": 26.0726, "lon": -80.1527}, "countryCode": "US"}, "averageDailyFlights": 1.14, "operators": [{"name": "VXP"}]}, {"destination": {"icao": "KRSW", "iata": "RSW", "name": "Fort Myers Southwest Florida", "shortName": "Southwest Florida", "municipalityName": "Fort Myers", "location": {"lat": 26.5362, "lon": -81.7552}, "countryCode": "US"}, "averageDailyFlights": 1.14, "operators": [{"name": "VXP"}]}, {"destination": {"icao": "KTPA", "iata": "TPA", "name": "Tampa ", "shortName": "Tampa", "municipalityName": "Tampa", "location": {"lat": 27.9755, "lon": -82.5332}, "countryCode": "US"}, "averageDailyFlights": 1.14, "operators": [{"name": "VXP"}]}, {"destination": {"icao": "KPBI", "iata": "PBI", "name": "West Palm Beach Palm Beach", "shortName": "Palm Beach", "municipalityName": "West Palm Beach", "location": {"lat": 26.6832, "lon": -80.0956}, "countryCode": "US"}, "averageDailyFlights": 1.14, "operators": [{"name": "VXP"}, {"name": "LXJ"}]}, {"destination": {"icao": "KSRQ", "iata": "SRQ", "name": "Sarasota/Bradenton Sarasota Bradenton", "shortName": "Sarasota Bradenton", "municipalityName": "Sarasota/Bradenton", "location": {"lat": 27.3954, "lon": -82.5544}, "countryCode": "US"}, "averageDailyFlights": 1.0, "operators": [{"name": "VXP"}]}, {"destination": {"icao": "KRDU", "iata": "RDU", "name": "Raleigh/Durham Raleigh Durham", "shortName": "Raleigh Durham", "municipalityName": "Raleigh/Durham", "location": {"lat": 35.8776, "lon": -78.7875}, "countryCode": "US"}, "averageDailyFlights": 0.86, "operators": [{"name": "VXP"}, {"name": "LXJ"}]}, {"destination": {"icao": "KTEB", "iata": "TEB", "name": "Teterboro ", "shortName": "Teterboro", "municipalityName": "Teterboro", "location": {"lat": 40.8501, "lon": -74.0608}, "countryCode": "US"}, "averageDailyFlights": 0.86, "operators": [{"name": "Libyan Airlines", "iata": "LN", "icao": "LAA"}, {"name": "NetJets Aviation", "iata": "1I", "icao": "EJA"}]}, {"destination": {"icao": "KBNA", "iata": "BNA", "name": "Nashville ", "shortName": "Nashville", "municipalityName": "Nashville", "location": {"lat": 36.1245, "lon": -86.6782}, "countryCode": "US"}, "averageDailyFlights": 0.71, "operators": [{"name": "VXP"}]}, {"destination": {"icao": "KCHS", "iata": "CHS", "name": "Charleston Air Force Base-", "shortName": "Air Force Base-", "municipalityName": "Charleston", "location": {"lat": 32.8986, "lon": -80.0405}, "countryCode": "US"}, "averageDailyFlights": 0.57, "operators": [{"name": "VXP"}]}, {"destination": {"icao": "KLNS", "iata": "LNS", "name": "Lancaster ", "shortName": "Lancaster", "municipalityName": "Lancaster", "location": {"lat": 40.1217, "lon": -76.2961}, "countryCode": "US"}, "averageDailyFlights": 0.43, "operators": [{"name": "WSP"}]}, {"destination": {"icao": "KMYR", "iata": "MYR", "name": "Myrtle Beach ", "shortName": "Myrtle Beach", "municipalityName": "Myrtle Beach", "location": {"lat": 33.6797, "lon": -78.9283}, "countryCode": "US"}, "averageDailyFlights": 0.43, "operators": [{"name": "VXP"}]}, {"destination": {"icao": "KBWI", "iata": "BWI", "name": "Baltimore Washington  Thurgood Marshall", "shortName": "Washington  Thurgood Marshall", "municipalityName": "Baltimore", "location": {"lat": 39.1754, "lon": -76.6683}, "countryCode": "US"}, "averageDailyFlights": 0.29, "operators": [{"name": "VXP"}]}, {"destination": {"icao": "CYHZ", "iata": "YHZ", "name": "Halifax Stanfield", "shortName": "Stanfield", "municipalityName": "Halifax", "location": {"lat": 44.8808, "lon": -63.5086}, "countryCode": "CA"}, "averageDailyFlights": 0.29, "operators": [{"name": "EDG"}]}, {"destination": {"icao": "KLWS", "iata": "LWS", "name": "Lewiston Nez Perce County", "shortName": "Nez Perce County", "municipalityName": "Lewiston", "location": {"lat": 46.3745, "lon": -117.015}, "countryCode": "US"}, "averageDailyFlights": 0.29, "operators": [{"name": "WMN"}]}, {"destination": {"icao": "KSAV", "iata": "SAV", "name": "Savannah Hilton Head", "shortName": "Hilton Head", "municipalityName": "Savannah", "location": {"lat": 32.1276, "lon": -81.2021}, "countryCode": "US"}, "averageDailyFlights": 0.29, "operators": [{"name": "VXP"}]}, {"destination": {"icao": "KILM", "iata": "ILM", "name": "Wilmington ", "shortName": "Wilmington", "municipalityName": "Wilmington", "location": {"lat": 34.2706, "lon": -77.9026}, "countryCode": "US"}, "averageDailyFlights": 0.29, "operators": [{"name": "VXP"}]}, {"destination": {"icao": "KBED", "iata": "BED", "name": "Bedford Laurence G Hanscom Field", "shortName": "Laurence G Hanscom Field", "municipalityName": "Bedford", "location": {"lat": 42.47, "lon": -71.289}, "countryCode": "US"}, "averageDailyFlights": 0.14, "operators": [{"name": "NetJets Aviation", "iata": "1I", "icao": "EJA"}]}, {"destination": {"icao": "KBLM", "iata": "BLM", "name": "Belmar/Farmingdale Monmouth Executive", "shortName": "Monmouth Executive", "municipalityName": "Belmar/Farmingdale", "location": {"lat": 40.1869, "lon": -74.1249}, "countryCode": "US"}, "averageDailyFlights": 0.14, "operators": [{"name": "LXJ"}]}, {"destination": {"icao": "KBDR", "iata": "BDR", "name": "Bridgeport Igor I Sikorsky Memorial", "shortName": "Igor I Sikorsky Memorial", "municipalityName": "Bridgeport", "location": {"lat": 41.1635, "lon": -73.1262}, "countryCode": "US"}, "averageDailyFlights": 0.14, "operators": [{"name": "NetJets Aviation", "iata": "1I", "icao": "EJA"}]}, {"destination": {"icao": "KCGF", "iata": "CGF", "name": "Cleveland Cuyahoga County", "shortName": "Cuyahoga County", "municipalityName": "Cleveland", "location": {"lat": 41.5651, "lon": -81.4864}, "countryCode": "US"}, "averageDailyFlights": 0.14, "operators": [{"name": "ERY"}]}, {"destination": {"icao": "KOSU", "iata": "OSU", "name": "Columbus Ohio State University", "shortName": "Ohio State University", "municipalityName": "Columbus", "location": {"lat": 40.0798, "lon": -83.073}, "countryCode": "US"}, "averageDailyFlights": 0.14, "operators": [{"name": "Kabo Air", "iata": "N9", "icao": "QNK"}]}, {"destination": {"icao": "KDAN", "iata": "DAN", "name": "Danville Regional", "shortName": "Regional", "municipalityName": "Danville", "location": {"lat": 36.5729, "lon": -79.3361}, "countryCode": "US"}, "averageDailyFlights": 0.14, "operators": [{"name": "WSP"}]}, {"destination": {"icao": "KDSM", "iata": "DSM", "name": "Des Moines ", "shortName": "Des Moines", "municipalityName": "Des Moines", "location": {"lat": 41.534, "lon": -93.6631}, "countryCode": "US"}, "averageDailyFlights": 0.14, "operators": [{"name": "JIT"}]}, {"destination": {"icao": "KYIP", "iata": "YIP", "name": "Detroit Willow Run", "shortName": "Willow Run", "municipalityName": "Detroit", "location": {"lat": 42.2379, "lon": -83.5304}, "countryCode": "US"}, "averageDailyFlights": 0.14, "operators": [{"name": "DCM"}]}, {"destination": {"icao": "KFXE", "iata": "FXE", "name": "Fort Lauderdale Executive", "shortName": "Executive", "municipalityName": "Fort Lauderdale", "location": {"lat": 26.197298, "lon": -80.1707}, "countryCode": "US"}, "averageDailyFlights": 0.14, "operators": [{"name": "EJM"}]}, {"destination": {"icao": "KHOU", "iata": "HOU", "name": "Houston William P Hobby", "shortName": "William P Hobby", "municipalityName": "Houston", "location": {"lat": 29.6454, "lon": -95.2789}, "countryCode": "US"}, "averageDailyFlights": 0.14, "operators": [{"name": "CWG"}]}, {"destination": {"icao": "KEWR", "iata": "EWR", "name": "Newark Liberty", "shortName": "Liberty", "municipalityName": "Newark", "location": {"lat": 40.6925, "lon": -74.1687}, "countryCode": "US"}, "averageDailyFlights": 0.14, "operators": [{"name": "NetJets Aviation", "iata": "1I", "icao": "EJA"}]}, {"destination": {"icao": "KSWF", "iata": "SWF", "name": "Newburgh Stewart", "shortName": "Stewart", "municipalityName": "Newburgh", "location": {"lat": 41.5041, "lon": -74.1048}, "countryCode": "US"}, "averageDailyFlights": 0.14, "operators": [{"name": "DPJ"}]}, {"destination": {"icao": "KPWM", "iata": "PWM", "name": "Portland Jetport", "shortName": "Jetport", "municipalityName": "Portland", "location": {"lat": 43.6462, "lon": -70.3093}, "countryCode": "US"}, "averageDailyFlights": 0.14, "operators": [{"name": "TESTEA"}]}, {"destination": {"icao": "KPVD", "iata": "PVD", "name": "Providence Theodore Francis Green State", "shortName": "Theodore Francis Green State", "municipalityName": "Providence", "location": {"lat": 41.7326, "lon": -71.4204}, "countryCode": "US"}, "averageDailyFlights": 0.14, "operators": [{"name": "VXP"}]}, {"destination": {"icao": "KSLC", "iata": "SLC", "name": "Salt Lake City ", "shortName": "Salt Lake City", "municipalityName": "Salt Lake City", "location": {"lat": 40.7884, "lon": -111.978}, "countryCode": "US"}, "averageDailyFlights": 0.14, "operators": [{"name": "KOW"}]}, {"destination": {"icao": "KSYR", "iata": "SYR", "name": "Syracuse Hancock", "shortName": "Hancock", "municipalityName": "Syracuse", "location": {"lat": 43.1112, "lon": -76.1063}, "countryCode": "US"}, "averageDailyFlights": 0.14, "operators": [{"name": "CNS"}]}, {"destination": {"icao": "KTTN", "iata": "TTN", "name": "Trenton Mercer", "shortName": "Mercer", "municipalityName": "Trenton", "location": {"lat": 40.2767, "lon": -74.8135}, "countryCode": "US"}, "averageDailyFlights": 0.14, "operators": [{"name": "XOJ"}]}, {"destination": {"icao": "KHPN", "iata": "HPN", "name": "White Plains Westchester County", "shortName": "Westchester County", "municipalityName": "White Plains", "location": {"lat": 41.067, "lon": -73.7076}, "countryCode": "US"}, "averageDailyFlights": 0.14, "operators": [{"name": "NetJets Aviation", "iata": "1I", "icao": "EJA"}]}]}