{"routes": [{"destination": {"icao": "KAGC", "iata": "AGC", "name": "Pittsburgh Allegheny County", "shortName": "Allegheny County", "municipalityName": "Pittsburgh", "location": {"lat": 40.3544, "lon": -79.9302}, "countryCode": "US"}, "averageDailyFlights": 1.14, "operators": [{"name": "LBQ"}]}, {"destination": {"icao": "KPIE", "iata": "PIE", "name": "St Petersburg-Clearwater St Petersburg Clearwater", "shortName": "St Petersburg Clearwater", "municipalityName": "St Petersburg-Clearwater", "location": {"lat": 27.9102, "lon": -82.6874}, "countryCode": "US"}, "averageDailyFlights": 0.43, "operators": [{"name": "Allegiant Air", "iata": "G4", "icao": "AAY"}]}, {"destination": {"icao": "KBDR", "iata": "BDR", "name": "Bridgeport Igor I Sikorsky Memorial", "shortName": "Igor I Sikorsky Memorial", "municipalityName": "Bridgeport", "location": {"lat": 41.1635, "lon": -73.1262}, "countryCode": "US"}, "averageDailyFlights": 0.29, "operators": [{"name": "FTH"}, {"name": "GAJ"}]}, {"destination": {"icao": "KGLR", "iata": "GLR", "name": "Gaylord Regional", "shortName": "Regional", "municipalityName": "Gaylord", "location": {"lat": 45.0135, "lon": -84.7036}, "countryCode": "US"}, "averageDailyFlights": 0.29, "operators": [{"name": "NKT"}]}, {"destination": {"icao": "KSFB", "iata": "SFB", "name": "Orlando Sanford", "shortName": "Sanford", "municipalityName": "Orlando", "location": {"lat": 28.7776, "lon": -81.2375}, "countryCode": "US"}, "averageDailyFlights": 0.29, "operators": [{"name": "Allegiant Air", "iata": "G4", "icao": "AAY"}]}, {"destination": {"icao": "KBED", "iata": "BED", "name": "Bedford Laurence G Hanscom Field", "shortName": "Laurence G Hanscom Field", "municipalityName": "Bedford", "location": {"lat": 42.47, "lon": -71.289}, "countryCode": "US"}, "averageDailyFlights": 0.14, "operators": [{"name": "CNS"}]}, {"destination": {"icao": "KBUF", "iata": "BUF", "name": "Buffalo Niagara", "shortName": "Niagara", "municipalityName": "Buffalo", "location": {"lat": 42.9405, "lon": -78.7322}, "countryCode": "US"}, "averageDailyFlights": 0.14, "operators": [{"name": "GAJ"}]}, {"destination": {"icao": "KYIP", "iata": "YIP", "name": "Detroit Willow Run", "shortName": "Willow Run", "municipalityName": "Detroit", "location": {"lat": 42.2379, "lon": -83.5304}, "countryCode": "US"}, "averageDailyFlights": 0.14, "operators": [{"name": "USA Jet Airlines", "iata": "UJ", "icao": "JUS"}]}, {"destination": {"icao": "KLRD", "iata": "LRD", "name": "Laredo ", "shortName": "Laredo", "municipalityName": "Laredo", "location": {"lat": 27.5438, "lon": -99.4616}, "countryCode": "US"}, "averageDailyFlights": 0.14, "operators": [{"name": "USA Jet Airlines", "iata": "UJ", "icao": "JUS"}]}, {"destination": {"icao": "KSCH", "iata": "SCH", "name": "Schenectady County", "shortName": "County", "municipalityName": "Schenectady", "location": {"lat": 42.8525, "lon": -73.9289}, "countryCode": "US"}, "averageDailyFlights": 0.14, "operators": [{"name": "MJS"}]}, {"destination": {"icao": "KBFI", "iata": "BFI", "name": "Seattle Boeing Field King County", "shortName": "Boeing Field King County", "municipalityName": "Seattle", "location": {"lat": 47.53, "lon": -122.302}, "countryCode": "US"}, "averageDailyFlights": 0.14, "operators": [{"name": "NetJets Aviation", "iata": "1I", "icao": "EJA"}]}, {"destination": {"icao": "KHPN", "iata": "HPN", "name": "White Plains Westchester County", "shortName": "Westchester County", "municipalityName": "White Plains", "location": {"lat": 41.067, "lon": -73.7076}, "countryCode": "US"}, "averageDailyFlights": 0.14, "operators": [{"name": "Vuela El Salvador", "iata": "N3", "icao": "VOS"}]}, {"destination": {"name": "Sharlot Kaunti"}, "averageDailyFlights": 0.14, "operators": [{"name": "Allegiant Air", "iata": "G4", "icao": "AAY"}]}]}