{"routes": [{"destination": {"icao": "KFAR", "iata": "FAR", "name": "Fargo Hector", "shortName": "Hector", "municipalityName": "Fargo", "location": {"lat": 46.9207, "lon": -96.8158}, "countryCode": "US"}, "averageDailyFlights": 2.29, "operators": [{"name": "Bemidji Aviation", "iata": "CH", "icao": "BMJ"}, {"name": "NDU"}, {"name": "Libyan Airlines", "iata": "LN", "icao": "LAA"}]}, {"destination": {"icao": "KDVL", "iata": "DVL", "name": "Devils Lake Regional", "shortName": "Regional", "municipalityName": "Devils Lake", "location": {"lat": 48.1142, "lon": -98.9088}, "countryCode": "US"}, "averageDailyFlights": 1.43, "operators": [{"name": "SkyWest Airlines", "iata": "OO", "icao": "SKW"}, {"name": "NDU"}]}, {"destination": {"icao": "KGFK", "iata": "GFK", "name": "Grand Forks ", "shortName": "Grand Forks", "municipalityName": "Grand Forks", "location": {"lat": 47.9493, "lon": -97.1761}, "countryCode": "US"}, "averageDailyFlights": 1.29, "operators": [{"name": "NDU"}]}, {"destination": {"icao": "KDEN", "iata": "DEN", "name": "Denver ", "shortName": "Denver", "municipalityName": "Denver", "location": {"lat": 39.8617, "lon": -104.673}, "countryCode": "US"}, "averageDailyFlights": 1.0, "operators": [{"name": "United Airlines", "iata": "UA", "icao": "UAL"}]}, {"destination": {"icao": "KBKX", "iata": "BKX", "name": "Brookings Regional", "shortName": "Regional", "municipalityName": "Brookings", "location": {"lat": 44.3048, "lon": -96.8169}, "countryCode": "US"}, "averageDailyFlights": 0.14, "operators": [{"name": "NCJ"}]}]}