{"routes": [{"destination": {"icao": "KDFW", "iata": "DFW", "name": "Dallas-Fort Worth ", "shortName": "Dallas-Fort Worth", "municipalityName": "Dallas-Fort Worth", "location": {"lat": 32.8968, "lon": -97.038}, "countryCode": "US"}, "averageDailyFlights": 5.14, "operators": [{"name": "Envoy Air", "iata": "MQ", "icao": "ENY"}, {"name": "United Airlines", "iata": "UA", "icao": "UAL"}, {"name": "American Airlines", "iata": "AA", "icao": "AAL"}, {"name": "SkyWest Airlines", "iata": "OO", "icao": "SKW"}]}, {"destination": {"icao": "KIAH", "iata": "IAH", "name": "Houston George Bush", "shortName": "George Bush", "municipalityName": "Houston", "location": {"lat": 29.9844, "lon": -95.3414}, "countryCode": "US"}, "averageDailyFlights": 4.0, "operators": [{"name": "United Airlines", "iata": "UA", "icao": "UAL"}]}, {"destination": {"icao": "KATL", "iata": "ATL", "name": "Atlanta Hartsfield Jackson", "shortName": "Hartsfield Jackson", "municipalityName": "Atlanta", "location": {"lat": 33.6367, "lon": -84.4281}, "countryCode": "US"}, "averageDailyFlights": 3.43, "operators": [{"name": "Delta Air Lines", "iata": "DL", "icao": "DAL"}]}, {"destination": {"icao": "KCLT", "iata": "CLT", "name": "Charlotte Douglas", "shortName": "Douglas", "municipalityName": "Charlotte", "location": {"lat": 35.214, "lon": -80.9431}, "countryCode": "US"}, "averageDailyFlights": 1.29, "operators": [{"name": "American Airlines", "iata": "AA", "icao": "AAL"}]}, {"destination": {"icao": "KESF", "iata": "ESF", "name": "Alexandria Esler Regional", "shortName": "Esler Regional", "municipalityName": "Alexandria", "location": {"lat": 31.3949, "lon": -92.2958}, "countryCode": "US"}, "averageDailyFlights": 0.29, "operators": [{"name": "DCM"}]}, {"destination": {"icao": "KBHM", "iata": "BHM", "name": "Birmingham -Shuttlesworth", "shortName": "-Shuttlesworth", "municipalityName": "Birmingham", "location": {"lat": 33.5629, "lon": -86.7535}, "countryCode": "US"}, "averageDailyFlights": 0.29, "operators": [{"name": "OLV"}]}, {"destination": {"icao": "MBPV", "iata": "PLS", "name": "Providenciales Island Providenciales", "shortName": "Providenciales", "municipalityName": "Providenciales Island", "location": {"lat": 21.7736, "lon": -72.2659}, "countryCode": "TC"}, "averageDailyFlights": 0.29, "operators": [{"name": "HER"}]}, {"destination": {"icao": "KSHV", "iata": "SHV", "name": "Shreveport Regional", "shortName": "Regional", "municipalityName": "Shreveport", "location": {"lat": 32.4466, "lon": -93.8256}, "countryCode": "US"}, "averageDailyFlights": 0.29, "operators": [{"name": "DCM"}]}, {"destination": {"icao": "KAVL", "iata": "AVL", "name": "Asheville Regional", "shortName": "Regional", "municipalityName": "Asheville", "location": {"lat": 35.4362, "lon": -82.5418}, "countryCode": "US"}, "averageDailyFlights": 0.14, "operators": [{"name": "DRL"}]}, {"destination": {"icao": "KBHB", "iata": "BHB", "name": "Bar Harbor Hancock County-", "shortName": "Hancock County-", "municipalityName": "Bar Harbor", "location": {"lat": 44.45, "lon": -68.3615}, "countryCode": "US"}, "averageDailyFlights": 0.14, "operators": [{"name": "FTH"}]}, {"destination": {"icao": "KDAL", "iata": "DAL", "name": "Dallas Love Field", "shortName": "Love Field", "municipalityName": "Dallas", "location": {"lat": 32.8471, "lon": -96.8518}, "countryCode": "US"}, "averageDailyFlights": 0.14, "operators": [{"name": "DRL"}]}, {"destination": {"icao": "KDTS", "iata": "DSI", "name": "Destin Fort Walton Beach", "shortName": "Fort Walton Beach", "municipalityName": "Destin", "location": {"lat": 30.4001, "lon": -86.4715}, "countryCode": "US"}, "averageDailyFlights": 0.14, "operators": [{"name": "GAJ"}]}, {"destination": {"icao": "KIAD", "iata": "IAD", "name": "District of Columbia Washington Dulles", "shortName": "Washington Dulles", "municipalityName": "District of Columbia", "location": {"lat": 38.9445, "lon": -77.4558}, "countryCode": "US"}, "averageDailyFlights": 0.14, "operators": [{"name": "LXJ"}]}, {"destination": {"icao": "KFLO", "iata": "FLO", "name": "Florence Regional", "shortName": "Regional", "municipalityName": "Florence", "location": {"lat": 34.1854, "lon": -79.7239}, "countryCode": "US"}, "averageDailyFlights": 0.14, "operators": [{"name": "FTH"}]}, {"destination": {"icao": "KGPT", "iata": "GPT", "name": "Gulfport Biloxi", "shortName": "Biloxi", "municipalityName": "Gulfport", "location": {"lat": 30.4073, "lon": -89.0701}, "countryCode": "US"}, "averageDailyFlights": 0.14, "operators": [{"name": "United Airlines", "iata": "UA", "icao": "UAL"}]}, {"destination": {"icao": "KHOU", "iata": "HOU", "name": "Houston William P Hobby", "shortName": "William P Hobby", "municipalityName": "Houston", "location": {"lat": 29.6454, "lon": -95.2789}, "countryCode": "US"}, "averageDailyFlights": 0.14, "operators": [{"name": "EJM"}]}, {"destination": {"icao": "KMEM", "iata": "MEM", "name": "Memphis ", "shortName": "Memphis", "municipalityName": "Memphis", "location": {"lat": 35.0424, "lon": -89.9767}, "countryCode": "US"}, "averageDailyFlights": 0.14, "operators": [{"name": "DPJ"}]}, {"destination": {"icao": "KPHL", "iata": "PHL", "name": "Philadelphia ", "shortName": "Philadelphia", "municipalityName": "Philadelphia", "location": {"lat": 39.8719, "lon": -75.2411}, "countryCode": "US"}, "averageDailyFlights": 0.14, "operators": [{"name": "OKC"}]}, {"destination": {"icao": "KRSN", "iata": "RSN", "name": "Ruston Regional", "shortName": "Regional", "municipalityName": "Ruston", "location": {"lat": 32.5144, "lon": -92.5917}, "countryCode": "US"}, "averageDailyFlights": 0.14, "operators": [{"name": "NetJets Aviation", "iata": "1I", "icao": "EJA"}]}]}