{"routes": [{"destination": {"icao": "KDEN", "iata": "DEN", "name": "Denver ", "shortName": "Denver", "municipalityName": "Denver", "location": {"lat": 39.8617, "lon": -104.673}, "countryCode": "US"}, "averageDailyFlights": 3.57, "operators": [{"name": "United Airlines", "iata": "UA", "icao": "UAL"}, {"name": "Southwest Airlines", "iata": "WN", "icao": "SWA"}, {"name": "Denver Air Connection", "iata": "KG", "icao": "LYM"}]}, {"destination": {"icao": "KDFW", "iata": "DFW", "name": "Dallas-Fort Worth ", "shortName": "Dallas-Fort Worth", "municipalityName": "Dallas-Fort Worth", "location": {"lat": 32.8968, "lon": -97.038}, "countryCode": "US"}, "averageDailyFlights": 1.3, "operators": [{"name": "American Airlines", "iata": "AA", "icao": "AAL"}, {"name": "Envoy Air", "iata": "MQ", "icao": "ENY"}]}, {"destination": {"icao": "KLAS", "iata": "LAS", "name": "Las Vegas McCarran", "shortName": "McCarran", "municipalityName": "Las Vegas", "location": {"lat": 36.0801, "lon": -115.152}, "countryCode": "US"}, "averageDailyFlights": 0.43, "operators": [{"name": "TIV"}]}, {"destination": {"icao": "KDAL", "iata": "DAL", "name": "Dallas Love Field", "shortName": "Love Field", "municipalityName": "Dallas", "location": {"lat": 32.8471, "lon": -96.8518}, "countryCode": "US"}, "averageDailyFlights": 0.29, "operators": [{"name": "FFL"}]}, {"destination": {"icao": "KRWF", "iata": "RWF", "name": "Redwood Falls Municipal", "shortName": "Municipal", "municipalityName": "Redwood Falls", "location": {"lat": 44.5472, "lon": -95.0823}, "countryCode": "US"}, "averageDailyFlights": 0.29, "operators": [{"name": "Nordwind Airlines", "iata": "N4", "icao": "NWS"}]}, {"destination": {"icao": "KAPA", "iata": "APA", "name": "Denver Centennial", "shortName": "Centennial", "municipalityName": "Denver", "location": {"lat": 39.5701, "lon": -104.849}, "countryCode": "US"}, "averageDailyFlights": 0.14, "operators": [{"name": "IJA"}]}, {"destination": {"icao": "KSAD", "iata": "SAD", "name": "Safford Regional", "shortName": "Regional", "municipalityName": "Safford", "location": {"lat": 32.8548, "lon": -109.635}, "countryCode": "US"}, "averageDailyFlights": 0.14, "operators": [{"name": "NetJets Aviation", "iata": "1I", "icao": "EJA"}]}]}