{"routes": [{"destination": {"icao": "KSFO", "iata": "SFO", "name": "San Francisco ", "shortName": "San Francisco", "municipalityName": "San Francisco", "location": {"lat": 37.619, "lon": -122.375}, "countryCode": "US"}, "averageDailyFlights": 2.29, "operators": [{"name": "MXY"}, {"name": "Breeze Aviation Group, Inc."}, {"name": "ATI", "iata": "8C", "icao": "ATN"}]}, {"destination": {"icao": "PHNL", "iata": "HNL", "name": "Honolulu ", "shortName": "Honolulu", "municipalityName": "Honolulu", "location": {"lat": 21.3187, "lon": -157.922}, "countryCode": "US"}, "averageDailyFlights": 1.29, "operators": [{"name": "ATI", "iata": "8C", "icao": "ATN"}]}, {"destination": {"icao": "KJFK", "iata": "JFK", "name": "New York John F Kennedy", "shortName": "John F Kennedy", "municipalityName": "New York", "location": {"lat": 40.6398, "lon": -73.7789}, "countryCode": "US"}, "averageDailyFlights": 1.29, "operators": [{"name": "ATI", "iata": "8C", "icao": "ATN"}, {"name": "Atlas Air", "iata": "5Y", "icao": "GTI"}]}, {"destination": {"icao": "KAUS", "iata": "AUS", "name": "Austin Bergstrom", "shortName": "Bergstrom", "municipalityName": "Austin", "location": {"lat": 30.194498, "lon": -97.6699}, "countryCode": "US"}, "averageDailyFlights": 1.14, "operators": [{"name": "ATI", "iata": "8C", "icao": "ATN"}]}, {"destination": {"icao": "KCLT", "iata": "CLT", "name": "Charlotte Douglas", "shortName": "Douglas", "municipalityName": "Charlotte", "location": {"lat": 35.214, "lon": -80.9431}, "countryCode": "US"}, "averageDailyFlights": 1.14, "operators": [{"name": "ATI", "iata": "8C", "icao": "ATN"}]}, {"destination": {"icao": "KMSP", "iata": "MSP", "name": "Minneapolis Wold-Chamberlain", "shortName": "Wold-Chamberlain", "municipalityName": "Minneapolis", "location": {"lat": 44.882, "lon": -93.2218}, "countryCode": "US"}, "averageDailyFlights": 1.14, "operators": [{"name": "Sun Country Airlines", "iata": "SY", "icao": "SCX"}]}, {"destination": {"icao": "KSEA", "iata": "SEA", "name": "Seattle Tacoma", "shortName": "Tacoma", "municipalityName": "Seattle", "location": {"lat": 47.449, "lon": -122.309}, "countryCode": "US"}, "averageDailyFlights": 1.14, "operators": [{"name": "ATI", "iata": "8C", "icao": "ATN"}]}, {"destination": {"icao": "KLAS", "iata": "LAS", "name": "Las Vegas McCarran", "shortName": "McCarran", "municipalityName": "Las Vegas", "location": {"lat": 36.0801, "lon": -115.152}, "countryCode": "US"}, "averageDailyFlights": 0.57, "operators": [{"name": "MXY"}]}, {"destination": {"icao": "KBDL", "iata": "BDL", "name": "Hartford Bradley", "shortName": "Bradley", "municipalityName": "Hartford", "location": {"lat": 41.9389, "lon": -72.6832}, "countryCode": "US"}, "averageDailyFlights": 0.45, "operators": [{"name": "MXY"}, {"name": "Breeze Aviation Group, Inc."}]}, {"destination": {"icao": "KLAX", "iata": "LAX", "name": "Los Angeles ", "shortName": "Los Angeles", "municipalityName": "Los Angeles", "location": {"lat": 33.9425, "lon": -118.408}, "countryCode": "US"}, "averageDailyFlights": 0.29, "operators": [{"name": "HPJ"}, {"name": "Nolinor", "iata": "N5", "icao": "NRL"}]}, {"destination": {"icao": "KOAK", "iata": "OAK", "name": "Oakland Metropolitan", "shortName": "Metropolitan", "municipalityName": "Oakland", "location": {"lat": 37.7213, "lon": -122.221}, "countryCode": "US"}, "averageDailyFlights": 0.29, "operators": [{"name": "Libyan Airlines", "iata": "LN", "icao": "LAA"}]}, {"destination": {"icao": "CYYZ", "iata": "YYZ", "name": "Toronto Pearson", "shortName": "Pearson", "municipalityName": "Toronto", "location": {"lat": 43.6772, "lon": -79.6306}, "countryCode": "CA"}, "averageDailyFlights": 0.29, "operators": [{"name": "NOJ"}]}, {"destination": {"icao": "KDEN", "iata": "DEN", "name": "Denver ", "shortName": "Denver", "municipalityName": "Denver", "location": {"lat": 39.8617, "lon": -104.673}, "countryCode": "US"}, "averageDailyFlights": 0.14, "operators": [{"name": "ATI", "iata": "8C", "icao": "ATN"}]}, {"destination": {"icao": "KMCI", "iata": "MCI", "name": "Kansas City ", "shortName": "Kansas City", "municipalityName": "Kansas City", "location": {"lat": 39.2976, "lon": -94.7139}, "countryCode": "US"}, "averageDailyFlights": 0.14, "operators": [{"name": "Delta Air Lines", "iata": "DL", "icao": "DAL"}]}, {"destination": {"icao": "KHND", "iata": "HSH", "name": "Las Vegas Henderson Executive", "shortName": "Henderson Executive", "municipalityName": "Las Vegas", "location": {"lat": 35.9728, "lon": -115.134}, "countryCode": "US"}, "averageDailyFlights": 0.14, "operators": [{"name": "PGR"}]}, {"destination": {"icao": "KLVK", "iata": "LVK", "name": "Livermore Municipal", "shortName": "Municipal", "municipalityName": "Livermore", "location": {"lat": 37.6934, "lon": -121.82}, "countryCode": "US"}, "averageDailyFlights": 0.14, "operators": [{"name": "Libyan Airlines", "iata": "LN", "icao": "LAA"}]}, {"destination": {"icao": "MMMY", "iata": "MTY", "name": "Monterrey General Mariano Escobedo", "shortName": "General Mariano Escobedo", "municipalityName": "Monterrey", "location": {"lat": 25.7785, "lon": -100.107}, "countryCode": "MX"}, "averageDailyFlights": 0.14, "operators": [{"name": "Trans Air Congo", "iata": "Q8", "icao": "TSG"}]}, {"destination": {"icao": "KSNA", "iata": "SNA", "name": "Santa Ana John Wayne -Orange County", "shortName": "John Wayne -Orange County", "municipalityName": "Santa Ana", "location": {"lat": 33.6757, "lon": -117.868}, "countryCode": "US"}, "averageDailyFlights": 0.14, "operators": [{"name": "FSY"}]}, {"destination": {"icao": "SLVR", "iata": "VVI", "name": "Santa Cruz de la Sierra Viru Viru", "shortName": "Viru Viru", "municipalityName": "Santa Cruz de la Sierra", "location": {"lat": -17.6448, "lon": -63.1354}, "countryCode": "BO"}, "averageDailyFlights": 0.14, "operators": [{"name": "BoA", "iata": "OB", "icao": "BOV"}]}, {"destination": {"icao": "KSDL", "iata": "SCF", "name": "Scottsdale ", "shortName": "Scottsdale", "municipalityName": "Scottsdale", "location": {"lat": 33.6229, "lon": -111.911}, "countryCode": "US"}, "averageDailyFlights": 0.14, "operators": [{"name": "Libyan Airlines", "iata": "LN", "icao": "LAA"}]}, {"destination": {"icao": "KVCV", "iata": "VCV", "name": "Victorville Southern California Logistics", "shortName": "Southern California Logistics", "municipalityName": "Victorville", "location": {"lat": 34.5975, "lon": -117.383}, "countryCode": "US"}, "averageDailyFlights": 0.14, "operators": [{"name": "REH"}]}, {"destination": {"icao": "KVIS", "iata": "VIS", "name": "Visalia Municipal", "shortName": "Municipal", "municipalityName": "Visalia", "location": {"lat": 36.3187, "lon": -119.393}, "countryCode": "US"}, "averageDailyFlights": 0.14, "operators": [{"name": "TWY"}]}]}