{"routes": [{"destination": {"icao": "KATL", "iata": "ATL", "name": "Atlanta Hartsfield Jackson", "shortName": "Hartsfield Jackson", "municipalityName": "Atlanta", "location": {"lat": 33.6367, "lon": -84.4281}, "countryCode": "US"}, "averageDailyFlights": 2.43, "operators": [{"name": "Delta Air Lines", "iata": "DL", "icao": "DAL"}]}, {"destination": {"icao": "KLZU", "iata": "LZU", "name": "Lawrenceville Gwinnett County Briscoe Field", "shortName": "Gwinnett County Briscoe Field", "municipalityName": "Lawrenceville", "location": {"lat": 33.9781, "lon": -83.9624}, "countryCode": "US"}, "averageDailyFlights": 1.0, "operators": [{"name": "LBQ"}]}, {"destination": {"icao": "KAHN", "iata": "AHN", "name": "Athens Ben Epps", "shortName": "Ben Epps", "municipalityName": "Athens", "location": {"lat": 33.9486, "lon": -83.3263}, "countryCode": "US"}, "averageDailyFlights": 0.29, "operators": [{"name": "GAJ"}]}, {"destination": {"icao": "KGNV", "iata": "GNV", "name": "Gainesville Regional", "shortName": "Regional", "municipalityName": "Gainesville", "location": {"lat": 29.6901, "lon": -82.2718}, "countryCode": "US"}, "averageDailyFlights": 0.14, "operators": [{"name": "JED"}]}, {"destination": {"icao": "KGMU", "iata": "GMU", "name": "Greenville Downtown", "shortName": "Downtown", "municipalityName": "Greenville", "location": {"lat": 34.8479, "lon": -82.35}, "countryCode": "US"}, "averageDailyFlights": 0.14, "operators": [{"name": "EMD"}]}, {"destination": {"icao": "KSAV", "iata": "SAV", "name": "Savannah Hilton Head", "shortName": "Hilton Head", "municipalityName": "Savannah", "location": {"lat": 32.1276, "lon": -81.2021}, "countryCode": "US"}, "averageDailyFlights": 0.14, "operators": [{"name": "GAJ"}]}]}