{"routes": [{"destination": {"icao": "LEMD", "iata": "MAD", "name": "Madrid Adolfo Su\u00e1rez \u2013Barajas", "shortName": "Adolfo Su\u00e1rez \u2013Barajas", "municipalityName": "Madrid", "location": {"lat": 40.4936, "lon": -3.56676}, "countryCode": "ES"}, "averageDailyFlights": 3.14, "operators": [{"name": "Iberia", "iata": "IB", "icao": "IBE"}]}, {"destination": {"icao": "LEZL", "iata": "SVQ", "name": "Seville Sevilla", "shortName": "Sevilla", "municipalityName": "Seville", "location": {"lat": 37.418, "lon": -5.893109}, "countryCode": "ES"}, "averageDailyFlights": 0.71, "operators": [{"name": "AlbaStar", "iata": "AP", "icao": "LAV"}, {"name": "Carpatair", "iata": "V3", "icao": "KRP"}, {"name": "Iberia", "iata": "IB", "icao": "IBE"}, {"name": "Vueling", "iata": "VY", "icao": "VLG"}]}, {"destination": {"icao": "GCLP", "iata": "LPA", "name": "Gran Canaria Island Gran Canaria", "shortName": "Gran Canaria", "municipalityName": "Gran Canaria Island", "location": {"lat": 27.9319, "lon": -15.386599}, "countryCode": "ES"}, "averageDailyFlights": 0.57, "operators": [{"name": "Binter Canarias", "iata": "NT", "icao": "IBB"}]}, {"destination": {"icao": "LEBL", "iata": "BCN", "name": "Barcelona ", "shortName": "Barcelona", "municipalityName": "Barcelona", "location": {"lat": 41.2971, "lon": 2.078459}, "countryCode": "ES"}, "averageDailyFlights": 0.14, "operators": [{"name": "Air Horizont", "iata": "HT", "icao": "HAT"}]}, {"destination": {"icao": "LEPA", "iata": "PMI", "name": "Palma De Mallorca ", "shortName": "Palma De Mallorca", "municipalityName": "Palma De Mallorca", "location": {"lat": 39.5517, "lon": 2.73881}, "countryCode": "ES"}, "averageDailyFlights": 0.14, "operators": [{"name": "Iberia", "iata": "IB", "icao": "IBE"}]}]}