{"routes": [{"destination": {"icao": "LICC", "iata": "CTA", "name": "Catania -Fontanarossa", "shortName": "-Fontanarossa", "municipalityName": "Catania", "location": {"lat": 37.4668, "lon": 15.066399}, "countryCode": "IT"}, "averageDailyFlights": 1.14, "operators": [{"name": "Volotea", "iata": "V7", "icao": "VOE"}, {"name": "Ryanair", "iata": "FR", "icao": "RYR"}]}, {"destination": {"icao": "EGSS", "iata": "STN", "name": "London Stansted", "shortName": "Stansted", "municipalityName": "London", "location": {"lat": 51.885, "lon": 0.234999}, "countryCode": "GB"}, "averageDailyFlights": 1.14, "operators": [{"name": "Ryanair", "iata": "FR", "icao": "RYR"}]}, {"destination": {"icao": "EDDM", "iata": "MUC", "name": "Munich ", "shortName": "Munich", "municipalityName": "Munich", "location": {"lat": 48.3538, "lon": 11.7861}, "countryCode": "DE"}, "averageDailyFlights": 1.14, "operators": [{"name": "Lufthansa", "iata": "LH", "icao": "DLH"}]}, {"destination": {"icao": "LATI", "iata": "TIA", "name": "Tirana Mother Teresa", "shortName": "Mother Teresa", "municipalityName": "Tirana", "location": {"lat": 41.4147, "lon": 19.7206}, "countryCode": "AL"}, "averageDailyFlights": 0.71, "operators": [{"name": "Albawings", "iata": "2B", "icao": "AWT"}, {"name": "Ulendo Airlink", "iata": "W4"}]}, {"destination": {"icao": "EBCI", "iata": "CRL", "name": "Brussels South Charleroi", "shortName": "South Charleroi", "municipalityName": "Brussels", "location": {"lat": 50.4592, "lon": 4.45382}, "countryCode": "BE"}, "averageDailyFlights": 0.43, "operators": [{"name": "Ryanair", "iata": "FR", "icao": "RYR"}]}, {"destination": {"icao": "EPKK", "iata": "KRK", "name": "Krak\u00f3w John Paul II   -Balice", "shortName": "John Paul II   -Balice", "municipalityName": "Krak\u00f3w", "location": {"lat": 50.0777, "lon": 19.7848}, "countryCode": "PL"}, "averageDailyFlights": 0.29, "operators": [{"name": "Ryanair", "iata": "FR", "icao": "RYR"}]}, {"destination": {"icao": "LICJ", "iata": "PMO", "name": "Palermo Falcone\u2013Borsellino", "shortName": "Falcone\u2013Borsellino", "municipalityName": "Palermo", "location": {"lat": 38.176, "lon": 13.090999}, "countryCode": "IT"}, "averageDailyFlights": 0.29, "operators": [{"name": "Volotea", "iata": "V7", "icao": "VOE"}]}, {"destination": {"icao": "EDLV", "iata": "NRN", "name": "Weeze Niederrhein", "shortName": "Niederrhein", "municipalityName": "Weeze", "location": {"lat": 51.6024, "lon": 6.142169}, "countryCode": "DE"}, "averageDailyFlights": 0.29, "operators": [{"name": "Ryanair", "iata": "FR", "icao": "RYR"}]}]}