{"routes": [{"destination": {"icao": "EDDF", "iata": "FRA", "name": "Frankfurt-am-Main ", "shortName": "Frankfurt-am-Main", "municipalityName": "Frankfurt-am-Main", "location": {"lat": 50.0264, "lon": 8.543129}, "countryCode": "DE"}, "averageDailyFlights": 13.43, "operators": [{"name": "Austrian", "iata": "OS", "icao": "AUA"}, {"name": "Lufthansa", "iata": "LH", "icao": "DLH"}]}, {"destination": {"icao": "EDDB", "iata": "BER", "name": "Berlin Brandenburg", "shortName": "Brandenburg", "municipalityName": "Berlin", "location": {"lat": 52.35139, "lon": 13.493889}, "countryCode": "DE"}, "averageDailyFlights": 9.29, "operators": [{"name": "Austrian", "iata": "OS", "icao": "AUA"}]}, {"destination": {"icao": "LFPG", "iata": "CDG", "name": "Paris Charles de Gaulle", "shortName": "Charles de Gaulle", "municipalityName": "Paris", "location": {"lat": 49.0128, "lon": 2.549999}, "countryCode": "FR"}, "averageDailyFlights": 9.29, "operators": [{"name": "Air France", "iata": "AF", "icao": "AFR"}, {"name": "Austrian", "iata": "OS", "icao": "AUA"}]}, {"destination": {"icao": "EHAM", "iata": "AMS", "name": "Amsterdam Schiphol", "shortName": "Schiphol", "municipalityName": "Amsterdam", "location": {"lat": 52.3086, "lon": 4.763889}, "countryCode": "NL"}, "averageDailyFlights": 9.0, "operators": [{"name": "KLM", "iata": "KL", "icao": "KLM"}, {"name": "Austrian", "iata": "OS", "icao": "AUA"}, {"name": "TJS"}, {"name": "NJE"}]}, {"destination": {"icao": "LSZH", "iata": "ZRH", "name": "Zurich Kloten", "shortName": "Kloten", "municipalityName": "Zurich", "location": {"lat": 47.4647, "lon": 8.549169}, "countryCode": "CH"}, "averageDailyFlights": 8.71, "operators": [{"name": "Austrian", "iata": "OS", "icao": "AUA"}]}, {"destination": {"icao": "EGLL", "iata": "LHR", "name": "London Heathrow", "shortName": "Heathrow", "municipalityName": "London", "location": {"lat": 51.4706, "lon": -0.461941}, "countryCode": "GB"}, "averageDailyFlights": 8.57, "operators": [{"name": "British Airways", "iata": "BA", "icao": "BAW"}, {"name": "Austrian", "iata": "OS", "icao": "AUA"}]}, {"destination": {"icao": "EBBR", "iata": "BRU", "name": "Brussels ", "shortName": "Brussels", "municipalityName": "Brussels", "location": {"lat": 50.9014, "lon": 4.484439}, "countryCode": "BE"}, "averageDailyFlights": 8.43, "operators": [{"name": "Austrian", "iata": "OS", "icao": "AUA"}, {"name": "Brussels Airlines", "iata": "SN", "icao": "BEL"}, {"name": "Ethiopian Airlines", "iata": "ET", "icao": "ETH"}]}, {"destination": {"icao": "EDDL", "iata": "DUS", "name": "Duesseldorf D\u00fcsseldorf", "shortName": "D\u00fcsseldorf", "municipalityName": "Duesseldorf", "location": {"lat": 51.2895, "lon": 6.766779}, "countryCode": "DE"}, "averageDailyFlights": 7.86, "operators": [{"name": "Austrian", "iata": "OS", "icao": "AUA"}, {"name": "Eurowings", "iata": "EW", "icao": "EWG"}]}, {"destination": {"icao": "EDDH", "iata": "HAM", "name": "Hamburg ", "shortName": "Hamburg", "municipalityName": "Hamburg", "location": {"lat": 53.6304, "lon": 9.988229}, "countryCode": "DE"}, "averageDailyFlights": 7.43, "operators": [{"name": "Austrian", "iata": "OS", "icao": "AUA"}, {"name": "Eurowings", "iata": "EW", "icao": "EWG"}]}, {"destination": {"icao": "LEBL", "iata": "BCN", "name": "Barcelona ", "shortName": "Barcelona", "municipalityName": "Barcelona", "location": {"lat": 41.2971, "lon": 2.078459}, "countryCode": "ES"}, "averageDailyFlights": 7.29, "operators": [{"name": "Ulendo Airlink", "iata": "W4"}, {"name": "Ryanair", "iata": "FR", "icao": "RYR"}, {"name": "Austrian", "iata": "OS", "icao": "AUA"}, {"name": "Vueling", "iata": "VY", "icao": "VLG"}, {"name": "AHO"}]}, {"destination": {"icao": "LIPZ", "iata": "VCE", "name": "Venice Marco Polo", "shortName": "Marco Polo", "municipalityName": "Venice", "location": {"lat": 45.5053, "lon": 12.3519}, "countryCode": "IT"}, "averageDailyFlights": 6.86, "operators": [{"name": "Ryanair", "iata": "FR", "icao": "RYR"}, {"name": "TJS"}, {"name": "Austrian", "iata": "OS", "icao": "AUA"}]}, {"destination": {"icao": "EDDM", "iata": "MUC", "name": "Munich ", "shortName": "Munich", "municipalityName": "Munich", "location": {"lat": 48.3538, "lon": 11.7861}, "countryCode": "DE"}, "averageDailyFlights": 6.71, "operators": [{"name": "Lufthansa", "iata": "LH", "icao": "DLH"}, {"name": "Austrian", "iata": "OS", "icao": "AUA"}]}, {"destination": {"icao": "LIRF", "iata": "FCO", "name": "Rome Leonardo da Vinci\u2013Fiumicino", "shortName": "Leonardo da Vinci\u2013Fiumicino", "municipalityName": "Rome", "location": {"lat": 41.8045, "lon": 12.2508}, "countryCode": "IT"}, "averageDailyFlights": 6.57, "operators": [{"name": "Ryanair", "iata": "FR", "icao": "RYR"}, {"name": "Ulendo Airlink", "iata": "W4"}, {"name": "Austrian", "iata": "OS", "icao": "AUA"}]}, {"destination": {"icao": "LLBG", "iata": "TLV", "name": "Tel Aviv Yafo Ben Gurion", "shortName": "Ben Gurion", "municipalityName": "Tel Aviv Yafo", "location": {"lat": 32.0114, "lon": 34.8867}, "countryCode": "IL"}, "averageDailyFlights": 6.57, "operators": [{"name": "Austrian", "iata": "OS", "icao": "AUA"}, {"name": "El Al", "iata": "LY", "icao": "ELY"}, {"name": "Ryanair", "iata": "FR", "icao": "RYR"}, {"name": "Wizz Air", "iata": "W6", "icao": "WZZ"}]}, {"destination": {"icao": "EPWA", "iata": "WAW", "name": "Warsaw Chopin", "shortName": "Chopin", "municipalityName": "Warsaw", "location": {"lat": 52.1657, "lon": 20.9671}, "countryCode": "PL"}, "averageDailyFlights": 6.57, "operators": [{"name": "Austrian", "iata": "OS", "icao": "AUA"}, {"name": "LOT - Polish Airlines", "iata": "LO", "icao": "LOT"}]}, {"destination": {"icao": "LIMC", "iata": "MXP", "name": "Milan Malpensa", "shortName": "Malpensa", "municipalityName": "Milan", "location": {"lat": 45.6306, "lon": 8.72811}, "countryCode": "IT"}, "averageDailyFlights": 6.43, "operators": [{"name": "Austrian", "iata": "OS", "icao": "AUA"}, {"name": "Ryanair", "iata": "FR", "icao": "RYR"}]}, {"destination": {"icao": "LEPA", "iata": "PMI", "name": "Palma De Mallorca ", "shortName": "Palma De Mallorca", "municipalityName": "Palma De Mallorca", "location": {"lat": 39.5517, "lon": 2.73881}, "countryCode": "ES"}, "averageDailyFlights": 6.29, "operators": [{"name": "Ryanair", "iata": "FR", "icao": "RYR"}, {"name": "Austrian", "iata": "OS", "icao": "AUA"}, {"name": "Condor", "iata": "DE", "icao": "CFG"}]}, {"destination": {"icao": "LYBE", "iata": "BEG", "name": "Belgrade Nikola Tesla", "shortName": "Nikola Tesla", "municipalityName": "Belgrade", "location": {"lat": 44.8184, "lon": 20.3091}, "countryCode": "RS"}, "averageDailyFlights": 6.0, "operators": [{"name": "Air Serbia", "iata": "JU", "icao": "ASL"}, {"name": "Austrian", "iata": "OS", "icao": "AUA"}]}, {"destination": {"icao": "EDDK", "iata": "CGN", "name": "Cologne Bonn", "shortName": "Bonn", "municipalityName": "Cologne", "location": {"lat": 50.8659, "lon": 7.142739}, "countryCode": "DE"}, "averageDailyFlights": 6.0, "operators": [{"name": "Ryanair", "iata": "FR", "icao": "RYR"}, {"name": "Austrian", "iata": "OS", "icao": "AUA"}, {"name": "Eurowings", "iata": "EW", "icao": "EWG"}]}, {"destination": {"icao": "LROP", "iata": "OTP", "name": "Bucharest Henri Coand\u0103", "shortName": "Henri Coand\u0103", "municipalityName": "Bucharest", "location": {"lat": 44.5722, "lon": 26.1022}, "countryCode": "RO"}, "averageDailyFlights": 5.71, "operators": [{"name": "Austrian", "iata": "OS", "icao": "AUA"}, {"name": "Ryanair", "iata": "FR", "icao": "RYR"}]}, {"destination": {"icao": "EKCH", "iata": "CPH", "name": "Copenhagen Kastrup", "shortName": "Kastrup", "municipalityName": "Copenhagen", "location": {"lat": 55.6179, "lon": 12.656}, "countryCode": "DK"}, "averageDailyFlights": 5.71, "operators": [{"name": "Ryanair", "iata": "FR", "icao": "RYR"}, {"name": "Austrian", "iata": "OS", "icao": "AUA"}]}, {"destination": {"icao": "EDDS", "iata": "STR", "name": "Stuttgart ", "shortName": "Stuttgart", "municipalityName": "Stuttgart", "location": {"lat": 48.6899, "lon": 9.22196}, "countryCode": "DE"}, "averageDailyFlights": 5.43, "operators": [{"name": "Austrian", "iata": "OS", "icao": "AUA"}, {"name": "Eurowings", "iata": "EW", "icao": "EWG"}]}, {"destination": {"icao": "ESSA", "iata": "ARN", "name": "Stockholm -Arlanda", "shortName": "-Arlanda", "municipalityName": "Stockholm", "location": {"lat": 59.6519, "lon": 17.9186}, "countryCode": "SE"}, "averageDailyFlights": 4.86, "operators": [{"name": "Ryanair", "iata": "FR", "icao": "RYR"}, {"name": "Austrian", "iata": "OS", "icao": "AUA"}]}, {"destination": {"icao": "LTFM", "iata": "IST", "name": "Istanbul ", "shortName": "Istanbul", "municipalityName": "Istanbul", "location": {"lat": 41.275276, "lon": 28.751944}, "countryCode": "TR"}, "averageDailyFlights": 4.57, "operators": [{"name": "Turkish Airlines", "iata": "TK", "icao": "THY"}]}, {"destination": {"icao": "LEMD", "iata": "MAD", "name": "Madrid Adolfo Su\u00e1rez \u2013Barajas", "shortName": "Adolfo Su\u00e1rez \u2013Barajas", "municipalityName": "Madrid", "location": {"lat": 40.4936, "lon": -3.56676}, "countryCode": "ES"}, "averageDailyFlights": 4.43, "operators": [{"name": "Ryanair", "iata": "FR", "icao": "RYR"}, {"name": "Iberia", "iata": "IB", "icao": "IBE"}]}, {"destination": {"icao": "LBSF", "iata": "SOF", "name": "Sofia ", "shortName": "Sofia", "municipalityName": "Sofia", "location": {"lat": 42.696693, "lon": 23.411436}, "countryCode": "BG"}, "averageDailyFlights": 4.43, "operators": [{"name": "Austrian", "iata": "OS", "icao": "AUA"}, {"name": "Ryanair", "iata": "FR", "icao": "RYR"}]}, {"destination": {"icao": "LGAV", "iata": "ATH", "name": "Athens Eleftherios Venizelos", "shortName": "Eleftherios Venizelos", "municipalityName": "Athens", "location": {"lat": 37.9364, "lon": 23.944498}, "countryCode": "GR"}, "averageDailyFlights": 4.29, "operators": [{"name": "Ryanair", "iata": "FR", "icao": "RYR"}, {"name": "Austrian", "iata": "OS", "icao": "AUA"}, {"name": "Aegean Airlines", "iata": "A3", "icao": "AEE"}]}, {"destination": {"icao": "LDZA", "iata": "ZAG", "name": "Zagreb ", "shortName": "Zagreb", "municipalityName": "Zagreb", "location": {"lat": 45.7429, "lon": 16.068798}, "countryCode": "HR"}, "averageDailyFlights": 3.86, "operators": [{"name": "Croatia Airlines", "iata": "OU", "icao": "CTN"}, {"name": "Austrian", "iata": "OS", "icao": "AUA"}]}, {"destination": {"icao": "EPKK", "iata": "KRK", "name": "Krak\u00f3w John Paul II   -Balice", "shortName": "John Paul II   -Balice", "municipalityName": "Krak\u00f3w", "location": {"lat": 50.0777, "lon": 19.7848}, "countryCode": "PL"}, "averageDailyFlights": 3.43, "operators": [{"name": "Austrian", "iata": "OS", "icao": "AUA"}, {"name": "Ryanair", "iata": "FR", "icao": "RYR"}]}, {"destination": {"icao": "LKPR", "iata": "PRG", "name": "Prague Ruzyn\u011b", "shortName": "Ruzyn\u011b", "municipalityName": "Prague", "location": {"lat": 50.1008, "lon": 14.26}, "countryCode": "CZ"}, "averageDailyFlights": 3.43, "operators": [{"name": "Austrian", "iata": "OS", "icao": "AUA"}]}, {"destination": {"icao": "LHBP", "iata": "BUD", "name": "Budapest Ferenc Liszt", "shortName": "Ferenc Liszt", "municipalityName": "Budapest", "location": {"lat": 47.4369, "lon": 19.255598}, "countryCode": "HU"}, "averageDailyFlights": 3.29, "operators": [{"name": "Austrian", "iata": "OS", "icao": "AUA"}]}, {"destination": {"icao": "LOWG", "iata": "GRZ", "name": "Graz ", "shortName": "Graz", "municipalityName": "Graz", "location": {"lat": 46.9911, "lon": 15.439599}, "countryCode": "AT"}, "averageDailyFlights": 3.29, "operators": [{"name": "Austrian", "iata": "OS", "icao": "AUA"}]}, {"destination": {"icao": "LIPE", "iata": "BLQ", "name": "Bologna Guglielmo Marconi", "shortName": "Guglielmo Marconi", "municipalityName": "Bologna", "location": {"lat": 44.5354, "lon": 11.2887}, "countryCode": "IT"}, "averageDailyFlights": 3.14, "operators": [{"name": "Ryanair", "iata": "FR", "icao": "RYR"}, {"name": "Austrian", "iata": "OS", "icao": "AUA"}]}, {"destination": {"icao": "LOWI", "iata": "INN", "name": "Innsbruck ", "shortName": "Innsbruck", "municipalityName": "Innsbruck", "location": {"lat": 47.2602, "lon": 11.343999}, "countryCode": "AT"}, "averageDailyFlights": 3.14, "operators": [{"name": "Austrian", "iata": "OS", "icao": "AUA"}]}, {"destination": {"icao": "LCLK", "iata": "LCA", "name": "Larnarca Larnaca", "shortName": "Larnaca", "municipalityName": "Larnarca", "location": {"lat": 34.8751, "lon": 33.6249}, "countryCode": "CY"}, "averageDailyFlights": 3.14, "operators": [{"name": "Ryanair", "iata": "FR", "icao": "RYR"}, {"name": "Austrian", "iata": "OS", "icao": "AUA"}, {"name": "Wizz Air", "iata": "W6", "icao": "WZZ"}]}, {"destination": {"icao": "LIRN", "iata": "NAP", "name": "N\u00e1poli Naples", "shortName": "Naples", "municipalityName": "N\u00e1poli", "location": {"lat": 40.886, "lon": 14.2908}, "countryCode": "IT"}, "averageDailyFlights": 3.14, "operators": [{"name": "Austrian", "iata": "OS", "icao": "AUA"}, {"name": "Ryanair", "iata": "FR", "icao": "RYR"}, {"name": "Ulendo Airlink", "iata": "W4"}]}, {"destination": {"icao": "LTAI", "iata": "AYT", "name": "Antalya ", "shortName": "Antalya", "municipalityName": "Antalya", "location": {"lat": 36.8987, "lon": 30.8005}, "countryCode": "TR"}, "averageDailyFlights": 3.0, "operators": [{"name": "Freebird Airlines", "iata": "FH", "icao": "FHY"}, {"name": "Pegasus", "iata": "PC", "icao": "PGT"}, {"name": "Sun Express", "iata": "XQ", "icao": "SXS"}, {"name": "Corendon Air", "iata": "XC", "icao": "CAI"}]}, {"destination": {"icao": "EDDV", "iata": "HAJ", "name": "Hanover Hannover", "shortName": "Hannover", "municipalityName": "Hanover", "location": {"lat": 52.4611, "lon": 9.685079}, "countryCode": "DE"}, "averageDailyFlights": 3.0, "operators": [{"name": "Austrian", "iata": "OS", "icao": "AUA"}]}, {"destination": {"icao": "EGKK", "iata": "LGW", "name": "London Gatwick", "shortName": "Gatwick", "municipalityName": "London", "location": {"lat": 51.1481, "lon": -0.190277}, "countryCode": "GB"}, "averageDailyFlights": 3.0, "operators": [{"name": "Ulendo Airlink", "iata": "W4"}, {"name": "Wizz Air", "iata": "W6", "icao": "WZZ"}, {"name": "WMT"}]}, {"destination": {"icao": "LFMN", "iata": "NCE", "name": "Nice -C\u00f4te d'Azur", "shortName": "-C\u00f4te d'Azur", "municipalityName": "Nice", "location": {"lat": 43.6584, "lon": 7.215869}, "countryCode": "FR"}, "averageDailyFlights": 3.0, "operators": [{"name": "Ulendo Airlink", "iata": "W4"}, {"name": "Austrian", "iata": "OS", "icao": "AUA"}]}, {"destination": {"icao": "LATI", "iata": "TIA", "name": "Tirana Mother Teresa", "shortName": "Mother Teresa", "municipalityName": "Tirana", "location": {"lat": 41.4147, "lon": 19.7206}, "countryCode": "AL"}, "averageDailyFlights": 3.0, "operators": [{"name": "Austrian", "iata": "OS", "icao": "AUA"}, {"name": "Ulendo Airlink", "iata": "W4"}]}, {"destination": {"icao": "BKPR", "iata": "PRN", "name": "Prishtina Pri\u0161tina", "shortName": "Pri\u0161tina", "municipalityName": "Prishtina", "location": {"lat": 42.5728, "lon": 21.0358}, "countryCode": "KS"}, "averageDailyFlights": 2.86, "operators": [{"name": "Ulendo Airlink", "iata": "W4"}, {"name": "Austrian", "iata": "OS", "icao": "AUA"}]}, {"destination": {"icao": "LIME", "iata": "BGY", "name": "Bergamo Orio al Serio", "shortName": "Orio al Serio", "municipalityName": "Bergamo", "location": {"lat": 45.6739, "lon": 9.70417}, "countryCode": "IT"}, "averageDailyFlights": 2.71, "operators": [{"name": "Ryanair", "iata": "FR", "icao": "RYR"}]}, {"destination": {"icao": "LSGG", "iata": "GVA", "name": "Geneva Cointrin", "shortName": "Cointrin", "municipalityName": "Geneva", "location": {"lat": 46.2381, "lon": 6.10895}, "countryCode": "CH"}, "averageDailyFlights": 2.71, "operators": [{"name": "SWISS", "iata": "LX", "icao": "SWR"}]}, {"destination": {"icao": "EFHK", "iata": "HEL", "name": "Helsinki Vantaa", "shortName": "Vantaa", "municipalityName": "Helsinki", "location": {"lat": 60.3172, "lon": 24.9633}, "countryCode": "FI"}, "averageDailyFlights": 2.71, "operators": [{"name": "Finnair", "iata": "AY", "icao": "FIN"}, {"name": "Ryanair", "iata": "FR", "icao": "RYR"}]}, {"destination": {"icao": "LEMG", "iata": "AGP", "name": "M\u00e1laga ", "shortName": "M\u00e1laga", "municipalityName": "M\u00e1laga", "location": {"lat": 36.6749, "lon": -4.49911}, "countryCode": "ES"}, "averageDailyFlights": 2.71, "operators": [{"name": "Austrian", "iata": "OS", "icao": "AUA"}, {"name": "Ryanair", "iata": "FR", "icao": "RYR"}, {"name": "Ulendo Airlink", "iata": "W4"}]}, {"destination": {"icao": "LYPG", "iata": "TGD", "name": "Podgorica ", "shortName": "Podgorica", "municipalityName": "Podgorica", "location": {"lat": 42.3594, "lon": 19.2519}, "countryCode": "ME"}, "averageDailyFlights": 2.71, "operators": [{"name": "Ulendo Airlink", "iata": "W4"}, {"name": "Austrian", "iata": "OS", "icao": "AUA"}]}, {"destination": {"icao": "ELLX", "iata": "LUX", "name": "Luxembourg -Findel", "shortName": "-Findel", "municipalityName": "Luxembourg", "location": {"lat": 49.6266, "lon": 6.21152}, "countryCode": "LU"}, "averageDailyFlights": 2.57, "operators": [{"name": "Luxair", "iata": "LG", "icao": "LGL"}]}, {"destination": {"icao": "EVRA", "iata": "RIX", "localCode": "\u0420\u0418\u0425", "name": "Riga ", "shortName": "Riga", "municipalityName": "Riga", "location": {"lat": 56.9236, "lon": 23.9711}, "countryCode": "LV"}, "averageDailyFlights": 2.57, "operators": [{"name": "Ryanair", "iata": "FR", "icao": "RYR"}, {"name": "airBaltic", "iata": "BT", "icao": "BTI"}]}, {"destination": {"icao": "LGTS", "iata": "SKG", "name": "Thessaloniki Macedonia", "shortName": "Macedonia", "municipalityName": "Thessaloniki", "location": {"lat": 40.5197, "lon": 22.9709}, "countryCode": "GR"}, "averageDailyFlights": 2.57, "operators": [{"name": "SmartWings", "iata": "QS", "icao": "TVS"}, {"name": "Ryanair", "iata": "FR", "icao": "RYR"}, {"name": "Austrian", "iata": "OS", "icao": "AUA"}]}, {"destination": {"icao": "LTFJ", "iata": "SAW", "name": "Istanbul Sabiha G\u00f6k\u00e7en", "shortName": "Sabiha G\u00f6k\u00e7en", "municipalityName": "Istanbul", "location": {"lat": 40.8986, "lon": 29.3092}, "countryCode": "TR"}, "averageDailyFlights": 2.43, "operators": [{"name": "Pegasus", "iata": "PC", "icao": "PGT"}]}, {"destination": {"icao": "OMDB", "iata": "DXB", "name": "Dubai ", "shortName": "Dubai", "municipalityName": "Dubai", "location": {"lat": 25.252798, "lon": 55.3644}, "countryCode": "AE"}, "averageDailyFlights": 2.29, "operators": [{"name": "Emirates", "iata": "EK", "icao": "UAE"}]}, {"destination": {"icao": "LPPT", "iata": "LIS", "name": "Lisbon Portela", "shortName": "Portela", "municipalityName": "Lisbon", "location": {"lat": 38.7813, "lon": -9.135919}, "countryCode": "PT"}, "averageDailyFlights": 2.29, "operators": [{"name": "Ryanair", "iata": "FR", "icao": "RYR"}, {"name": "TAP Air Portugal", "iata": "TP", "icao": "TAP"}]}, {"destination": {"icao": "EGSS", "iata": "STN", "name": "London Stansted", "shortName": "Stansted", "municipalityName": "London", "location": {"lat": 51.885, "lon": 0.234999}, "countryCode": "GB"}, "averageDailyFlights": 2.29, "operators": [{"name": "Ryanair", "iata": "FR", "icao": "RYR"}]}, {"destination": {"icao": "LQSA", "iata": "SJJ", "name": "Sarajevo ", "shortName": "Sarajevo", "municipalityName": "Sarajevo", "location": {"lat": 43.8246, "lon": 18.3315}, "countryCode": "BA"}, "averageDailyFlights": 2.29, "operators": [{"name": "Austrian", "iata": "OS", "icao": "AUA"}]}, {"destination": {"icao": "LWSK", "iata": "SKP", "name": "Skopje Alexander the Great", "shortName": "Alexander the Great", "municipalityName": "Skopje", "location": {"lat": 41.9616, "lon": 21.6214}, "countryCode": "MK"}, "averageDailyFlights": 2.29, "operators": [{"name": "Austrian", "iata": "OS", "icao": "AUA"}]}, {"destination": {"icao": "HECA", "iata": "CAI", "name": "Cairo ", "shortName": "Cairo", "municipalityName": "Cairo", "location": {"lat": 30.1219, "lon": 31.4056}, "countryCode": "EG"}, "averageDailyFlights": 2.14, "operators": [{"name": "Austrian", "iata": "OS", "icao": "AUA"}, {"name": "EgyptAir", "iata": "MS", "icao": "MSR"}]}, {"destination": {"icao": "LIRQ", "iata": "FLR", "name": "Firenze Peretola", "shortName": "Peretola", "municipalityName": "Firenze", "location": {"lat": 43.81, "lon": 11.2051}, "countryCode": "IT"}, "averageDailyFlights": 2.14, "operators": [{"name": "Austrian", "iata": "OS", "icao": "AUA"}]}, {"destination": {"icao": "LOWK", "iata": "KLU", "name": "Klagenfurt am W\u00f6rthersee Klagenfurt", "shortName": "Klagenfurt", "municipalityName": "Klagenfurt am W\u00f6rthersee", "location": {"lat": 46.6425, "lon": 14.337699}, "countryCode": "AT"}, "averageDailyFlights": 2.14, "operators": [{"name": "Austrian", "iata": "OS", "icao": "AUA"}]}, {"destination": {"icao": "ENGM", "iata": "OSL", "name": "Oslo Gardermoen", "shortName": "Gardermoen", "municipalityName": "Oslo", "location": {"lat": 60.1939, "lon": 11.100399}, "countryCode": "NO"}, "averageDailyFlights": 2.14, "operators": [{"name": "NOZ"}, {"name": "Austrian", "iata": "OS", "icao": "AUA"}, {"name": "Norwegian Air Shuttle", "iata": "DY", "icao": "NOZ"}]}, {"destination": {"icao": "OMAA", "iata": "AUH", "name": "Abu Dhabi Island and Internal Islands City Abu Dhabi", "shortName": "Abu Dhabi", "municipalityName": "Abu Dhabi Island and Internal Islands City", "location": {"lat": 24.433, "lon": 54.6511}, "countryCode": "AE"}, "averageDailyFlights": 2.0, "operators": [{"name": "Wizz Air", "iata": "W6", "icao": "WZZ"}, {"name": "Etihad Airways", "iata": "EY", "icao": "ETD"}]}, {"destination": {"icao": "OJAI", "iata": "AMM", "name": "Amman Queen Alia", "shortName": "Queen Alia", "municipalityName": "Amman", "location": {"lat": 31.7226, "lon": 35.9932}, "countryCode": "JO"}, "averageDailyFlights": 2.0, "operators": [{"name": "Ryanair", "iata": "FR", "icao": "RYR"}, {"name": "Austrian", "iata": "OS", "icao": "AUA"}, {"name": "Wizz Air", "iata": "W6", "icao": "WZZ"}]}, {"destination": {"icao": "EIDW", "iata": "DUB", "name": "Dublin ", "shortName": "Dublin", "municipalityName": "Dublin", "location": {"lat": 53.4213, "lon": -6.27007}, "countryCode": "IE"}, "averageDailyFlights": 2.0, "operators": [{"name": "Aer Lingus", "iata": "EI", "icao": "EIN"}, {"name": "Ryanair", "iata": "FR", "icao": "RYR"}]}, {"destination": {"icao": "EDDP", "iata": "LEJ", "name": "Leipzig Halle", "shortName": "Halle", "municipalityName": "Leipzig", "location": {"lat": 51.4324, "lon": 12.2416}, "countryCode": "DE"}, "averageDailyFlights": 2.0, "operators": [{"name": "Austrian", "iata": "OS", "icao": "AUA"}, {"name": "EAT Leipzig", "iata": "QY", "icao": "BCS"}]}, {"destination": {"icao": "LFSB", "iata": "BSL", "name": "B\u00e2le/Mulhouse Euro Basel-Mulhouse-Freiburg", "shortName": "Euro Basel-Mulhouse-Freiburg", "municipalityName": "B\u00e2le/Mulhouse", "location": {"lat": 47.5896, "lon": 7.52991}, "countryCode": "FR"}, "averageDailyFlights": 1.86, "operators": [{"name": "Austrian", "iata": "OS", "icao": "AUA"}]}, {"destination": {"icao": "VTBS", "iata": "BKK", "name": "Bangkok Suvarnabhumi", "shortName": "Suvarnabhumi", "municipalityName": "Bangkok", "location": {"lat": 13.681099, "lon": 100.747}, "countryCode": "TH"}, "averageDailyFlights": 1.86, "operators": [{"name": "Austrian", "iata": "OS", "icao": "AUA"}, {"name": "EVA Air", "iata": "BR", "icao": "EVA"}]}, {"destination": {"icao": "LZKZ", "iata": "KSC", "name": "Ko\u0161ice ", "shortName": "Ko\u0161ice", "municipalityName": "Ko\u0161ice", "location": {"lat": 48.6631, "lon": 21.2411}, "countryCode": "SK"}, "averageDailyFlights": 1.86, "operators": [{"name": "Austrian", "iata": "OS", "icao": "AUA"}]}, {"destination": {"icao": "LMML", "iata": "MLA", "name": "Luqa Malta", "shortName": "Malta", "municipalityName": "Luqa", "location": {"lat": 35.8575, "lon": 14.4775}, "countryCode": "MT"}, "averageDailyFlights": 1.86, "operators": [{"name": "Air Malta", "iata": "KM", "icao": "AMC"}, {"name": "Ryanair", "iata": "FR", "icao": "RYR"}]}, {"destination": {"icao": "LEVC", "iata": "VLC", "name": "Valencia ", "shortName": "Valencia", "municipalityName": "Valencia", "location": {"lat": 39.4893, "lon": -0.481624}, "countryCode": "ES"}, "averageDailyFlights": 1.86, "operators": [{"name": "Ryanair", "iata": "FR", "icao": "RYR"}, {"name": "Austrian", "iata": "OS", "icao": "AUA"}]}, {"destination": {"icao": "LBWN", "iata": "VAR", "name": "Varna ", "shortName": "Varna", "municipalityName": "Varna", "location": {"lat": 43.2321, "lon": 27.8251}, "countryCode": "BG"}, "averageDailyFlights": 1.86, "operators": [{"name": "Wizz Air", "iata": "W6", "icao": "WZZ"}, {"name": "Austrian", "iata": "OS", "icao": "AUA"}, {"name": "Ryanair", "iata": "FR", "icao": "RYR"}]}, {"destination": {"icao": "LICC", "iata": "CTA", "name": "Catania -Fontanarossa", "shortName": "-Fontanarossa", "municipalityName": "Catania", "location": {"lat": 37.4668, "lon": 15.066399}, "countryCode": "IT"}, "averageDailyFlights": 1.71, "operators": [{"name": "Ryanair", "iata": "FR", "icao": "RYR"}, {"name": "Austrian", "iata": "OS", "icao": "AUA"}]}, {"destination": {"icao": "LRIA", "iata": "IAS", "name": "Ia\u015fi ", "shortName": "Ia\u015fi", "municipalityName": "Ia\u015fi", "location": {"lat": 47.1785, "lon": 27.6206}, "countryCode": "RO"}, "averageDailyFlights": 1.71, "operators": [{"name": "Austrian", "iata": "OS", "icao": "AUA"}]}, {"destination": {"icao": "EDDN", "iata": "NUE", "name": "Nuremberg ", "shortName": "Nuremberg", "municipalityName": "Nuremberg", "location": {"lat": 49.4987, "lon": 11.0669}, "countryCode": "DE"}, "averageDailyFlights": 1.71, "operators": [{"name": "Austrian", "iata": "OS", "icao": "AUA"}]}, {"destination": {"icao": "LPPR", "iata": "OPO", "name": "Porto Francisco de S\u00e1 Carneiro", "shortName": "Francisco de S\u00e1 Carneiro", "municipalityName": "Porto", "location": {"lat": 41.2481, "lon": -8.681389}, "countryCode": "PT"}, "averageDailyFlights": 1.71, "operators": [{"name": "Ryanair", "iata": "FR", "icao": "RYR"}, {"name": "Austrian", "iata": "OS", "icao": "AUA"}]}, {"destination": {"icao": "RKSI", "iata": "ICN", "name": "Seoul Incheon", "shortName": "Incheon", "municipalityName": "Seoul", "location": {"lat": 37.4691, "lon": 126.451}, "countryCode": "KR"}, "averageDailyFlights": 1.71, "operators": [{"name": "Asiana Airlines", "iata": "OZ", "icao": "AAR"}, {"name": "Korean Air", "iata": "KE", "icao": "KAL"}]}, {"destination": {"icao": "OTHH", "iata": "DOH", "name": "Doha Hamad", "shortName": "Hamad", "municipalityName": "Doha", "location": {"lat": 25.273056, "lon": 51.608055}, "countryCode": "QA"}, "averageDailyFlights": 1.57, "operators": [{"name": "Qatar Airways", "iata": "QR", "icao": "QTR"}]}, {"destination": {"icao": "LDDU", "iata": "DBV", "name": "Dubrovnik ", "shortName": "Dubrovnik", "municipalityName": "Dubrovnik", "location": {"lat": 42.5614, "lon": 18.2682}, "countryCode": "HR"}, "averageDailyFlights": 1.57, "operators": [{"name": "Austrian", "iata": "OS", "icao": "AUA"}, {"name": "Ryanair", "iata": "FR", "icao": "RYR"}]}, {"destination": {"icao": "HEGN", "iata": "HRG", "name": "Hurghada ", "shortName": "Hurghada", "municipalityName": "Hurghada", "location": {"lat": 27.1783, "lon": 33.7994}, "countryCode": "EG"}, "averageDailyFlights": 1.57, "operators": [{"name": "FlyEgypt", "iata": "FT", "icao": "FEG"}, {"name": "Austrian", "iata": "OS", "icao": "AUA"}, {"name": "Air Cairo", "iata": "SM", "icao": "MSC"}]}, {"destination": {"icao": "UDYZ", "iata": "EVN", "localCode": "\u0417\u0412\u0420", "name": "Yerevan Zvartnots", "shortName": "Zvartnots", "municipalityName": "Yerevan", "location": {"lat": 40.1473, "lon": 44.3959}, "countryCode": "AM"}, "averageDailyFlights": 1.57, "operators": [{"name": "Ulendo Airlink", "iata": "W4"}, {"name": "Austrian", "iata": "OS", "icao": "AUA"}]}, {"destination": {"icao": "LSZR", "iata": "ACH", "name": "Altenrhein St Gallen", "shortName": "St Gallen", "municipalityName": "Altenrhein", "location": {"lat": 47.485, "lon": 9.56077}, "countryCode": "CH"}, "averageDailyFlights": 1.43, "operators": [{"name": "People's"}]}, {"destination": {"icao": "LUKK", "iata": "KIV", "localCode": "\u041a\u0428\u041d", "name": "Chi\u015fin\u0103u ", "shortName": "Chi\u015fin\u0103u", "municipalityName": "Chi\u015fin\u0103u", "location": {"lat": 46.9277, "lon": 28.931}, "countryCode": "MD"}, "averageDailyFlights": 1.43, "operators": [{"name": "Austrian", "iata": "OS", "icao": "AUA"}]}, {"destination": {"icao": "LFML", "iata": "MRS", "name": "Marseille Provence", "shortName": "Provence", "municipalityName": "Marseille", "location": {"lat": 43.43927, "lon": 5.221424}, "countryCode": "FR"}, "averageDailyFlights": 1.43, "operators": [{"name": "Ryanair", "iata": "FR", "icao": "RYR"}, {"name": "Austrian", "iata": "OS", "icao": "AUA"}]}, {"destination": {"icao": "LICJ", "iata": "PMO", "name": "Palermo Falcone\u2013Borsellino", "shortName": "Falcone\u2013Borsellino", "municipalityName": "Palermo", "location": {"lat": 38.176, "lon": 13.090999}, "countryCode": "IT"}, "averageDailyFlights": 1.43, "operators": [{"name": "Ryanair", "iata": "FR", "icao": "RYR"}, {"name": "Austrian", "iata": "OS", "icao": "AUA"}]}, {"destination": {"icao": "LFOB", "iata": "BVA", "name": "Beauvais/Till\u00e9 Paris Beauvais Till\u00e9", "shortName": "Paris Beauvais Till\u00e9", "municipalityName": "Beauvais/Till\u00e9", "location": {"lat": 49.4544, "lon": 2.11278}, "countryCode": "FR"}, "averageDailyFlights": 1.29, "operators": [{"name": "Ryanair", "iata": "FR", "icao": "RYR"}]}, {"destination": {"icao": "EBCI", "iata": "CRL", "name": "Brussels South Charleroi", "shortName": "South Charleroi", "municipalityName": "Brussels", "location": {"lat": 50.4592, "lon": 4.45382}, "countryCode": "BE"}, "averageDailyFlights": 1.29, "operators": [{"name": "Ryanair", "iata": "FR", "icao": "RYR"}]}, {"destination": {"icao": "LEIB", "iata": "IBZ", "name": "Ibiza Town Ibiza", "shortName": "Ibiza", "municipalityName": "Ibiza Town", "location": {"lat": 38.8729, "lon": 1.373119}, "countryCode": "ES"}, "averageDailyFlights": 1.29, "operators": [{"name": "Ryanair", "iata": "FR", "icao": "RYR"}, {"name": "SmartWings", "iata": "QS", "icao": "TVS"}]}, {"destination": {"icao": "OEJN", "iata": "JED", "name": "Jeddah King Abdulaziz", "shortName": "King Abdulaziz", "municipalityName": "Jeddah", "location": {"lat": 21.6796, "lon": 39.1565}, "countryCode": "SA"}, "averageDailyFlights": 1.29, "operators": [{"name": "Wizz Air", "iata": "W6", "icao": "WZZ"}, {"name": "Saudi Arabian Airlines", "iata": "SV", "icao": "SVA"}]}, {"destination": {"icao": "BIKF", "iata": "KEF", "name": "Reykjavik Keflavik", "shortName": "Keflavik", "municipalityName": "Reykjavik", "location": {"lat": 63.985, "lon": -22.6056}, "countryCode": "IS"}, "averageDailyFlights": 1.29, "operators": [{"name": "WMT"}, {"name": "Austrian", "iata": "OS", "icao": "AUA"}, {"name": "Ulendo Airlink", "iata": "W4"}]}, {"destination": {"icao": "GCTS", "iata": "TFS", "name": "Tenerife Island Tenerife South", "shortName": "Tenerife South", "municipalityName": "Tenerife Island", "location": {"lat": 28.0445, "lon": -16.5725}, "countryCode": "ES"}, "averageDailyFlights": 1.29, "operators": [{"name": "Ryanair", "iata": "FR", "icao": "RYR"}, {"name": "Ulendo Airlink", "iata": "W4"}, {"name": "Austrian", "iata": "OS", "icao": "AUA"}]}, {"destination": {"icao": "EYVI", "iata": "VNO", "localCode": "\u0412\u0418\u041b", "name": "Vilnius ", "shortName": "Vilnius", "municipalityName": "Vilnius", "location": {"lat": 54.6341, "lon": 25.2858}, "countryCode": "LT"}, "averageDailyFlights": 1.29, "operators": [{"name": "Ryanair", "iata": "FR", "icao": "RYR"}, {"name": "Austrian", "iata": "OS", "icao": "AUA"}]}, {"destination": {"icao": "LIBD", "iata": "BRI", "name": "Bari Karol Wojty\u0142a", "shortName": "Karol Wojty\u0142a", "municipalityName": "Bari", "location": {"lat": 41.1389, "lon": 16.7606}, "countryCode": "IT"}, "averageDailyFlights": 1.14, "operators": [{"name": "Austrian", "iata": "OS", "icao": "AUA"}, {"name": "Ryanair", "iata": "FR", "icao": "RYR"}]}, {"destination": {"icao": "KORD", "iata": "ORD", "name": "Chicago O'Hare", "shortName": "O'Hare", "municipalityName": "Chicago", "location": {"lat": 41.9786, "lon": -87.9048}, "countryCode": "US"}, "averageDailyFlights": 1.14, "operators": [{"name": "Austrian", "iata": "OS", "icao": "AUA"}]}, {"destination": {"icao": "KIAD", "iata": "IAD", "name": "District of Columbia Washington Dulles", "shortName": "Washington Dulles", "municipalityName": "District of Columbia", "location": {"lat": 38.9445, "lon": -77.4558}, "countryCode": "US"}, "averageDailyFlights": 1.14, "operators": [{"name": "Austrian", "iata": "OS", "icao": "AUA"}]}, {"destination": {"icao": "LFLL", "iata": "LYS", "name": "Lyon Saint-Exup\u00e9ry", "shortName": "Saint-Exup\u00e9ry", "municipalityName": "Lyon", "location": {"lat": 45.7264, "lon": 5.090829}, "countryCode": "FR"}, "averageDailyFlights": 1.14, "operators": [{"name": "Austrian", "iata": "OS", "icao": "AUA"}]}, {"destination": {"icao": "KJFK", "iata": "JFK", "name": "New York John F Kennedy", "shortName": "John F Kennedy", "municipalityName": "New York", "location": {"lat": 40.6398, "lon": -73.7789}, "countryCode": "US"}, "averageDailyFlights": 1.14, "operators": [{"name": "Austrian", "iata": "OS", "icao": "AUA"}]}, {"destination": {"icao": "KEWR", "iata": "EWR", "name": "Newark Liberty", "shortName": "Liberty", "municipalityName": "Newark", "location": {"lat": 40.6925, "lon": -74.1687}, "countryCode": "US"}, "averageDailyFlights": 1.14, "operators": [{"name": "Austrian", "iata": "OS", "icao": "AUA"}]}, {"destination": {"icao": "LCPH", "iata": "PFO", "name": "Paphos ", "shortName": "Paphos", "municipalityName": "Paphos", "location": {"lat": 34.718, "lon": 32.4857}, "countryCode": "CY"}, "averageDailyFlights": 1.14, "operators": [{"name": "Ryanair", "iata": "FR", "icao": "RYR"}]}, {"destination": {"icao": "LDSP", "iata": "SPU", "name": "Split ", "shortName": "Split", "municipalityName": "Split", "location": {"lat": 43.5389, "lon": 16.298}, "countryCode": "HR"}, "averageDailyFlights": 1.14, "operators": [{"name": "Austrian", "iata": "OS", "icao": "AUA"}]}, {"destination": {"icao": "RCTP", "iata": "TPE", "name": "Taipei Taiwan Taoyuan", "shortName": "Taiwan Taoyuan", "municipalityName": "Taipei", "location": {"lat": 25.0777, "lon": 121.233}, "countryCode": "TW"}, "averageDailyFlights": 1.14, "operators": [{"name": "China Airlines", "iata": "CI", "icao": "CAL"}, {"name": "EVA Air", "iata": "BR", "icao": "EVA"}]}, {"destination": {"icao": "CYYZ", "iata": "YYZ", "name": "Toronto Pearson", "shortName": "Pearson", "municipalityName": "Toronto", "location": {"lat": 43.6772, "lon": -79.6306}, "countryCode": "CA"}, "averageDailyFlights": 1.14, "operators": [{"name": "Air Canada", "iata": "AC", "icao": "ACA"}]}, {"destination": {"icao": "ORER", "iata": "EBL", "name": "Arbil Erbil", "shortName": "Erbil", "municipalityName": "Arbil", "location": {"lat": 36.2376, "lon": 43.9632}, "countryCode": "IQ"}, "averageDailyFlights": 1.0, "operators": [{"name": "Austrian", "iata": "OS", "icao": "AUA"}]}, {"destination": {"icao": "EKBI", "iata": "BLL", "name": "Billund ", "shortName": "Billund", "municipalityName": "Billund", "location": {"lat": 55.7403, "lon": 9.15178}, "countryCode": "DK"}, "averageDailyFlights": 1.0, "operators": [{"name": "Ryanair", "iata": "FR", "icao": "RYR"}, {"name": "Austrian", "iata": "OS", "icao": "AUA"}]}, {"destination": {"icao": "ESGG", "iata": "GOT", "name": "Goteborg Gothenburg-Landvetter", "shortName": "Gothenburg-Landvetter", "municipalityName": "Goteborg", "location": {"lat": 57.6628, "lon": 12.2798}, "countryCode": "SE"}, "averageDailyFlights": 1.0, "operators": [{"name": "Austrian", "iata": "OS", "icao": "AUA"}, {"name": "Ryanair", "iata": "FR", "icao": "RYR"}]}, {"destination": {"icao": "LGIR", "iata": "HER", "name": "Heraklion Nikos Kazantzakis", "shortName": "Nikos Kazantzakis", "municipalityName": "Heraklion", "location": {"lat": 35.3397, "lon": 25.1803}, "countryCode": "GR"}, "averageDailyFlights": 1.0, "operators": [{"name": "Ryanair", "iata": "FR", "icao": "RYR"}, {"name": "Corendon Airlines Europe", "iata": "XR", "icao": "CXI"}, {"name": "Austrian", "iata": "OS", "icao": "AUA"}]}, {"destination": {"icao": "EGCC", "iata": "MAN", "name": "Manchester ", "shortName": "Manchester", "municipalityName": "Manchester", "location": {"lat": 53.3537, "lon": -2.27495}, "countryCode": "GB"}, "averageDailyFlights": 1.0, "operators": [{"name": "Ryanair", "iata": "FR", "icao": "RYR"}, {"name": "Austrian", "iata": "OS", "icao": "AUA"}]}, {"destination": {"icao": "LYNI", "iata": "INI", "name": "Ni\u0161 Nis", "shortName": "Nis", "municipalityName": "Ni\u0161", "location": {"lat": 43.3373, "lon": 21.8537}, "countryCode": "RS"}, "averageDailyFlights": 1.0, "operators": [{"name": "Ulendo Airlink", "iata": "W4"}, {"name": "Ryanair", "iata": "FR", "icao": "RYR"}]}, {"destination": {"icao": "LQTZ", "iata": "TZL", "name": "Tuzla ", "shortName": "Tuzla", "municipalityName": "Tuzla", "location": {"lat": 44.4587, "lon": 18.7248}, "countryCode": "BA"}, "averageDailyFlights": 1.0, "operators": [{"name": "Ryanair", "iata": "FR", "icao": "RYR"}, {"name": "Wizz Air", "iata": "W6", "icao": "WZZ"}]}, {"destination": {"icao": "LEAL", "iata": "ALC", "name": "Alicante ", "shortName": "Alicante", "municipalityName": "Alicante", "location": {"lat": 38.2822, "lon": -0.558156}, "countryCode": "ES"}, "averageDailyFlights": 0.86, "operators": [{"name": "Ryanair", "iata": "FR", "icao": "RYR"}]}, {"destination": {"icao": "LRSB", "iata": "SBZ", "name": "Sibiu ", "shortName": "Sibiu", "municipalityName": "Sibiu", "location": {"lat": 45.7856, "lon": 24.0913}, "countryCode": "RO"}, "averageDailyFlights": 0.86, "operators": [{"name": "Austrian", "iata": "OS", "icao": "AUA"}]}, {"destination": {"icao": "EPMO", "iata": "WMI", "name": "Warsaw Modlin", "shortName": "Modlin", "municipalityName": "Warsaw", "location": {"lat": 52.4511, "lon": 20.6518}, "countryCode": "PL"}, "averageDailyFlights": 0.86, "operators": [{"name": "Ryanair", "iata": "FR", "icao": "RYR"}]}, {"destination": {"icao": "HAAB", "iata": "ADD", "name": "Addis Ababa Bole", "shortName": "Bole", "municipalityName": "Addis Ababa", "location": {"lat": 8.97789, "lon": 38.7993}, "countryCode": "ET"}, "averageDailyFlights": 0.71, "operators": [{"name": "Ethiopian Airlines", "iata": "ET", "icao": "ETH"}]}, {"destination": {"icao": "LTAC", "iata": "ESB", "name": "Ankara Esenbo\u011fa", "shortName": "Esenbo\u011fa", "municipalityName": "Ankara", "location": {"lat": 40.1281, "lon": 32.9951}, "countryCode": "TR"}, "averageDailyFlights": 0.71, "operators": [{"name": "Turkish Airlines", "iata": "TK", "icao": "THY"}, {"name": "Pegasus", "iata": "PC", "icao": "PGT"}]}, {"destination": {"icao": "EHEH", "iata": "EIN", "name": "Eindhoven ", "shortName": "Eindhoven", "municipalityName": "Eindhoven", "location": {"lat": 51.4501, "lon": 5.374529}, "countryCode": "NL"}, "averageDailyFlights": 0.71, "operators": [{"name": "Ryanair", "iata": "FR", "icao": "RYR"}]}, {"destination": {"icao": "GMMX", "iata": "RAK", "name": "Marrakech Menara", "shortName": "Menara", "municipalityName": "Marrakech", "location": {"lat": 31.6069, "lon": -8.036299}, "countryCode": "MA"}, "averageDailyFlights": 0.71, "operators": [{"name": "Austrian", "iata": "OS", "icao": "AUA"}]}, {"destination": {"icao": "CYUL", "iata": "YUL", "name": "Montreal Trudeau", "shortName": "Trudeau", "municipalityName": "Montreal", "location": {"lat": 45.4706, "lon": -73.7408}, "countryCode": "CA"}, "averageDailyFlights": 0.71, "operators": [{"name": "Austrian", "iata": "OS", "icao": "AUA"}]}, {"destination": {"icao": "LGRP", "iata": "RHO", "name": "Rodes Island Diagoras", "shortName": "Diagoras", "municipalityName": "Rodes Island", "location": {"lat": 36.4054, "lon": 28.0862}, "countryCode": "GR"}, "averageDailyFlights": 0.71, "operators": [{"name": "Austrian", "iata": "OS", "icao": "AUA"}, {"name": "Ryanair", "iata": "FR", "icao": "RYR"}]}, {"destination": {"icao": "EETN", "iata": "TLL", "localCode": "TLL", "name": "Tallinn Lennart Meri", "shortName": "Lennart Meri", "municipalityName": "Tallinn", "location": {"lat": 59.4133, "lon": 24.8328}, "countryCode": "EE"}, "averageDailyFlights": 0.71, "operators": [{"name": "Ryanair", "iata": "FR", "icao": "RYR"}]}, {"destination": {"icao": "LQBK", "iata": "BNX", "name": "Banja Luka ", "shortName": "Banja Luka", "municipalityName": "Banja Luka", "location": {"lat": 44.9414, "lon": 17.2975}, "countryCode": "BA"}, "averageDailyFlights": 0.57, "operators": [{"name": "Ryanair", "iata": "FR", "icao": "RYR"}]}, {"destination": {"icao": "LPFR", "iata": "FAO", "name": "Faro ", "shortName": "Faro", "municipalityName": "Faro", "location": {"lat": 37.0144, "lon": -7.965909}, "countryCode": "PT"}, "averageDailyFlights": 0.57, "operators": [{"name": "Ryanair", "iata": "FR", "icao": "RYR"}]}, {"destination": {"icao": "LGSA", "iata": "CHQ", "name": "Souda Chania", "shortName": "Chania", "municipalityName": "Souda", "location": {"lat": 35.5317, "lon": 24.1497}, "countryCode": "GR"}, "averageDailyFlights": 0.57, "operators": [{"name": "Ryanair", "iata": "FR", "icao": "RYR"}, {"name": "Austrian", "iata": "OS", "icao": "AUA"}]}, {"destination": {"icao": "UBBB", "iata": "GYD", "localCode": "\u0411\u0410\u041a", "name": "Baku Heydar Aliyev", "shortName": "Heydar Aliyev", "municipalityName": "Baku", "location": {"lat": 40.4675, "lon": 50.0467}, "countryCode": "AZ"}, "averageDailyFlights": 0.43, "operators": [{"name": "Silk Way West", "iata": "7L", "icao": "AZG"}, {"name": "AZAL Azerbaijan Airlines", "iata": "J2", "icao": "AHY"}]}, {"destination": {"icao": "EGPH", "iata": "EDI", "name": "Edinburgh ", "shortName": "Edinburgh", "municipalityName": "Edinburgh", "location": {"lat": 55.95, "lon": -3.372499}, "countryCode": "GB"}, "averageDailyFlights": 0.43, "operators": [{"name": "Ryanair", "iata": "FR", "icao": "RYR"}]}, {"destination": {"icao": "LPMA", "iata": "FNC", "name": "Funchal Madeira", "shortName": "Madeira", "municipalityName": "Funchal", "location": {"lat": 32.6979, "lon": -16.7745}, "countryCode": "PT"}, "averageDailyFlights": 0.43, "operators": [{"name": "Ulendo Airlink", "iata": "W4"}, {"name": "Austrian", "iata": "OS", "icao": "AUA"}]}, {"destination": {"icao": "GCLP", "iata": "LPA", "name": "Gran Canaria Island Gran Canaria", "shortName": "Gran Canaria", "municipalityName": "Gran Canaria Island", "location": {"lat": 27.9319, "lon": -15.386599}, "countryCode": "ES"}, "averageDailyFlights": 0.43, "operators": [{"name": "Ryanair", "iata": "FR", "icao": "RYR"}, {"name": "Austrian", "iata": "OS", "icao": "AUA"}]}, {"destination": {"icao": "LTBJ", "iata": "ADB", "name": "\u0130zmir Adnan Menderes", "shortName": "Adnan Menderes", "municipalityName": "\u0130zmir", "location": {"lat": 38.2924, "lon": 27.157}, "countryCode": "TR"}, "averageDailyFlights": 0.43, "operators": [{"name": "Sun Express", "iata": "XQ", "icao": "SXS"}, {"name": "Pegasus", "iata": "PC", "icao": "PGT"}]}, {"destination": {"icao": "LGKR", "iata": "CFU", "name": "Kerkyra Island Ioannis Kapodistrias", "shortName": "Ioannis Kapodistrias", "municipalityName": "Kerkyra Island", "location": {"lat": 39.6019, "lon": 19.9117}, "countryCode": "GR"}, "averageDailyFlights": 0.43, "operators": [{"name": "Ryanair", "iata": "FR", "icao": "RYR"}]}, {"destination": {"icao": "LICA", "iata": "SUF", "name": "Lamezia Terme ", "shortName": "Lamezia Terme", "municipalityName": "Lamezia Terme", "location": {"lat": 38.9054, "lon": 16.2423}, "countryCode": "IT"}, "averageDailyFlights": 0.43, "operators": [{"name": "Ryanair", "iata": "FR", "icao": "RYR"}]}, {"destination": {"icao": "EBLG", "iata": "LGG", "name": "Li\u00e8ge ", "shortName": "Li\u00e8ge", "municipalityName": "Li\u00e8ge", "location": {"lat": 50.6374, "lon": 5.44322}, "countryCode": "BE"}, "averageDailyFlights": 0.43, "operators": [{"name": "ASL Airlines Belgium", "iata": "3V", "icao": "TAY"}]}, {"destination": {"icao": "VIDP", "iata": "DEL", "name": "New Delhi Indira Gandhi", "shortName": "Indira Gandhi", "municipalityName": "New Delhi", "location": {"lat": 28.5665, "lon": 77.1031}, "countryCode": "IN"}, "averageDailyFlights": 0.43, "operators": [{"name": "Air India", "iata": "AI", "icao": "AIC"}]}, {"destination": {"icao": "LFPO", "iata": "ORY", "name": "Paris -Orly", "shortName": "-Orly", "municipalityName": "Paris", "location": {"lat": 48.7253, "lon": 2.35944}, "countryCode": "FR"}, "averageDailyFlights": 0.43, "operators": [{"name": "Transavia France", "iata": "TO", "icao": "TVF"}]}, {"destination": {"icao": "LEXJ", "iata": "SDR", "name": "Santander ", "shortName": "Santander", "municipalityName": "Santander", "location": {"lat": 43.4271, "lon": -3.820009}, "countryCode": "ES"}, "averageDailyFlights": 0.43, "operators": [{"name": "Ryanair", "iata": "FR", "icao": "RYR"}]}, {"destination": {"icao": "ZSPD", "iata": "PVG", "name": "Shanghai Pudong", "shortName": "Pudong", "municipalityName": "Shanghai", "location": {"lat": 31.1434, "lon": 121.805}, "countryCode": "CN"}, "averageDailyFlights": 0.43, "operators": [{"name": "Austrian", "iata": "OS", "icao": "AUA"}]}, {"destination": {"icao": "UGTB", "iata": "TBS", "name": "Tbilisi ", "shortName": "Tbilisi", "municipalityName": "Tbilisi", "location": {"lat": 41.6692, "lon": 44.9547}, "countryCode": "GE"}, "averageDailyFlights": 0.43, "operators": [{"name": "Georgian Airways", "iata": "A9", "icao": "TGZ"}]}, {"destination": {"icao": "RJAA", "iata": "NRT", "name": "Tokyo Narita", "shortName": "Narita", "municipalityName": "Tokyo", "location": {"lat": 35.7647, "lon": 140.386}, "countryCode": "JP"}, "averageDailyFlights": 0.43, "operators": [{"name": "Austrian", "iata": "OS", "icao": "AUA"}]}, {"destination": {"icao": "OEDF", "iata": "DMM", "name": "Ad Dammam King Fahd", "shortName": "King Fahd", "municipalityName": "Ad Dammam", "location": {"lat": 26.4712, "lon": 49.7979}, "countryCode": "SA"}, "averageDailyFlights": 0.29, "operators": [{"name": "Wizz Air", "iata": "W6", "icao": "WZZ"}]}, {"destination": {"icao": "DAAG", "iata": "ALG", "name": "Algiers Houari Boumediene", "shortName": "Houari Boumediene", "municipalityName": "Algiers", "location": {"lat": 36.691, "lon": 3.215409}, "countryCode": "DZ"}, "averageDailyFlights": 0.29, "operators": [{"name": "Air Algerie", "iata": "AH", "icao": "DAH"}]}, {"destination": {"icao": "LIEE", "iata": "CAG", "name": "Cagliari Elmas", "shortName": "Elmas", "municipalityName": "Cagliari", "location": {"lat": 39.2515, "lon": 9.05428}, "countryCode": "IT"}, "averageDailyFlights": 0.29, "operators": [{"name": "Ryanair", "iata": "FR", "icao": "RYR"}]}, {"destination": {"icao": "LRCL", "iata": "CLJ", "name": "Cluj-Napoca ", "shortName": "Cluj-Napoca", "municipalityName": "Cluj-Napoca", "location": {"lat": 46.7852, "lon": 23.6862}, "countryCode": "RO"}, "averageDailyFlights": 0.29, "operators": [{"name": "Ulendo Airlink", "iata": "W4"}]}, {"destination": {"icao": "GCFV", "iata": "FUE", "name": "Fuerteventura Island Fuerteventura", "shortName": "Fuerteventura", "municipalityName": "Fuerteventura Island", "location": {"lat": 28.4527, "lon": -13.8638}, "countryCode": "ES"}, "averageDailyFlights": 0.29, "operators": [{"name": "Ryanair", "iata": "FR", "icao": "RYR"}]}, {"destination": {"icao": "UGKO", "iata": "KUT", "name": "Kutaisi Kopitnari", "shortName": "Kopitnari", "municipalityName": "Kutaisi", "location": {"lat": 42.1767, "lon": 42.4826}, "countryCode": "GE"}, "averageDailyFlights": 0.29, "operators": [{"name": "Wizz Air", "iata": "W6", "icao": "WZZ"}]}, {"destination": {"icao": "HEMA", "iata": "RMF", "name": "Marsa Alam ", "shortName": "Marsa Alam", "municipalityName": "Marsa Alam", "location": {"lat": 25.5571, "lon": 34.5837}, "countryCode": "EG"}, "averageDailyFlights": 0.29, "operators": [{"name": "Air Cairo", "iata": "SM", "icao": "MSC"}, {"name": "Bulgarian Air Charter", "iata": "H6", "icao": "BUC"}]}, {"destination": {"icao": "LWOH", "iata": "OHD", "name": "Ohrid St. Paul the Apostle", "shortName": "St. Paul the Apostle", "municipalityName": "Ohrid", "location": {"lat": 41.18, "lon": 20.7423}, "countryCode": "MK"}, "averageDailyFlights": 0.29, "operators": [{"name": "Ulendo Airlink", "iata": "W4"}]}, {"destination": {"icao": "LIRZ", "iata": "PEG", "name": "Perugia San Francesco d'Assisi \u2013 Umbria", "shortName": "San Francesco d'Assisi \u2013 Umbria", "municipalityName": "Perugia", "location": {"lat": 43.0959, "lon": 12.513199}, "countryCode": "IT"}, "averageDailyFlights": 0.29, "operators": [{"name": "Ryanair", "iata": "FR", "icao": "RYR"}]}, {"destination": {"icao": "OERK", "iata": "RUH", "name": "Riyadh King Khaled", "shortName": "King Khaled", "municipalityName": "Riyadh", "location": {"lat": 24.9576, "lon": 46.6988}, "countryCode": "SA"}, "averageDailyFlights": 0.29, "operators": [{"name": "Wizz Air", "iata": "W6", "icao": "WZZ"}]}, {"destination": {"icao": "LEZL", "iata": "SVQ", "name": "Seville Sevilla", "shortName": "Sevilla", "municipalityName": "Seville", "location": {"lat": 37.418, "lon": -5.893109}, "countryCode": "ES"}, "averageDailyFlights": 0.29, "operators": [{"name": "Ryanair", "iata": "FR", "icao": "RYR"}]}, {"destination": {"icao": "DTTA", "iata": "TUN", "name": "Tunis Carthage", "shortName": "Carthage", "municipalityName": "Tunis", "location": {"lat": 36.851, "lon": 10.227199}, "countryCode": "TN"}, "averageDailyFlights": 0.29, "operators": [{"name": "Tunisair", "iata": "TU", "icao": "TAR"}]}, {"destination": {"name": "Kukes"}, "averageDailyFlights": 0.29, "operators": [{"name": "Ulendo Airlink", "iata": "W4"}]}, {"destination": {"icao": "ZBAA", "iata": "PEK", "name": "Beijing Capital", "shortName": "Capital", "municipalityName": "Beijing", "location": {"lat": 40.0801, "lon": 116.585}, "countryCode": "CN"}, "averageDailyFlights": 0.14, "operators": [{"name": "Air China", "iata": "CA", "icao": "CCA"}]}, {"destination": {"icao": "LEBB", "iata": "BIO", "name": "Bilbao ", "shortName": "Bilbao", "municipalityName": "Bilbao", "location": {"lat": 43.3011, "lon": -2.910609}, "countryCode": "ES"}, "averageDailyFlights": 0.14, "operators": [{"name": "Marathon Airlines"}]}, {"destination": {"icao": "LBBG", "iata": "BOJ", "name": "Burgas ", "shortName": "Burgas", "municipalityName": "Burgas", "location": {"lat": 42.5696, "lon": 27.5152}, "countryCode": "BG"}, "averageDailyFlights": 0.14, "operators": [{"name": "Ryanair", "iata": "FR", "icao": "RYR"}]}, {"destination": {"icao": "LFKC", "iata": "CLY", "name": "Calvi/Sainte-Catherine Calvi-Sainte-Catherine", "shortName": "Calvi-Sainte-Catherine", "municipalityName": "Calvi/Sainte-Catherine", "location": {"lat": 42.5308, "lon": 8.79319}, "countryCode": "FR"}, "averageDailyFlights": 0.14, "operators": [{"name": "Air Corsica", "iata": "XK", "icao": "CCM"}]}, {"destination": {"icao": "MMUN", "iata": "CUN", "name": "Canc\u00fan ", "shortName": "Canc\u00fan", "municipalityName": "Canc\u00fan", "location": {"lat": 21.0365, "lon": -86.8771}, "countryCode": "MX"}, "averageDailyFlights": 0.14, "operators": [{"name": "Austrian", "iata": "OS", "icao": "AUA"}]}, {"destination": {"icao": "LIEO", "iata": "OLB", "name": "Olbia Costa Smeralda", "shortName": "Costa Smeralda", "municipalityName": "Olbia", "location": {"lat": 40.8987, "lon": 9.517629}, "countryCode": "IT"}, "averageDailyFlights": 0.14, "operators": [{"name": "Austrian", "iata": "OS", "icao": "AUA"}]}, {"destination": {"icao": "LOWS", "iata": "SZG", "name": "Salzburg ", "shortName": "Salzburg", "municipalityName": "Salzburg", "location": {"lat": 47.7933, "lon": 13.0043}, "countryCode": "AT"}, "averageDailyFlights": 0.14, "operators": [{"name": "Air Corsica", "iata": "XK", "icao": "CCM"}]}, {"destination": {"icao": "HESH", "iata": "SSH", "name": "Sharm el Sheikh ", "shortName": "Sharm el Sheikh", "municipalityName": "Sharm el Sheikh", "location": {"lat": 27.9773, "lon": 34.395}, "countryCode": "EG"}, "averageDailyFlights": 0.14, "operators": [{"name": "Wizz Air", "iata": "W6", "icao": "WZZ"}]}, {"destination": {"icao": "LFBT", "iata": "LDE", "name": "Tarbes/Lourdes/Pyr\u00e9n\u00e9es Tarbes-Lourdes-Pyr\u00e9n\u00e9es", "shortName": "Tarbes-Lourdes-Pyr\u00e9n\u00e9es", "municipalityName": "Tarbes/Lourdes/Pyr\u00e9n\u00e9es", "location": {"lat": 43.1787, "lon": -0.006438}, "countryCode": "FR"}, "averageDailyFlights": 0.14, "operators": [{"name": "SmartWings", "iata": "QS", "icao": "TVS"}]}, {"destination": {"icao": "LRTM", "iata": "TGM", "name": "T\u00e2rgu Mure\u015f Transilvania", "shortName": "Transilvania", "municipalityName": "T\u00e2rgu Mure\u015f", "location": {"lat": 46.4677, "lon": 24.4125}, "countryCode": "RO"}, "averageDailyFlights": 0.14, "operators": [{"name": "Wizz Air", "iata": "W6", "icao": "WZZ"}]}, {"destination": {"icao": "OIIE", "iata": "IKA", "name": "Tehran Imam Khomeini", "shortName": "Imam Khomeini", "municipalityName": "Tehran", "location": {"lat": 35.4161, "lon": 51.1522}, "countryCode": "IR"}, "averageDailyFlights": 0.14, "operators": [{"name": "Iran Air", "iata": "IR", "icao": "IRA"}]}, {"destination": {"icao": "LOWW", "iata": "VIE", "name": "Vienna Schwechat", "shortName": "Schwechat", "municipalityName": "Vienna", "location": {"lat": 48.1103, "lon": 16.5697}, "countryCode": "AT"}, "averageDailyFlights": 0.14, "operators": [{"name": "Austrian", "iata": "OS", "icao": "AUA"}]}, {"destination": {"icao": "LDZD", "iata": "ZAD", "name": "Zadar Zemunik", "shortName": "Zemunik", "municipalityName": "Zadar", "location": {"lat": 44.1083, "lon": 15.346699}, "countryCode": "HR"}, "averageDailyFlights": 0.14, "operators": [{"name": "Austrian", "iata": "OS", "icao": "AUA"}]}]}