{"routes": [{"destination": {"icao": "EDDF", "iata": "FRA", "name": "Frankfurt-am-Main ", "shortName": "Frankfurt-am-Main", "municipalityName": "Frankfurt-am-Main", "location": {"lat": 50.0264, "lon": 8.543129}, "countryCode": "DE"}, "averageDailyFlights": 10.0, "operators": [{"name": "Motorfluggruppe Zrh"}, {"name": "Vistajet Malta"}, {"name": "SWISS", "iata": "LX", "icao": "SWR"}, {"name": "Lufthansa", "iata": "LH", "icao": "DLH"}]}, {"destination": {"icao": "EHAM", "iata": "AMS", "name": "Amsterdam Schiphol", "shortName": "Schiphol", "municipalityName": "Amsterdam", "location": {"lat": 52.3086, "lon": 4.763889}, "countryCode": "NL"}, "averageDailyFlights": 9.86, "operators": [{"name": "Jfa"}, {"name": "Jet Aviation Ph"}, {"name": "KLM", "iata": "KL", "icao": "KLM"}, {"name": "SWISS", "iata": "LX", "icao": "SWR"}]}, {"destination": {"icao": "EDDB", "iata": "BER", "name": "Berlin Brandenburg", "shortName": "Brandenburg", "municipalityName": "Berlin", "location": {"lat": 52.35139, "lon": 13.493889}, "countryCode": "DE"}, "averageDailyFlights": 9.29, "operators": [{"name": "Eisele Flugdienst"}, {"name": "SWISS", "iata": "LX", "icao": "SWR"}, {"name": "easyJet", "iata": "U2", "icao": "EZY"}, {"name": "Execujet"}]}, {"destination": {"icao": "LEPA", "iata": "PMI", "name": "Palma De Mallorca ", "shortName": "Palma De Mallorca", "municipalityName": "Palma De Mallorca", "location": {"lat": 39.5517, "lon": 2.73881}, "countryCode": "ES"}, "averageDailyFlights": 8.86, "operators": [{"name": "Execujet"}, {"name": "Vistajet Malta"}, {"name": "Cat Aviation"}, {"name": "SWISS", "iata": "LX", "icao": "SWR"}, {"name": "Eurowings", "iata": "EW", "icao": "EWG"}, {"name": "Chair Airlines", "iata": "GM", "icao": "GSW"}, {"name": "Edelweiss Air", "iata": "WK", "icao": "EDW"}, {"name": "Vueling", "iata": "VY", "icao": "VLG"}, {"name": "Netjets"}]}, {"destination": {"icao": "LOWW", "iata": "VIE", "name": "Vienna Schwechat", "shortName": "Schwechat", "municipalityName": "Vienna", "location": {"lat": 48.1103, "lon": 16.5697}, "countryCode": "AT"}, "averageDailyFlights": 8.71, "operators": [{"name": "Austrian", "iata": "OS", "icao": "AUA"}]}, {"destination": {"icao": "LFPG", "iata": "CDG", "name": "Paris Charles de Gaulle", "shortName": "Charles de Gaulle", "municipalityName": "Paris", "location": {"lat": 49.0128, "lon": 2.549999}, "countryCode": "FR"}, "averageDailyFlights": 8.57, "operators": [{"name": "Air France", "iata": "AF", "icao": "AFR"}, {"name": "SWISS", "iata": "LX", "icao": "SWR"}]}, {"destination": {"icao": "EDDH", "iata": "HAM", "name": "Hamburg ", "shortName": "Hamburg", "municipalityName": "Hamburg", "location": {"lat": 53.6304, "lon": 9.988229}, "countryCode": "DE"}, "averageDailyFlights": 8.29, "operators": [{"name": "Execujet"}, {"name": "Netjets"}, {"name": "SWISS", "iata": "LX", "icao": "SWR"}, {"name": "Eurowings", "iata": "EW", "icao": "EWG"}, {"name": "Lhb"}]}, {"destination": {"icao": "EDDL", "iata": "DUS", "name": "Duesseldorf D\u00fcsseldorf", "shortName": "D\u00fcsseldorf", "municipalityName": "Duesseldorf", "location": {"lat": 51.2895, "lon": 6.766779}, "countryCode": "DE"}, "averageDailyFlights": 7.57, "operators": [{"name": "Proair Aviation"}, {"name": "Execujet"}, {"name": "SWISS", "iata": "LX", "icao": "SWR"}, {"name": "Eurowings", "iata": "EW", "icao": "EWG"}, {"name": "Netjets"}, {"name": "Cat Aviation"}]}, {"destination": {"icao": "LEMD", "iata": "MAD", "name": "Madrid Adolfo Su\u00e1rez \u2013Barajas", "shortName": "Adolfo Su\u00e1rez \u2013Barajas", "municipalityName": "Madrid", "location": {"lat": 40.4936, "lon": -3.56676}, "countryCode": "ES"}, "averageDailyFlights": 7.29, "operators": [{"name": "Iberia", "iata": "IB", "icao": "IBE"}, {"name": "Air Europa", "iata": "UX", "icao": "AEA"}, {"name": "SWISS", "iata": "LX", "icao": "SWR"}]}, {"destination": {"icao": "LSGG", "iata": "GVA", "name": "Geneva Cointrin", "shortName": "Cointrin", "municipalityName": "Geneva", "location": {"lat": 46.2381, "lon": 6.10895}, "countryCode": "CH"}, "averageDailyFlights": 7.14, "operators": [{"name": "Netjets"}, {"name": "SWISS", "iata": "LX", "icao": "SWR"}, {"name": "Execujet"}, {"name": "Cat Air Service Ag"}, {"name": "Air Hamburg"}, {"name": "Royal Jordanian", "iata": "RJ", "icao": "RJA"}]}, {"destination": {"icao": "LPPT", "iata": "LIS", "name": "Lisbon Portela", "shortName": "Portela", "municipalityName": "Lisbon", "location": {"lat": 38.7813, "lon": -9.135919}, "countryCode": "PT"}, "averageDailyFlights": 7.14, "operators": [{"name": "TAP Air Portugal", "iata": "TP", "icao": "TAP"}, {"name": "SWISS", "iata": "LX", "icao": "SWR"}, {"name": "easyJet", "iata": "U2", "icao": "EZY"}]}, {"destination": {"icao": "LEBL", "iata": "BCN", "name": "Barcelona ", "shortName": "Barcelona", "municipalityName": "Barcelona", "location": {"lat": 41.2971, "lon": 2.078459}, "countryCode": "ES"}, "averageDailyFlights": 6.86, "operators": [{"name": "SWISS", "iata": "LX", "icao": "SWR"}, {"name": "Vueling", "iata": "VY", "icao": "VLG"}]}, {"destination": {"icao": "EGLC", "iata": "LCY", "name": "London City", "shortName": "City", "municipalityName": "London", "location": {"lat": 51.5053, "lon": 0.055277}, "countryCode": "GB"}, "averageDailyFlights": 6.86, "operators": [{"name": "Air Hamburg"}, {"name": "SWISS", "iata": "LX", "icao": "SWR"}, {"name": "British Airways", "iata": "BA", "icao": "BAW"}]}, {"destination": {"icao": "LYBE", "iata": "BEG", "name": "Belgrade Nikola Tesla", "shortName": "Nikola Tesla", "municipalityName": "Belgrade", "location": {"lat": 44.8184, "lon": 20.3091}, "countryCode": "RS"}, "averageDailyFlights": 6.71, "operators": [{"name": "Air Serbia", "iata": "JU", "icao": "ASL"}, {"name": "SWISS", "iata": "LX", "icao": "SWR"}]}, {"destination": {"icao": "EDDM", "iata": "MUC", "name": "Munich ", "shortName": "Munich", "municipalityName": "Munich", "location": {"lat": 48.3538, "lon": 11.7861}, "countryCode": "DE"}, "averageDailyFlights": 6.71, "operators": [{"name": "Lufthansa", "iata": "LH", "icao": "DLH"}, {"name": "Enter Air", "iata": "E4", "icao": "ENT"}, {"name": "SWISS", "iata": "LX", "icao": "SWR"}, {"name": "Execujet"}, {"name": "Jet Aviation Ph"}]}, {"destination": {"icao": "LIRF", "iata": "FCO", "name": "Rome Leonardo da Vinci\u2013Fiumicino", "shortName": "Leonardo da Vinci\u2013Fiumicino", "municipalityName": "Rome", "location": {"lat": 41.8045, "lon": 12.2508}, "countryCode": "IT"}, "averageDailyFlights": 6.43, "operators": [{"name": "ITY"}, {"name": "SWISS", "iata": "LX", "icao": "SWR"}, {"name": "Alitalia", "iata": "AZ", "icao": "AZA"}]}, {"destination": {"icao": "EKCH", "iata": "CPH", "name": "Copenhagen Kastrup", "shortName": "Kastrup", "municipalityName": "Copenhagen", "location": {"lat": 55.6179, "lon": 12.656}, "countryCode": "DK"}, "averageDailyFlights": 5.71, "operators": [{"name": "Jet Aviation Ph"}, {"name": "SWISS", "iata": "LX", "icao": "SWR"}, {"name": "SAS", "iata": "SK", "icao": "SAS"}]}, {"destination": {"icao": "LIMC", "iata": "MXP", "name": "Milan Malpensa", "shortName": "Malpensa", "municipalityName": "Milan", "location": {"lat": 45.6306, "lon": 8.72811}, "countryCode": "IT"}, "averageDailyFlights": 5.29, "operators": [{"name": "SWISS", "iata": "LX", "icao": "SWR"}, {"name": "Ethiopian Airlines", "iata": "ET", "icao": "ETH"}]}, {"destination": {"icao": "LFMN", "iata": "NCE", "name": "Nice -C\u00f4te d'Azur", "shortName": "-C\u00f4te d'Azur", "municipalityName": "Nice", "location": {"lat": 43.6584, "lon": 7.215869}, "countryCode": "FR"}, "averageDailyFlights": 5.29, "operators": [{"name": "Jet Aviation Ph"}, {"name": "Cat Air Service Ag"}, {"name": "Netjets"}, {"name": "SWISS", "iata": "LX", "icao": "SWR"}, {"name": "Execujet"}]}, {"destination": {"icao": "EPWA", "iata": "WAW", "name": "Warsaw Chopin", "shortName": "Chopin", "municipalityName": "Warsaw", "location": {"lat": 52.1657, "lon": 20.9671}, "countryCode": "PL"}, "averageDailyFlights": 5.0, "operators": [{"name": "Execujet"}, {"name": "LOT - Polish Airlines", "iata": "LO", "icao": "LOT"}, {"name": "SWISS", "iata": "LX", "icao": "SWR"}]}, {"destination": {"icao": "LGAV", "iata": "ATH", "name": "Athens Eleftherios Venizelos", "shortName": "Eleftherios Venizelos", "municipalityName": "Athens", "location": {"lat": 37.9364, "lon": 23.944498}, "countryCode": "GR"}, "averageDailyFlights": 4.86, "operators": [{"name": "SWISS", "iata": "LX", "icao": "SWR"}, {"name": "Aegean Airlines", "iata": "A3", "icao": "AEE"}]}, {"destination": {"icao": "LIRQ", "iata": "FLR", "name": "Firenze Peretola", "shortName": "Peretola", "municipalityName": "Firenze", "location": {"lat": 43.81, "lon": 11.2051}, "countryCode": "IT"}, "averageDailyFlights": 4.57, "operators": [{"name": "SWISS", "iata": "LX", "icao": "SWR"}]}, {"destination": {"icao": "LTAI", "iata": "AYT", "name": "Antalya ", "shortName": "Antalya", "municipalityName": "Antalya", "location": {"lat": 36.8987, "lon": 30.8005}, "countryCode": "TR"}, "averageDailyFlights": 4.43, "operators": [{"name": "Corendon Air", "iata": "XC", "icao": "CAI"}, {"name": "Edelweiss Air", "iata": "WK", "icao": "EDW"}, {"name": "Sun Express", "iata": "XQ", "icao": "SXS"}, {"name": "Pegasus", "iata": "PC", "icao": "PGT"}, {"name": "Tailwind", "iata": "TI", "icao": "TWI"}]}, {"destination": {"icao": "EIDW", "iata": "DUB", "name": "Dublin ", "shortName": "Dublin", "municipalityName": "Dublin", "location": {"lat": 53.4213, "lon": -6.27007}, "countryCode": "IE"}, "averageDailyFlights": 4.43, "operators": [{"name": "SWISS", "iata": "LX", "icao": "SWR"}, {"name": "Aer Lingus", "iata": "EI", "icao": "EIN"}, {"name": "Cat Air Service Ag"}]}, {"destination": {"icao": "LPPR", "iata": "OPO", "name": "Porto Francisco de S\u00e1 Carneiro", "shortName": "Francisco de S\u00e1 Carneiro", "municipalityName": "Porto", "location": {"lat": 41.2481, "lon": -8.681389}, "countryCode": "PT"}, "averageDailyFlights": 4.43, "operators": [{"name": "SWISS", "iata": "LX", "icao": "SWR"}, {"name": "easyJet", "iata": "U2", "icao": "EZY"}, {"name": "TAP Air Portugal", "iata": "TP", "icao": "TAP"}]}, {"destination": {"icao": "BKPR", "iata": "PRN", "name": "Prishtina Pri\u0161tina", "shortName": "Pri\u0161tina", "municipalityName": "Prishtina", "location": {"lat": 42.5728, "lon": 21.0358}, "countryCode": "KS"}, "averageDailyFlights": 4.29, "operators": [{"name": "Chair Airlines", "iata": "GM", "icao": "GSW"}, {"name": "Edelweiss Air", "iata": "WK", "icao": "EDW"}, {"name": "Eurowings", "iata": "EW", "icao": "EWG"}]}, {"destination": {"icao": "ESSA", "iata": "ARN", "name": "Stockholm -Arlanda", "shortName": "-Arlanda", "municipalityName": "Stockholm", "location": {"lat": 59.6519, "lon": 17.9186}, "countryCode": "SE"}, "averageDailyFlights": 4.29, "operators": [{"name": "SWISS", "iata": "LX", "icao": "SWR"}, {"name": "SAS", "iata": "SK", "icao": "SAS"}]}, {"destination": {"icao": "LEMG", "iata": "AGP", "name": "M\u00e1laga ", "shortName": "M\u00e1laga", "municipalityName": "M\u00e1laga", "location": {"lat": 36.6749, "lon": -4.49911}, "countryCode": "ES"}, "averageDailyFlights": 4.14, "operators": [{"name": "SWISS", "iata": "LX", "icao": "SWR"}, {"name": "Vueling", "iata": "VY", "icao": "VLG"}, {"name": "Cat Aviation"}]}, {"destination": {"icao": "HEGN", "iata": "HRG", "name": "Hurghada ", "shortName": "Hurghada", "municipalityName": "Hurghada", "location": {"lat": 27.1783, "lon": 33.7994}, "countryCode": "EG"}, "averageDailyFlights": 4.0, "operators": [{"name": "Chair Airlines", "iata": "GM", "icao": "GSW"}, {"name": "Star East Airline", "iata": "4R", "icao": "SEK"}, {"name": "Air Cairo", "iata": "SM", "icao": "MSC"}, {"name": "Edelweiss Air", "iata": "WK", "icao": "EDW"}, {"name": "Nesma Airlines", "iata": "NE", "icao": "NMA"}, {"name": "Helvetic Airways", "iata": "2L", "icao": "OAW"}]}, {"destination": {"icao": "EBBR", "iata": "BRU", "name": "Brussels ", "shortName": "Brussels", "municipalityName": "Brussels", "location": {"lat": 50.9014, "lon": 4.484439}, "countryCode": "BE"}, "averageDailyFlights": 3.86, "operators": [{"name": "SWISS", "iata": "LX", "icao": "SWR"}, {"name": "Brussels Airlines", "iata": "SN", "icao": "BEL"}]}, {"destination": {"icao": "LKPR", "iata": "PRG", "name": "Prague Ruzyn\u011b", "shortName": "Ruzyn\u011b", "municipalityName": "Prague", "location": {"lat": 50.1008, "lon": 14.26}, "countryCode": "CZ"}, "averageDailyFlights": 3.71, "operators": [{"name": "Jet Aviation Ph"}, {"name": "SWISS", "iata": "LX", "icao": "SWR"}, {"name": "Cat Air Service Ag"}]}, {"destination": {"icao": "LLBG", "iata": "TLV", "name": "Tel Aviv Yafo Ben Gurion", "shortName": "Ben Gurion", "municipalityName": "Tel Aviv Yafo", "location": {"lat": 32.0114, "lon": 34.8867}, "countryCode": "IL"}, "averageDailyFlights": 3.71, "operators": [{"name": "El Al", "iata": "LY", "icao": "ELY"}, {"name": "SWISS", "iata": "LX", "icao": "SWR"}, {"name": "Cat Air Service Ag"}]}, {"destination": {"icao": "LHBP", "iata": "BUD", "name": "Budapest Ferenc Liszt", "shortName": "Ferenc Liszt", "municipalityName": "Budapest", "location": {"lat": 47.4369, "lon": 19.255598}, "countryCode": "HU"}, "averageDailyFlights": 3.43, "operators": [{"name": "SWISS", "iata": "LX", "icao": "SWR"}]}, {"destination": {"icao": "OMDB", "iata": "DXB", "name": "Dubai ", "shortName": "Dubai", "municipalityName": "Dubai", "location": {"lat": 25.252798, "lon": 55.3644}, "countryCode": "AE"}, "averageDailyFlights": 3.43, "operators": [{"name": "SWISS", "iata": "LX", "icao": "SWR"}, {"name": "Emirates", "iata": "EK", "icao": "UAE"}]}, {"destination": {"icao": "ENGM", "iata": "OSL", "name": "Oslo Gardermoen", "shortName": "Gardermoen", "municipalityName": "Oslo", "location": {"lat": 60.1939, "lon": 11.100399}, "countryCode": "NO"}, "averageDailyFlights": 3.43, "operators": [{"name": "SWISS", "iata": "LX", "icao": "SWR"}, {"name": "SAS", "iata": "SK", "icao": "SAS"}, {"name": "Cat Air Service Ag"}]}, {"destination": {"icao": "LIPZ", "iata": "VCE", "name": "Venice Marco Polo", "shortName": "Marco Polo", "municipalityName": "Venice", "location": {"lat": 45.5053, "lon": 12.3519}, "countryCode": "IT"}, "averageDailyFlights": 3.43, "operators": [{"name": "SWISS", "iata": "LX", "icao": "SWR"}, {"name": "Jet Aviation Business", "iata": "PP", "icao": "PJS"}]}, {"destination": {"icao": "KJFK", "iata": "JFK", "name": "New York John F Kennedy", "shortName": "John F Kennedy", "municipalityName": "New York", "location": {"lat": 40.6398, "lon": -73.7789}, "countryCode": "US"}, "averageDailyFlights": 3.29, "operators": [{"name": "SWISS", "iata": "LX", "icao": "SWR"}, {"name": "Delta Air Lines", "iata": "DL", "icao": "DAL"}]}, {"destination": {"icao": "LEVC", "iata": "VLC", "name": "Valencia ", "shortName": "Valencia", "municipalityName": "Valencia", "location": {"lat": 39.4893, "lon": -0.481624}, "countryCode": "ES"}, "averageDailyFlights": 3.0, "operators": [{"name": "SWISS", "iata": "LX", "icao": "SWR"}]}, {"destination": {"icao": "ELLX", "iata": "LUX", "name": "Luxembourg -Findel", "shortName": "-Findel", "municipalityName": "Luxembourg", "location": {"lat": 49.6266, "lon": 6.21152}, "countryCode": "LU"}, "averageDailyFlights": 2.86, "operators": [{"name": "SWISS", "iata": "LX", "icao": "SWR"}]}, {"destination": {"icao": "EDDS", "iata": "STR", "name": "Stuttgart ", "shortName": "Stuttgart", "municipalityName": "Stuttgart", "location": {"lat": 48.6899, "lon": 9.22196}, "countryCode": "DE"}, "averageDailyFlights": 2.86, "operators": [{"name": "SWISS", "iata": "LX", "icao": "SWR"}]}, {"destination": {"icao": "LTFJ", "iata": "SAW", "name": "Istanbul Sabiha G\u00f6k\u00e7en", "shortName": "Sabiha G\u00f6k\u00e7en", "municipalityName": "Istanbul", "location": {"lat": 40.8986, "lon": 29.3092}, "countryCode": "TR"}, "averageDailyFlights": 2.71, "operators": [{"name": "Jet Aviation Ph"}, {"name": "Pegasus", "iata": "PC", "icao": "PGT"}, {"name": "Turkish Airlines", "iata": "TK", "icao": "THY"}]}, {"destination": {"icao": "EDDV", "iata": "HAJ", "name": "Hanover Hannover", "shortName": "Hannover", "municipalityName": "Hanover", "location": {"lat": 52.4611, "lon": 9.685079}, "countryCode": "DE"}, "averageDailyFlights": 2.57, "operators": [{"name": "Jet Aviation Ph"}, {"name": "SWISS", "iata": "LX", "icao": "SWR"}]}, {"destination": {"icao": "VTBS", "iata": "BKK", "name": "Bangkok Suvarnabhumi", "shortName": "Suvarnabhumi", "municipalityName": "Bangkok", "location": {"lat": 13.681099, "lon": 100.747}, "countryCode": "TH"}, "averageDailyFlights": 2.29, "operators": [{"name": "Thai Airways International", "iata": "TG", "icao": "THA"}, {"name": "SWISS", "iata": "LX", "icao": "SWR"}]}, {"destination": {"icao": "LROP", "iata": "OTP", "name": "Bucharest Henri Coand\u0103", "shortName": "Henri Coand\u0103", "municipalityName": "Bucharest", "location": {"lat": 44.5722, "lon": 26.1022}, "countryCode": "RO"}, "averageDailyFlights": 2.29, "operators": [{"name": "SWISS", "iata": "LX", "icao": "SWR"}]}, {"destination": {"icao": "KORD", "iata": "ORD", "name": "Chicago O'Hare", "shortName": "O'Hare", "municipalityName": "Chicago", "location": {"lat": 41.9786, "lon": -87.9048}, "countryCode": "US"}, "averageDailyFlights": 2.29, "operators": [{"name": "United Airlines", "iata": "UA", "icao": "UAL"}, {"name": "SWISS", "iata": "LX", "icao": "SWR"}]}, {"destination": {"icao": "EDDK", "iata": "CGN", "name": "Cologne Bonn", "shortName": "Bonn", "municipalityName": "Cologne", "location": {"lat": 50.8659, "lon": 7.142739}, "countryCode": "DE"}, "averageDailyFlights": 2.29, "operators": [{"name": "Eurowings", "iata": "EW", "icao": "EWG"}]}, {"destination": {"icao": "ESGG", "iata": "GOT", "name": "Goteborg Gothenburg-Landvetter", "shortName": "Gothenburg-Landvetter", "municipalityName": "Goteborg", "location": {"lat": 57.6628, "lon": 12.2798}, "countryCode": "SE"}, "averageDailyFlights": 2.29, "operators": [{"name": "SWISS", "iata": "LX", "icao": "SWR"}]}, {"destination": {"icao": "EFHK", "iata": "HEL", "name": "Helsinki Vantaa", "shortName": "Vantaa", "municipalityName": "Helsinki", "location": {"lat": 60.3172, "lon": 24.9633}, "countryCode": "FI"}, "averageDailyFlights": 2.29, "operators": [{"name": "Finnair", "iata": "AY", "icao": "FIN"}]}, {"destination": {"icao": "LCLK", "iata": "LCA", "name": "Larnarca Larnaca", "shortName": "Larnaca", "municipalityName": "Larnarca", "location": {"lat": 34.8751, "lon": 33.6249}, "countryCode": "CY"}, "averageDailyFlights": 2.29, "operators": [{"name": "Jet Aviation Business", "iata": "PP", "icao": "PJS"}, {"name": "Edelweiss Air", "iata": "WK", "icao": "EDW"}, {"name": "Helvetic Airways", "iata": "2L", "icao": "OAW"}, {"name": "CYP"}, {"name": "Cyprus Airways", "iata": "CY"}, {"name": "Chair Airlines", "iata": "GM", "icao": "GSW"}]}, {"destination": {"icao": "EGCC", "iata": "MAN", "name": "Manchester ", "shortName": "Manchester", "municipalityName": "Manchester", "location": {"lat": 53.3537, "lon": -2.27495}, "countryCode": "GB"}, "averageDailyFlights": 2.29, "operators": [{"name": "SWISS", "iata": "LX", "icao": "SWR"}, {"name": "Cat Air Service Ag"}]}, {"destination": {"icao": "KEWR", "iata": "EWR", "name": "Newark Liberty", "shortName": "Liberty", "municipalityName": "Newark", "location": {"lat": 40.6925, "lon": -74.1687}, "countryCode": "US"}, "averageDailyFlights": 2.29, "operators": [{"name": "United Airlines", "iata": "UA", "icao": "UAL"}, {"name": "SWISS", "iata": "LX", "icao": "SWR"}]}, {"destination": {"icao": "EDDN", "iata": "NUE", "name": "Nuremberg ", "shortName": "Nuremberg", "municipalityName": "Nuremberg", "location": {"lat": 49.4987, "lon": 11.0669}, "countryCode": "DE"}, "averageDailyFlights": 2.29, "operators": [{"name": "Jet-Link"}, {"name": "Execujet"}, {"name": "SWISS", "iata": "LX", "icao": "SWR"}]}, {"destination": {"icao": "WSSS", "iata": "SIN", "name": "Singapore Changi", "shortName": "Changi", "municipalityName": "Singapore", "location": {"lat": 1.35019, "lon": 103.994}, "countryCode": "SG"}, "averageDailyFlights": 2.29, "operators": [{"name": "Singapore Airlines", "iata": "SQ", "icao": "SIA"}, {"name": "SWISS", "iata": "LX", "icao": "SWR"}]}, {"destination": {"icao": "LDZA", "iata": "ZAG", "name": "Zagreb ", "shortName": "Zagreb", "municipalityName": "Zagreb", "location": {"lat": 45.7429, "lon": 16.068798}, "countryCode": "HR"}, "averageDailyFlights": 2.29, "operators": [{"name": "Croatia Airlines", "iata": "OU", "icao": "CTN"}]}, {"destination": {"icao": "LSZH", "iata": "ZRH", "name": "Zurich Kloten", "shortName": "Kloten", "municipalityName": "Zurich", "location": {"lat": 47.4647, "lon": 8.549169}, "countryCode": "CH"}, "averageDailyFlights": 2.29, "operators": [{"name": "Fzag Gasc"}, {"name": "SWISS", "iata": "LX", "icao": "SWR"}, {"name": "Surf Air Execujet"}]}, {"destination": {"icao": "LWSK", "iata": "SKP", "name": "Skopje Alexander the Great", "shortName": "Alexander the Great", "municipalityName": "Skopje", "location": {"lat": 41.9616, "lon": 21.6214}, "countryCode": "MK"}, "averageDailyFlights": 2.14, "operators": [{"name": "Chair Airlines", "iata": "GM", "icao": "GSW"}, {"name": "Edelweiss Air", "iata": "WK", "icao": "EDW"}]}, {"destination": {"icao": "LGIR", "iata": "HER", "name": "Heraklion Nikos Kazantzakis", "shortName": "Nikos Kazantzakis", "municipalityName": "Heraklion", "location": {"lat": 35.3397, "lon": 25.1803}, "countryCode": "GR"}, "averageDailyFlights": 2.0, "operators": [{"name": "Helvetic Airways", "iata": "2L", "icao": "OAW"}, {"name": "Edelweiss Air", "iata": "WK", "icao": "EDW"}, {"name": "Aegean Airlines", "iata": "A3", "icao": "AEE"}, {"name": "Chair Airlines", "iata": "GM", "icao": "GSW"}]}, {"destination": {"icao": "LMML", "iata": "MLA", "name": "Luqa Malta", "shortName": "Malta", "municipalityName": "Luqa", "location": {"lat": 35.8575, "lon": 14.4775}, "countryCode": "MT"}, "averageDailyFlights": 2.0, "operators": [{"name": "Air Malta", "iata": "KM", "icao": "AMC"}, {"name": "Cat Air Service Ag"}, {"name": "SWISS", "iata": "LX", "icao": "SWR"}]}, {"destination": {"icao": "LIPE", "iata": "BLQ", "name": "Bologna Guglielmo Marconi", "shortName": "Guglielmo Marconi", "municipalityName": "Bologna", "location": {"lat": 44.5354, "lon": 11.2887}, "countryCode": "IT"}, "averageDailyFlights": 1.86, "operators": [{"name": "SWISS", "iata": "LX", "icao": "SWR"}]}, {"destination": {"icao": "GCLP", "iata": "LPA", "name": "Gran Canaria Island Gran Canaria", "shortName": "Gran Canaria", "municipalityName": "Gran Canaria Island", "location": {"lat": 27.9319, "lon": -15.386599}, "countryCode": "ES"}, "averageDailyFlights": 1.86, "operators": [{"name": "Edelweiss Air", "iata": "WK", "icao": "EDW"}, {"name": "Chair Airlines", "iata": "GM", "icao": "GSW"}]}, {"destination": {"name": "Cranfield"}, "averageDailyFlights": 1.86, "operators": [{"name": "Fzag Gasc"}, {"name": "Execujet"}, {"name": "Jet Aviation Ph"}]}, {"destination": {"icao": "LIBR", "iata": "BDS", "name": "Brindisi \u2013 Salento", "shortName": "\u2013 Salento", "municipalityName": "Brindisi", "location": {"lat": 40.6576, "lon": 17.947}, "countryCode": "IT"}, "averageDailyFlights": 1.71, "operators": [{"name": "SWISS", "iata": "LX", "icao": "SWR"}]}, {"destination": {"icao": "LICJ", "iata": "PMO", "name": "Palermo Falcone\u2013Borsellino", "shortName": "Falcone\u2013Borsellino", "municipalityName": "Palermo", "location": {"lat": 38.176, "lon": 13.090999}, "countryCode": "IT"}, "averageDailyFlights": 1.71, "operators": [{"name": "SWISS", "iata": "LX", "icao": "SWR"}]}, {"destination": {"icao": "GCTS", "iata": "TFS", "name": "Tenerife Island Tenerife South", "shortName": "Tenerife South", "municipalityName": "Tenerife Island", "location": {"lat": 28.0445, "lon": -16.5725}, "countryCode": "ES"}, "averageDailyFlights": 1.71, "operators": [{"name": "Edelweiss Air", "iata": "WK", "icao": "EDW"}, {"name": "Chair Airlines", "iata": "GM", "icao": "GSW"}]}, {"destination": {"icao": "KIAD", "iata": "IAD", "name": "District of Columbia Washington Dulles", "shortName": "Washington Dulles", "municipalityName": "District of Columbia", "location": {"lat": 38.9445, "lon": -77.4558}, "countryCode": "US"}, "averageDailyFlights": 1.57, "operators": [{"name": "United Airlines", "iata": "UA", "icao": "UAL"}]}, {"destination": {"icao": "OTHH", "iata": "DOH", "name": "Doha Hamad", "shortName": "Hamad", "municipalityName": "Doha", "location": {"lat": 25.273056, "lon": 51.608055}, "countryCode": "QA"}, "averageDailyFlights": 1.57, "operators": [{"name": "Qatar Airways", "iata": "QR", "icao": "QTR"}]}, {"destination": {"icao": "LIRN", "iata": "NAP", "name": "N\u00e1poli Naples", "shortName": "Naples", "municipalityName": "N\u00e1poli", "location": {"lat": 40.886, "lon": 14.2908}, "countryCode": "IT"}, "averageDailyFlights": 1.57, "operators": [{"name": "SWISS", "iata": "LX", "icao": "SWR"}]}, {"destination": {"icao": "KSFO", "iata": "SFO", "name": "San Francisco ", "shortName": "San Francisco", "municipalityName": "San Francisco", "location": {"lat": 37.619, "lon": -122.375}, "countryCode": "US"}, "averageDailyFlights": 1.57, "operators": [{"name": "SWISS", "iata": "LX", "icao": "SWR"}, {"name": "United Airlines", "iata": "UA", "icao": "UAL"}]}, {"destination": {"icao": "LGTS", "iata": "SKG", "name": "Thessaloniki Macedonia", "shortName": "Macedonia", "municipalityName": "Thessaloniki", "location": {"lat": 40.5197, "lon": 22.9709}, "countryCode": "GR"}, "averageDailyFlights": 1.57, "operators": [{"name": "Cat Air Service Ag"}, {"name": "SWISS", "iata": "LX", "icao": "SWR"}, {"name": "Aegean Airlines", "iata": "A3", "icao": "AEE"}]}, {"destination": {"icao": "LEAL", "iata": "ALC", "name": "Alicante ", "shortName": "Alicante", "municipalityName": "Alicante", "location": {"lat": 38.2822, "lon": -0.558156}, "countryCode": "ES"}, "averageDailyFlights": 1.43, "operators": [{"name": "SWISS", "iata": "LX", "icao": "SWR"}, {"name": "Vueling", "iata": "VY", "icao": "VLG"}]}, {"destination": {"icao": "EGBB", "iata": "BHX", "name": "Birmingham ", "shortName": "Birmingham", "municipalityName": "Birmingham", "location": {"lat": 52.4539, "lon": -1.748029}, "countryCode": "GB"}, "averageDailyFlights": 1.43, "operators": [{"name": "SWISS", "iata": "LX", "icao": "SWR"}, {"name": "Jet Aviation Ph"}]}, {"destination": {"icao": "LICC", "iata": "CTA", "name": "Catania -Fontanarossa", "shortName": "-Fontanarossa", "municipalityName": "Catania", "location": {"lat": 37.4668, "lon": 15.066399}, "countryCode": "IT"}, "averageDailyFlights": 1.43, "operators": [{"name": "Edelweiss Air", "iata": "WK", "icao": "EDW"}, {"name": "easyJet", "iata": "U2", "icao": "EZY"}, {"name": "Netjets"}]}, {"destination": {"icao": "VHHH", "iata": "HKG", "name": "Hong Kong Chek Lap Kok", "shortName": "Chek Lap Kok", "municipalityName": "Hong Kong", "location": {"lat": 22.3089, "lon": 113.915}, "countryCode": "HK"}, "averageDailyFlights": 1.43, "operators": [{"name": "SWISS", "iata": "LX", "icao": "SWR"}, {"name": "Cathay Pacific", "iata": "CX", "icao": "CPA"}]}, {"destination": {"icao": "LEIB", "iata": "IBZ", "name": "Ibiza Town Ibiza", "shortName": "Ibiza", "municipalityName": "Ibiza Town", "location": {"lat": 38.8729, "lon": 1.373119}, "countryCode": "ES"}, "averageDailyFlights": 1.43, "operators": [{"name": "Edelweiss Air", "iata": "WK", "icao": "EDW"}, {"name": "Chair Airlines", "iata": "GM", "icao": "GSW"}, {"name": "Execujet"}]}, {"destination": {"icao": "LJLJ", "iata": "LJU", "name": "Ljubljana Jo\u017ee Pu\u010dnik", "shortName": "Jo\u017ee Pu\u010dnik", "municipalityName": "Ljubljana", "location": {"lat": 46.2237, "lon": 14.457599}, "countryCode": "SI"}, "averageDailyFlights": 1.43, "operators": [{"name": "SWISS", "iata": "LX", "icao": "SWR"}]}, {"destination": {"icao": "KBOS", "iata": "BOS", "name": "Boston General Edward Lawrence Logan", "shortName": "General Edward Lawrence Logan", "municipalityName": "Boston", "location": {"lat": 42.3643, "lon": -71.0052}, "countryCode": "US"}, "averageDailyFlights": 1.29, "operators": [{"name": "SWISS", "iata": "LX", "icao": "SWR"}, {"name": "Vistajet Malta"}]}, {"destination": {"icao": "EDDC", "iata": "DRS", "name": "Dresden ", "shortName": "Dresden", "municipalityName": "Dresden", "location": {"lat": 51.1328, "lon": 13.7672}, "countryCode": "DE"}, "averageDailyFlights": 1.29, "operators": [{"name": "SWISS", "iata": "LX", "icao": "SWR"}]}, {"destination": {"icao": "EGGW", "iata": "LTN", "name": "London Luton", "shortName": "Luton", "municipalityName": "London", "location": {"lat": 51.8747, "lon": -0.368333}, "countryCode": "GB"}, "averageDailyFlights": 1.29, "operators": [{"name": "Vistajet Malta"}, {"name": "easyJet", "iata": "U2", "icao": "EZY"}, {"name": "Netjets"}, {"name": "Jet Aviation Ph"}]}, {"destination": {"icao": "EVRA", "iata": "RIX", "localCode": "\u0420\u0418\u0425", "name": "Riga ", "shortName": "Riga", "municipalityName": "Riga", "location": {"lat": 56.9236, "lon": 23.9711}, "countryCode": "LV"}, "averageDailyFlights": 1.29, "operators": [{"name": "airBaltic", "iata": "BT", "icao": "BTI"}]}, {"destination": {"icao": "LBSF", "iata": "SOF", "name": "Sofia ", "shortName": "Sofia", "municipalityName": "Sofia", "location": {"lat": 42.696693, "lon": 23.411436}, "countryCode": "BG"}, "averageDailyFlights": 1.29, "operators": [{"name": "SWISS", "iata": "LX", "icao": "SWR"}, {"name": "Jet Aviation Ph"}, {"name": "Bulgaria Air", "iata": "FB", "icao": "LZB"}]}, {"destination": {"icao": "OMAA", "iata": "AUH", "name": "Abu Dhabi Island and Internal Islands City Abu Dhabi", "shortName": "Abu Dhabi", "municipalityName": "Abu Dhabi Island and Internal Islands City", "location": {"lat": 24.433, "lon": 54.6511}, "countryCode": "AE"}, "averageDailyFlights": 1.14, "operators": [{"name": "Etihad Airways", "iata": "EY", "icao": "ETD"}]}, {"destination": {"icao": "EGPH", "iata": "EDI", "name": "Edinburgh ", "shortName": "Edinburgh", "municipalityName": "Edinburgh", "location": {"lat": 55.95, "lon": -3.372499}, "countryCode": "GB"}, "averageDailyFlights": 1.14, "operators": [{"name": "Edelweiss Air", "iata": "WK", "icao": "EDW"}, {"name": "Netjets"}]}, {"destination": {"icao": "EDNY", "iata": "FDH", "name": "Friedrichshafen ", "shortName": "Friedrichshafen", "municipalityName": "Friedrichshafen", "location": {"lat": 47.6713, "lon": 9.511489}, "countryCode": "DE"}, "averageDailyFlights": 1.14, "operators": [{"name": "Surf Air Execujet"}, {"name": "Fzag Gasc"}, {"name": "Jet Aviation Ph"}, {"name": "Execujet"}, {"name": "Motorfluggruppe Zrh"}]}, {"destination": {"icao": "FAOR", "iata": "JNB", "name": "Jo'anna OR Tambo", "shortName": "OR Tambo", "municipalityName": "Jo'anna", "location": {"lat": -26.1392, "lon": 28.246}, "countryCode": "ZA"}, "averageDailyFlights": 1.14, "operators": [{"name": "SWISS", "iata": "LX", "icao": "SWR"}]}, {"destination": {"icao": "EPKK", "iata": "KRK", "name": "Krak\u00f3w John Paul II   -Balice", "shortName": "John Paul II   -Balice", "municipalityName": "Krak\u00f3w", "location": {"lat": 50.0777, "lon": 19.7848}, "countryCode": "PL"}, "averageDailyFlights": 1.14, "operators": [{"name": "SWISS", "iata": "LX", "icao": "SWR"}]}, {"destination": {"icao": "LFML", "iata": "MRS", "name": "Marseille Provence", "shortName": "Provence", "municipalityName": "Marseille", "location": {"lat": 43.43927, "lon": 5.221424}, "countryCode": "FR"}, "averageDailyFlights": 1.14, "operators": [{"name": "Jet Aviation Ph"}, {"name": "Vistajet Malta"}, {"name": "SWISS", "iata": "LX", "icao": "SWR"}]}, {"destination": {"icao": "KMIA", "iata": "MIA", "name": "Miami ", "shortName": "Miami", "municipalityName": "Miami", "location": {"lat": 25.7932, "lon": -80.2906}, "countryCode": "US"}, "averageDailyFlights": 1.14, "operators": [{"name": "SWISS", "iata": "LX", "icao": "SWR"}]}, {"destination": {"icao": "CYUL", "iata": "YUL", "name": "Montreal Trudeau", "shortName": "Trudeau", "municipalityName": "Montreal", "location": {"lat": 45.4706, "lon": -73.7408}, "countryCode": "CA"}, "averageDailyFlights": 1.14, "operators": [{"name": "SWISS", "iata": "LX", "icao": "SWR"}]}, {"destination": {"icao": "VABB", "iata": "BOM", "name": "Mumbai Chhatrapati Shivaji", "shortName": "Chhatrapati Shivaji", "municipalityName": "Mumbai", "location": {"lat": 19.0887, "lon": 72.8679}, "countryCode": "IN"}, "averageDailyFlights": 1.14, "operators": [{"name": "SWISS", "iata": "LX", "icao": "SWR"}]}, {"destination": {"icao": "VIDP", "iata": "DEL", "name": "New Delhi Indira Gandhi", "shortName": "Indira Gandhi", "municipalityName": "New Delhi", "location": {"lat": 28.5665, "lon": 77.1031}, "countryCode": "IN"}, "averageDailyFlights": 1.14, "operators": [{"name": "SWISS", "iata": "LX", "icao": "SWR"}]}, {"destination": {"icao": "LFPB", "iata": "LBG", "name": "Paris -Le Bourget", "shortName": "-Le Bourget", "municipalityName": "Paris", "location": {"lat": 48.9694, "lon": 2.44139}, "countryCode": "FR"}, "averageDailyFlights": 1.14, "operators": [{"name": "Vistajet Malta"}, {"name": "Globe Air"}, {"name": "Ixair"}, {"name": "Cat Air Service Ag"}, {"name": "Netjets"}, {"name": "Jet Aviation Ph"}]}, {"destination": {"icao": "KPHL", "iata": "PHL", "name": "Philadelphia ", "shortName": "Philadelphia", "municipalityName": "Philadelphia", "location": {"lat": 39.8719, "lon": -75.2411}, "countryCode": "US"}, "averageDailyFlights": 1.14, "operators": [{"name": "American Airlines", "iata": "AA", "icao": "AAL"}]}, {"destination": {"icao": "SBGR", "iata": "GRU", "name": "S\u00e3o Paulo Guarulhos - Governador Andr\u00e9 Franco Montoro", "shortName": "Guarulhos - Governador Andr\u00e9 Franco Montoro", "municipalityName": "S\u00e3o Paulo", "location": {"lat": -23.435556, "lon": -46.473057}, "countryCode": "BR"}, "averageDailyFlights": 1.14, "operators": [{"name": "SWISS", "iata": "LX", "icao": "SWR"}]}, {"destination": {"icao": "CYYZ", "iata": "YYZ", "name": "Toronto Pearson", "shortName": "Pearson", "municipalityName": "Toronto", "location": {"lat": 43.6772, "lon": -79.6306}, "countryCode": "CA"}, "averageDailyFlights": 1.14, "operators": [{"name": "Air Canada", "iata": "AC", "icao": "ACA"}]}, {"destination": {"icao": "LFBD", "iata": "BOD", "name": "Bordeaux/M\u00e9rignac Bordeaux-M\u00e9rignac", "shortName": "Bordeaux-M\u00e9rignac", "municipalityName": "Bordeaux/M\u00e9rignac", "location": {"lat": 44.8283, "lon": -0.715556}, "countryCode": "FR"}, "averageDailyFlights": 1.0, "operators": [{"name": "SWISS", "iata": "LX", "icao": "SWR"}]}, {"destination": {"icao": "GCFV", "iata": "FUE", "name": "Fuerteventura Island Fuerteventura", "shortName": "Fuerteventura", "municipalityName": "Fuerteventura Island", "location": {"lat": 28.4527, "lon": -13.8638}, "countryCode": "ES"}, "averageDailyFlights": 1.0, "operators": [{"name": "Edelweiss Air", "iata": "WK", "icao": "EDW"}, {"name": "Chair Airlines", "iata": "GM", "icao": "GSW"}]}, {"destination": {"icao": "KLAX", "iata": "LAX", "name": "Los Angeles ", "shortName": "Los Angeles", "municipalityName": "Los Angeles", "location": {"lat": 33.9425, "lon": -118.408}, "countryCode": "US"}, "averageDailyFlights": 1.0, "operators": [{"name": "SWISS", "iata": "LX", "icao": "SWR"}]}, {"destination": {"icao": "BIKF", "iata": "KEF", "name": "Reykjavik Keflavik", "shortName": "Keflavik", "municipalityName": "Reykjavik", "location": {"lat": 63.985, "lon": -22.6056}, "countryCode": "IS"}, "averageDailyFlights": 1.0, "operators": [{"name": "Icelandair", "iata": "FI", "icao": "ICE"}, {"name": "Edelweiss Air", "iata": "WK", "icao": "EDW"}]}, {"destination": {"icao": "LPFR", "iata": "FAO", "name": "Faro ", "shortName": "Faro", "municipalityName": "Faro", "location": {"lat": 37.0144, "lon": -7.965909}, "countryCode": "PT"}, "averageDailyFlights": 0.86, "operators": [{"name": "Cat Air Service Ag"}, {"name": "Edelweiss Air", "iata": "WK", "icao": "EDW"}]}, {"destination": {"icao": "LTBJ", "iata": "ADB", "name": "\u0130zmir Adnan Menderes", "shortName": "Adnan Menderes", "municipalityName": "\u0130zmir", "location": {"lat": 38.2924, "lon": 27.157}, "countryCode": "TR"}, "averageDailyFlights": 0.86, "operators": [{"name": "Sun Express", "iata": "XQ", "icao": "SXS"}]}, {"destination": {"icao": "GMMX", "iata": "RAK", "name": "Marrakech Menara", "shortName": "Menara", "municipalityName": "Marrakech", "location": {"lat": 31.6069, "lon": -8.036299}, "countryCode": "MA"}, "averageDailyFlights": 0.86, "operators": [{"name": "Edelweiss Air", "iata": "WK", "icao": "EDW"}]}, {"destination": {"icao": "HEMA", "iata": "RMF", "name": "Marsa Alam ", "shortName": "Marsa Alam", "municipalityName": "Marsa Alam", "location": {"lat": 25.5571, "lon": 34.5837}, "countryCode": "EG"}, "averageDailyFlights": 0.86, "operators": [{"name": "Edelweiss Air", "iata": "WK", "icao": "EDW"}, {"name": "Chair Airlines", "iata": "GM", "icao": "GSW"}, {"name": "Air Cairo", "iata": "SM", "icao": "MSC"}]}, {"destination": {"icao": "OOMS", "iata": "MCT", "name": "Muscat ", "shortName": "Muscat", "municipalityName": "Muscat", "location": {"lat": 23.5933, "lon": 58.2844}, "countryCode": "OM"}, "averageDailyFlights": 0.86, "operators": [{"name": "Oman Air", "iata": "WY", "icao": "OMA"}, {"name": "Edelweiss Air", "iata": "WK", "icao": "EDW"}]}, {"destination": {"icao": "LEZL", "iata": "SVQ", "name": "Seville Sevilla", "shortName": "Sevilla", "municipalityName": "Seville", "location": {"lat": 37.418, "lon": -5.893109}, "countryCode": "ES"}, "averageDailyFlights": 0.86, "operators": [{"name": "Edelweiss Air", "iata": "WK", "icao": "EDW"}, {"name": "Enter Air", "iata": "E4", "icao": "ENT"}]}, {"destination": {"icao": "RJAA", "iata": "NRT", "name": "Tokyo Narita", "shortName": "Narita", "municipalityName": "Tokyo", "location": {"lat": 35.7647, "lon": 140.386}, "countryCode": "JP"}, "averageDailyFlights": 0.86, "operators": [{"name": "SWISS", "iata": "LX", "icao": "SWR"}]}, {"destination": {"icao": "EYVI", "iata": "VNO", "localCode": "\u0412\u0418\u041b", "name": "Vilnius ", "shortName": "Vilnius", "municipalityName": "Vilnius", "location": {"lat": 54.6341, "lon": 25.2858}, "countryCode": "LT"}, "averageDailyFlights": 0.86, "operators": [{"name": "Netjets"}, {"name": "SWISS", "iata": "LX", "icao": "SWR"}]}, {"destination": {"icao": "OJAI", "iata": "AMM", "name": "Amman Queen Alia", "shortName": "Queen Alia", "municipalityName": "Amman", "location": {"lat": 31.7226, "lon": 35.9932}, "countryCode": "JO"}, "averageDailyFlights": 0.71, "operators": [{"name": "Edelweiss Air", "iata": "WK", "icao": "EDW"}, {"name": "Royal Jordanian", "iata": "RJ", "icao": "RJA"}]}, {"destination": {"icao": "HECA", "iata": "CAI", "name": "Cairo ", "shortName": "Cairo", "municipalityName": "Cairo", "location": {"lat": 30.1219, "lon": 31.4056}, "countryCode": "EG"}, "averageDailyFlights": 0.71, "operators": [{"name": "SWISS", "iata": "LX", "icao": "SWR"}]}, {"destination": {"icao": "LPMA", "iata": "FNC", "name": "Funchal Madeira", "shortName": "Madeira", "municipalityName": "Funchal", "location": {"lat": 32.6979, "lon": -16.7745}, "countryCode": "PT"}, "averageDailyFlights": 0.71, "operators": [{"name": "Edelweiss Air", "iata": "WK", "icao": "EDW"}]}, {"destination": {"icao": "EGKB", "iata": "BQH", "name": "London Biggin Hill", "shortName": "Biggin Hill", "municipalityName": "London", "location": {"lat": 51.3308, "lon": 0.032499}, "countryCode": "GB"}, "averageDailyFlights": 0.71, "operators": [{"name": "Cat Air Service Ag"}, {"name": "Gama Aviation"}, {"name": "Globe Air"}]}, {"destination": {"icao": "RKSI", "iata": "ICN", "name": "Seoul Incheon", "shortName": "Incheon", "municipalityName": "Seoul", "location": {"lat": 37.4691, "lon": 126.451}, "countryCode": "KR"}, "averageDailyFlights": 0.71, "operators": [{"name": "Korean Air", "iata": "KE", "icao": "KAL"}]}, {"destination": {"icao": "LDSP", "iata": "SPU", "name": "Split ", "shortName": "Split", "municipalityName": "Split", "location": {"lat": 43.5389, "lon": 16.298}, "countryCode": "HR"}, "averageDailyFlights": 0.71, "operators": [{"name": "Edelweiss Air", "iata": "WK", "icao": "EDW"}, {"name": "Croatia Airlines", "iata": "OU", "icao": "CTN"}]}, {"destination": {"icao": "LEBB", "iata": "BIO", "name": "Bilbao ", "shortName": "Bilbao", "municipalityName": "Bilbao", "location": {"lat": 43.3011, "lon": -2.910609}, "countryCode": "ES"}, "averageDailyFlights": 0.57, "operators": [{"name": "Edelweiss Air", "iata": "WK", "icao": "EDW"}]}, {"destination": {"icao": "LIEE", "iata": "CAG", "name": "Cagliari Elmas", "shortName": "Elmas", "municipalityName": "Cagliari", "location": {"lat": 39.2515, "lon": 9.05428}, "countryCode": "IT"}, "averageDailyFlights": 0.57, "operators": [{"name": "Edelweiss Air", "iata": "WK", "icao": "EDW"}, {"name": "Vistajet Malta"}]}, {"destination": {"icao": "EGLF", "iata": "FAB", "name": "Farnborough ", "shortName": "Farnborough", "municipalityName": "Farnborough", "location": {"lat": 51.2758, "lon": -0.776332}, "countryCode": "GB"}, "averageDailyFlights": 0.57, "operators": [{"name": "Execujet"}, {"name": "Cat Air Service Ag"}, {"name": "Int. Jet Management"}, {"name": "Arcus Air"}]}, {"destination": {"icao": "EPGD", "iata": "GDN", "name": "Gda\u0144sk Lech Wa\u0142\u0119sa", "shortName": "Lech Wa\u0142\u0119sa", "municipalityName": "Gda\u0144sk", "location": {"lat": 54.3776, "lon": 18.4662}, "countryCode": "PL"}, "averageDailyFlights": 0.57, "operators": [{"name": "SWISS", "iata": "LX", "icao": "SWR"}]}, {"destination": {"icao": "EGPF", "iata": "GLA", "name": "Glasgow ", "shortName": "Glasgow", "municipalityName": "Glasgow", "location": {"lat": 55.8719, "lon": -4.43306}, "countryCode": "GB"}, "averageDailyFlights": 0.57, "operators": [{"name": "Cat Air Service Ag"}, {"name": "JPV"}, {"name": "Netjets"}, {"name": "Motorfluggruppe Zrh"}]}, {"destination": {"icao": "LFRS", "iata": "NTE", "name": "Nantes Atlantique", "shortName": "Atlantique", "municipalityName": "Nantes", "location": {"lat": 47.1532, "lon": -1.61073}, "countryCode": "FR"}, "averageDailyFlights": 0.57, "operators": [{"name": "SWISS", "iata": "LX", "icao": "SWR"}]}, {"destination": {"icao": "LYPG", "iata": "TGD", "name": "Podgorica ", "shortName": "Podgorica", "municipalityName": "Podgorica", "location": {"lat": 42.3594, "lon": 19.2519}, "countryCode": "ME"}, "averageDailyFlights": 0.57, "operators": [{"name": "Air Montenegro"}]}, {"destination": {"icao": "LQSA", "iata": "SJJ", "name": "Sarajevo ", "shortName": "Sarajevo", "municipalityName": "Sarajevo", "location": {"lat": 43.8246, "lon": 18.3315}, "countryCode": "BA"}, "averageDailyFlights": 0.57, "operators": [{"name": "SWISS", "iata": "LX", "icao": "SWR"}]}, {"destination": {"icao": "EETN", "iata": "TLL", "localCode": "TLL", "name": "Tallinn Lennart Meri", "shortName": "Lennart Meri", "municipalityName": "Tallinn", "location": {"lat": 59.4133, "lon": 24.8328}, "countryCode": "EE"}, "averageDailyFlights": 0.57, "operators": [{"name": "SWISS", "iata": "LX", "icao": "SWR"}]}, {"destination": {"icao": "LATI", "iata": "TIA", "name": "Tirana Mother Teresa", "shortName": "Mother Teresa", "municipalityName": "Tirana", "location": {"lat": 41.4147, "lon": 19.7206}, "countryCode": "AL"}, "averageDailyFlights": 0.57, "operators": [{"name": "SWISS", "iata": "LX", "icao": "SWR"}]}, {"destination": {"icao": "EDXW", "iata": "GWT", "name": "Westerland Sylt", "shortName": "Sylt", "municipalityName": "Westerland", "location": {"lat": 54.9132, "lon": 8.34047}, "countryCode": "DE"}, "averageDailyFlights": 0.57, "operators": [{"name": "Helvetic Airways", "iata": "2L", "icao": "OAW"}, {"name": "SWISS", "iata": "LX", "icao": "SWR"}]}, {"destination": {"icao": "LIBD", "iata": "BRI", "name": "Bari Karol Wojty\u0142a", "shortName": "Karol Wojty\u0142a", "municipalityName": "Bari", "location": {"lat": 41.1389, "lon": 16.7606}, "countryCode": "IT"}, "averageDailyFlights": 0.43, "operators": [{"name": "Edelweiss Air", "iata": "WK", "icao": "EDW"}]}, {"destination": {"icao": "EICK", "iata": "ORK", "name": "Cork ", "shortName": "Cork", "municipalityName": "Cork", "location": {"lat": 51.8413, "lon": -8.491109}, "countryCode": "IE"}, "averageDailyFlights": 0.43, "operators": [{"name": "Edelweiss Air", "iata": "WK", "icao": "EDW"}]}, {"destination": {"icao": "LDDU", "iata": "DBV", "name": "Dubrovnik ", "shortName": "Dubrovnik", "municipalityName": "Dubrovnik", "location": {"lat": 42.5614, "lon": 18.2682}, "countryCode": "HR"}, "averageDailyFlights": 0.43, "operators": [{"name": "Croatia Airlines", "iata": "OU", "icao": "CTN"}, {"name": "Edelweiss Air", "iata": "WK", "icao": "EDW"}]}, {"destination": {"icao": "LFKF", "iata": "FSC", "name": "Figari Sud-Corse ", "shortName": "Figari Sud-Corse", "municipalityName": "Figari Sud-Corse", "location": {"lat": 41.5006, "lon": 9.09778}, "countryCode": "FR"}, "averageDailyFlights": 0.43, "operators": [{"name": "Arcus Air"}, {"name": "Netjets"}, {"name": "Cat Air Service Ag"}]}, {"destination": {"icao": "LOWG", "iata": "GRZ", "name": "Graz ", "shortName": "Graz", "municipalityName": "Graz", "location": {"lat": 46.9911, "lon": 15.439599}, "countryCode": "AT"}, "averageDailyFlights": 0.43, "operators": [{"name": "SWISS", "iata": "LX", "icao": "SWR"}]}, {"destination": {"icao": "DTTJ", "iata": "DJE", "name": "Houmt El Souk Djerba Zarzis", "shortName": "Djerba Zarzis", "municipalityName": "Houmt El Souk", "location": {"lat": 33.875, "lon": 10.7755}, "countryCode": "TN"}, "averageDailyFlights": 0.43, "operators": [{"name": "Edelweiss Air", "iata": "WK", "icao": "EDW"}]}, {"destination": {"icao": "LOWI", "iata": "INN", "name": "Innsbruck ", "shortName": "Innsbruck", "municipalityName": "Innsbruck", "location": {"lat": 47.2602, "lon": 11.343999}, "countryCode": "AT"}, "averageDailyFlights": 0.43, "operators": [{"name": "Jet Aviation Ph"}, {"name": "Execujet"}]}, {"destination": {"icao": "LGKO", "iata": "KGS", "name": "Kos Island Kos", "shortName": "Kos", "municipalityName": "Kos Island", "location": {"lat": 36.7933, "lon": 27.0917}, "countryCode": "GR"}, "averageDailyFlights": 0.43, "operators": [{"name": "Edelweiss Air", "iata": "WK", "icao": "EDW"}]}, {"destination": {"icao": "GCRR", "iata": "ACE", "name": "Lanzarote Island Lanzarote", "shortName": "Lanzarote", "municipalityName": "Lanzarote Island", "location": {"lat": 28.9455, "lon": -13.605199}, "countryCode": "ES"}, "averageDailyFlights": 0.43, "operators": [{"name": "Edelweiss Air", "iata": "WK", "icao": "EDW"}]}, {"destination": {"icao": "LOWL", "iata": "LNZ", "name": "Linz ", "shortName": "Linz", "municipalityName": "Linz", "location": {"lat": 48.2332, "lon": 14.1875}, "countryCode": "AT"}, "averageDailyFlights": 0.43, "operators": [{"name": "Cat Air Service Ag"}]}, {"destination": {"icao": "VRMM", "iata": "MLE", "name": "Mal\u00e9 ", "shortName": "Mal\u00e9", "municipalityName": "Mal\u00e9", "location": {"lat": 4.19183, "lon": 73.5291}, "countryCode": "MV"}, "averageDailyFlights": 0.43, "operators": [{"name": "Edelweiss Air", "iata": "WK", "icao": "EDW"}]}, {"destination": {"icao": "LWOH", "iata": "OHD", "name": "Ohrid St. Paul the Apostle", "shortName": "St. Paul the Apostle", "municipalityName": "Ohrid", "location": {"lat": 41.18, "lon": 20.7423}, "countryCode": "MK"}, "averageDailyFlights": 0.43, "operators": [{"name": "Chair Airlines", "iata": "GM", "icao": "GSW"}, {"name": "Helvetic Airways", "iata": "2L", "icao": "OAW"}]}, {"destination": {"icao": "OERK", "iata": "RUH", "name": "Riyadh King Khaled", "shortName": "King Khaled", "municipalityName": "Riyadh", "location": {"lat": 24.9576, "lon": 46.6988}, "countryCode": "SA"}, "averageDailyFlights": 0.43, "operators": [{"name": "Saudi Arabian Airlines", "iata": "SV", "icao": "SVA"}]}, {"destination": {"icao": "MROC", "iata": "SJO", "name": "San Jos\u00e9 Juan Santamaria", "shortName": "Juan Santamaria", "municipalityName": "San Jos\u00e9", "location": {"lat": 9.99386, "lon": -84.2088}, "countryCode": "CR"}, "averageDailyFlights": 0.43, "operators": [{"name": "Edelweiss Air", "iata": "WK", "icao": "EDW"}]}, {"destination": {"icao": "LGSR", "iata": "JTR", "name": "Santorini Island Santorini", "shortName": "Santorini", "municipalityName": "Santorini Island", "location": {"lat": 36.3992, "lon": 25.4793}, "countryCode": "GR"}, "averageDailyFlights": 0.43, "operators": [{"name": "Edelweiss Air", "iata": "WK", "icao": "EDW"}]}, {"destination": {"icao": "ZSPD", "iata": "PVG", "name": "Shanghai Pudong", "shortName": "Pudong", "municipalityName": "Shanghai", "location": {"lat": 31.1434, "lon": 121.805}, "countryCode": "CN"}, "averageDailyFlights": 0.43, "operators": [{"name": "SWISS", "iata": "LX", "icao": "SWR"}]}, {"destination": {"icao": "HESH", "iata": "SSH", "name": "Sharm el Sheikh ", "shortName": "Sharm el Sheikh", "municipalityName": "Sharm el Sheikh", "location": {"lat": 27.9773, "lon": 34.395}, "countryCode": "EG"}, "averageDailyFlights": 0.43, "operators": [{"name": "Edelweiss Air", "iata": "WK", "icao": "EDW"}]}, {"destination": {"icao": "LFBT", "iata": "LDE", "name": "Tarbes/Lourdes/Pyr\u00e9n\u00e9es Tarbes-Lourdes-Pyr\u00e9n\u00e9es", "shortName": "Tarbes-Lourdes-Pyr\u00e9n\u00e9es", "municipalityName": "Tarbes/Lourdes/Pyr\u00e9n\u00e9es", "location": {"lat": 43.1787, "lon": -0.006438}, "countryCode": "FR"}, "averageDailyFlights": 0.43, "operators": [{"name": "Enter Air", "iata": "E4", "icao": "ENT"}, {"name": "SundAir", "iata": "SR", "icao": "SDR"}]}, {"destination": {"icao": "LTAC", "iata": "ESB", "name": "Ankara Esenbo\u011fa", "shortName": "Esenbo\u011fa", "municipalityName": "Ankara", "location": {"lat": 40.1281, "lon": 32.9951}, "countryCode": "TR"}, "averageDailyFlights": 0.29, "operators": [{"name": "Sun Express", "iata": "XQ", "icao": "SXS"}]}, {"destination": {"icao": "UBBB", "iata": "GYD", "localCode": "\u0411\u0410\u041a", "name": "Baku Heydar Aliyev", "shortName": "Heydar Aliyev", "municipalityName": "Baku", "location": {"lat": 40.4675, "lon": 50.0467}, "countryCode": "AZ"}, "averageDailyFlights": 0.29, "operators": [{"name": "Jet Aviation Ph"}, {"name": "Edelweiss Air", "iata": "WK", "icao": "EDW"}]}, {"destination": {"icao": "OLBA", "iata": "BEY", "name": "Beirut Rafic Hariri", "shortName": "Rafic Hariri", "municipalityName": "Beirut", "location": {"lat": 33.8209, "lon": 35.4884}, "countryCode": "LB"}, "averageDailyFlights": 0.29, "operators": [{"name": "SWISS", "iata": "LX", "icao": "SWR"}]}, {"destination": {"icao": "EKBI", "iata": "BLL", "name": "Billund ", "shortName": "Billund", "municipalityName": "Billund", "location": {"lat": 55.7403, "lon": 9.15178}, "countryCode": "DK"}, "averageDailyFlights": 0.29, "operators": [{"name": "Jet Aviation Ph"}]}, {"destination": {"icao": "LIPB", "iata": "BZO", "name": "Bolzano ", "shortName": "Bolzano", "municipalityName": "Bolzano", "location": {"lat": 46.4602, "lon": 11.326399}, "countryCode": "IT"}, "averageDailyFlights": 0.29, "operators": [{"name": "Motorfluggruppe Zrh"}, {"name": "Jet Aviation Ph"}]}, {"destination": {"icao": "EGGD", "iata": "BRS", "name": "Bristol ", "shortName": "Bristol", "municipalityName": "Bristol", "location": {"lat": 51.3827, "lon": -2.719089}, "countryCode": "GB"}, "averageDailyFlights": 0.29, "operators": [{"name": "SWISS", "iata": "LX", "icao": "SWR"}]}, {"destination": {"icao": "MMUN", "iata": "CUN", "name": "Canc\u00fan ", "shortName": "Canc\u00fan", "municipalityName": "Canc\u00fan", "location": {"lat": 21.0365, "lon": -86.8771}, "countryCode": "MX"}, "averageDailyFlights": 0.29, "operators": [{"name": "Edelweiss Air", "iata": "WK", "icao": "EDW"}]}, {"destination": {"icao": "FACT", "iata": "CPT", "name": "Cape Town ", "shortName": "Cape Town", "municipalityName": "Cape Town", "location": {"lat": -33.9648, "lon": 18.6017}, "countryCode": "ZA"}, "averageDailyFlights": 0.29, "operators": [{"name": "Edelweiss Air", "iata": "WK", "icao": "EDW"}]}, {"destination": {"icao": "LTBS", "iata": "DLM", "name": "Dalaman ", "shortName": "Dalaman", "municipalityName": "Dalaman", "location": {"lat": 36.7131, "lon": 28.7925}, "countryCode": "TR"}, "averageDailyFlights": 0.29, "operators": [{"name": "Sun Express", "iata": "XQ", "icao": "SXS"}]}, {"destination": {"icao": "LGKL", "iata": "KLX", "name": "Kalamata ", "shortName": "Kalamata", "municipalityName": "Kalamata", "location": {"lat": 37.0683, "lon": 22.0255}, "countryCode": "GR"}, "averageDailyFlights": 0.29, "operators": [{"name": "Edelweiss Air", "iata": "WK", "icao": "EDW"}]}, {"destination": {"icao": "LGKR", "iata": "CFU", "name": "Kerkyra Island Ioannis Kapodistrias", "shortName": "Ioannis Kapodistrias", "municipalityName": "Kerkyra Island", "location": {"lat": 39.6019, "lon": 19.9117}, "countryCode": "GR"}, "averageDailyFlights": 0.29, "operators": [{"name": "Edelweiss Air", "iata": "WK", "icao": "EDW"}]}, {"destination": {"icao": "KLAS", "iata": "LAS", "name": "Las Vegas McCarran", "shortName": "McCarran", "municipalityName": "Las Vegas", "location": {"lat": 36.0801, "lon": -115.152}, "countryCode": "US"}, "averageDailyFlights": 0.29, "operators": [{"name": "Edelweiss Air", "iata": "WK", "icao": "EDW"}]}, {"destination": {"icao": "LIML", "iata": "LIN", "name": "Milan Linate", "shortName": "Linate", "municipalityName": "Milan", "location": {"lat": 45.4451, "lon": 9.27674}, "countryCode": "IT"}, "averageDailyFlights": 0.29, "operators": [{"name": "Vistajet Malta"}, {"name": "Lions Air"}]}, {"destination": {"icao": "LIEO", "iata": "OLB", "name": "Olbia Costa Smeralda", "shortName": "Costa Smeralda", "municipalityName": "Olbia", "location": {"lat": 40.8987, "lon": 9.517629}, "countryCode": "IT"}, "averageDailyFlights": 0.29, "operators": [{"name": "Netjets"}, {"name": "Edelweiss Air", "iata": "WK", "icao": "EDW"}]}, {"destination": {"icao": "LDPL", "iata": "PUY", "name": "Pula ", "shortName": "Pula", "municipalityName": "Pula", "location": {"lat": 44.8935, "lon": 13.9222}, "countryCode": "HR"}, "averageDailyFlights": 0.29, "operators": [{"name": "Cat Air Service Ag"}, {"name": "Edelweiss Air", "iata": "WK", "icao": "EDW"}]}, {"destination": {"icao": "MDPC", "iata": "PUJ", "name": "Punta Cana ", "shortName": "Punta Cana", "municipalityName": "Punta Cana", "location": {"lat": 18.567398, "lon": -68.3634}, "countryCode": "DO"}, "averageDailyFlights": 0.29, "operators": [{"name": "Edelweiss Air", "iata": "WK", "icao": "EDW"}]}, {"destination": {"icao": "LIRA", "iata": "CIA", "name": "Roma Ciampino\u2013G. B. Pastine", "shortName": "Ciampino\u2013G. B. Pastine", "municipalityName": "Roma", "location": {"lat": 41.7994, "lon": 12.5949}, "countryCode": "IT"}, "averageDailyFlights": 0.29, "operators": [{"name": "Vistajet Malta"}, {"name": "Cat Air Service Ag"}]}, {"destination": {"icao": "LOWS", "iata": "SZG", "name": "Salzburg ", "shortName": "Salzburg", "municipalityName": "Salzburg", "location": {"lat": 47.7933, "lon": 13.0043}, "countryCode": "AT"}, "averageDailyFlights": 0.29, "operators": [{"name": "Albinati Aeronautics"}, {"name": "Netjets"}]}, {"destination": {"icao": "LEST", "iata": "SCQ", "name": "Santiago de Compostela ", "shortName": "Santiago de Compostela", "municipalityName": "Santiago de Compostela", "location": {"lat": 42.8963, "lon": -8.41514}, "countryCode": "ES"}, "averageDailyFlights": 0.29, "operators": [{"name": "Vueling", "iata": "VY", "icao": "VLG"}]}, {"destination": {"icao": "KTPA", "iata": "TPA", "name": "Tampa ", "shortName": "Tampa", "municipalityName": "Tampa", "location": {"lat": 27.9755, "lon": -82.5332}, "countryCode": "US"}, "averageDailyFlights": 0.29, "operators": [{"name": "Edelweiss Air", "iata": "WK", "icao": "EDW"}]}, {"destination": {"icao": "KPBI", "iata": "PBI", "name": "West Palm Beach Palm Beach", "shortName": "Palm Beach", "municipalityName": "West Palm Beach", "location": {"lat": 26.6832, "lon": -80.0956}, "countryCode": "US"}, "averageDailyFlights": 0.29, "operators": [{"name": "Execujet"}, {"name": "Jet Aviation Ph"}]}, {"destination": {"icao": "EPWR", "iata": "WRO", "name": "Wroc\u0142aw Copernicus", "shortName": "Copernicus", "municipalityName": "Wroc\u0142aw", "location": {"lat": 51.1027, "lon": 16.8858}, "countryCode": "PL"}, "averageDailyFlights": 0.29, "operators": [{"name": "SWISS", "iata": "LX", "icao": "SWR"}]}, {"destination": {"icao": "LFKJ", "iata": "AJA", "name": "Ajaccio/Napol\u00e9on Bonaparte Ajaccio-Napol\u00e9on Bonaparte", "shortName": "Ajaccio-Napol\u00e9on Bonaparte", "municipalityName": "Ajaccio/Napol\u00e9on Bonaparte", "location": {"lat": 41.9236, "lon": 8.80292}, "countryCode": "FR"}, "averageDailyFlights": 0.14, "operators": [{"name": "Jet-Link"}]}, {"destination": {"icao": "UAAA", "iata": "ALA", "localCode": "\u0410\u041b\u0410", "name": "Almaty ", "shortName": "Almaty", "municipalityName": "Almaty", "location": {"lat": 43.3521, "lon": 77.0405}, "countryCode": "KZ"}, "averageDailyFlights": 0.14, "operators": [{"name": "Jet Aviation Ph"}]}, {"destination": {"icao": "LSZR", "iata": "ACH", "name": "Altenrhein St Gallen", "shortName": "St Gallen", "municipalityName": "Altenrhein", "location": {"lat": 47.485, "lon": 9.56077}, "countryCode": "CH"}, "averageDailyFlights": 0.14, "operators": [{"name": "Motorfluggruppe Zrh"}]}, {"destination": {"icao": "EBAW", "iata": "ANR", "name": "Antwerp (Deurne)", "shortName": "(Deurne)", "municipalityName": "Antwerp", "location": {"lat": 51.1894, "lon": 4.460279}, "countryCode": "BE"}, "averageDailyFlights": 0.14, "operators": [{"name": "Flying Service"}]}, {"destination": {"icao": "EDSB", "iata": "FKB", "name": "Baden-Baden Karlsruhe", "shortName": "Karlsruhe", "municipalityName": "Baden-Baden", "location": {"lat": 48.7794, "lon": 8.080499}, "countryCode": "DE"}, "averageDailyFlights": 0.14, "operators": [{"name": "Execujet"}]}, {"destination": {"icao": "LFSB", "iata": "BSL", "name": "B\u00e2le/Mulhouse Euro Basel-Mulhouse-Freiburg", "shortName": "Euro Basel-Mulhouse-Freiburg", "municipalityName": "B\u00e2le/Mulhouse", "location": {"lat": 47.5896, "lon": 7.52991}, "countryCode": "FR"}, "averageDailyFlights": 0.14, "operators": [{"name": "Jet Aviation Ph"}]}, {"destination": {"icao": "LFKB", "iata": "BIA", "name": "Bastia/Poretta Bastia-Poretta", "shortName": "Bastia-Poretta", "municipalityName": "Bastia/Poretta", "location": {"lat": 42.5527, "lon": 9.48373}, "countryCode": "FR"}, "averageDailyFlights": 0.14, "operators": [{"name": "Netjets"}]}, {"destination": {"icao": "LPBJ", "iata": "BYJ", "name": "Beja ", "shortName": "Beja", "municipalityName": "Beja", "location": {"lat": 38.0789, "lon": -7.9324}, "countryCode": "PT"}, "averageDailyFlights": 0.14, "operators": [{"name": "Netjets"}]}, {"destination": {"icao": "LSZB", "iata": "BRN", "name": "Berne Bern Belp", "shortName": "Bern Belp", "municipalityName": "Berne", "location": {"lat": 46.9141, "lon": 7.497149}, "countryCode": "CH"}, "averageDailyFlights": 0.14, "operators": [{"name": "Jet Aviation Ph"}]}, {"destination": {"icao": "LDSB", "iata": "BWK", "name": "Bra\u010d Island Bol", "shortName": "Bol", "municipalityName": "Bra\u010d Island", "location": {"lat": 43.2857, "lon": 16.6797}, "countryCode": "HR"}, "averageDailyFlights": 0.14, "operators": [{"name": "Cat Air Service Ag"}]}, {"destination": {"icao": "EDDW", "iata": "BRE", "name": "Bremen ", "shortName": "Bremen", "municipalityName": "Bremen", "location": {"lat": 53.0475, "lon": 8.786669}, "countryCode": "DE"}, "averageDailyFlights": 0.14, "operators": [{"name": "Cat Air Service Ag"}]}, {"destination": {"icao": "LSZC", "iata": "BXO", "name": "Buochs ", "shortName": "Buochs", "municipalityName": "Buochs", "location": {"lat": 46.974445, "lon": 8.396944}, "countryCode": "CH"}, "averageDailyFlights": 0.14, "operators": [{"name": "Cat Aviation"}]}, {"destination": {"icao": "LFMD", "iata": "CEQ", "name": "Cannes/Mandelieu Cannes-Mandelieu", "shortName": "Cannes-Mandelieu", "municipalityName": "Cannes/Mandelieu", "location": {"lat": 43.542, "lon": 6.953479}, "countryCode": "FR"}, "averageDailyFlights": 0.14, "operators": [{"name": "Arcus Air"}]}, {"destination": {"icao": "MYCB", "iata": "CAT", "name": "Cat Island New Bight", "shortName": "New Bight", "municipalityName": "Cat Island", "location": {"lat": 24.315298, "lon": -75.4523}, "countryCode": "BS"}, "averageDailyFlights": 0.14, "operators": [{"name": "Cat Air Service Ag"}]}, {"destination": {"icao": "KCMI", "iata": "CMI", "name": "Champaign/Urbana University of Illinois Willard", "shortName": "University of Illinois Willard", "municipalityName": "Champaign/Urbana", "location": {"lat": 40.0392, "lon": -88.2781}, "countryCode": "US"}, "averageDailyFlights": 0.14, "operators": [{"name": "Jet Aviation Ph"}]}, {"destination": {"icao": "LFLX", "iata": "CHR", "name": "Ch\u00e2teauroux/D\u00e9ols Ch\u00e2teauroux-D\u00e9ols Marcel Dassault", "shortName": "Ch\u00e2teauroux-D\u00e9ols Marcel Dassault", "municipalityName": "Ch\u00e2teauroux/D\u00e9ols", "location": {"lat": 46.8622, "lon": 1.730669}, "countryCode": "FR"}, "averageDailyFlights": 0.14, "operators": [{"name": "SWISS", "iata": "LX", "icao": "SWR"}]}, {"destination": {"icao": "RJCC", "iata": "CTS", "name": "Chitose / Tomakomai New Chitose", "shortName": "New Chitose", "municipalityName": "Chitose / Tomakomai", "location": {"lat": 42.7752, "lon": 141.692}, "countryCode": "JP"}, "averageDailyFlights": 0.14, "operators": [{"name": "Jet Aviation Ph"}]}, {"destination": {"icao": "LICB", "iata": "CIY", "name": "Comiso ", "shortName": "Comiso", "municipalityName": "Comiso", "location": {"lat": 36.994602, "lon": 14.607181}, "countryCode": "IT"}, "averageDailyFlights": 0.14, "operators": [{"name": "Proair Aviation"}]}, {"destination": {"icao": "MUHA", "iata": "HAV", "name": "Havana Jos\u00e9 Mart\u00ed", "shortName": "Jos\u00e9 Mart\u00ed", "municipalityName": "Havana", "location": {"lat": 22.9892, "lon": -82.4091}, "countryCode": "CU"}, "averageDailyFlights": 0.14, "operators": [{"name": "Edelweiss Air", "iata": "WK", "icao": "EDW"}]}, {"destination": {"icao": "KHOU", "iata": "HOU", "name": "Houston William P Hobby", "shortName": "William P Hobby", "municipalityName": "Houston", "location": {"lat": 29.6454, "lon": -95.2789}, "countryCode": "US"}, "averageDailyFlights": 0.14, "operators": [{"name": "Vistajet Malta"}]}, {"destination": {"icao": "LTFM", "iata": "IST", "name": "Istanbul ", "shortName": "Istanbul", "municipalityName": "Istanbul", "location": {"lat": 41.275276, "lon": 28.751944}, "countryCode": "TR"}, "averageDailyFlights": 0.14, "operators": [{"name": "Comlux Malta"}]}, {"destination": {"icao": "OEJN", "iata": "JED", "name": "Jeddah King Abdulaziz", "shortName": "King Abdulaziz", "municipalityName": "Jeddah", "location": {"lat": 21.6796, "lon": 39.1565}, "countryCode": "SA"}, "averageDailyFlights": 0.14, "operators": [{"name": "SmartWings", "iata": "QS", "icao": "TVS"}]}, {"destination": {"icao": "EDVK", "iata": "KSF", "name": "Kassel -Calden", "shortName": "-Calden", "municipalityName": "Kassel", "location": {"lat": 51.408333, "lon": 9.377499}, "countryCode": "DE"}, "averageDailyFlights": 0.14, "operators": [{"name": "Chair Airlines", "iata": "GM", "icao": "GSW"}]}, {"destination": {"icao": "EGTK", "iata": "OXF", "name": "Kidlington Oxford ()", "shortName": "Oxford ()", "municipalityName": "Kidlington", "location": {"lat": 51.8369, "lon": -1.32}, "countryCode": "GB"}, "averageDailyFlights": 0.14, "operators": [{"name": "Execujet"}]}, {"destination": {"icao": "LFTZ", "iata": "LTT", "name": "La M\u00f4le ", "shortName": "La M\u00f4le", "municipalityName": "La M\u00f4le", "location": {"lat": 43.2054, "lon": 6.481999}, "countryCode": "FR"}, "averageDailyFlights": 0.14, "operators": [{"name": "Cat Air Service Ag"}]}, {"destination": {"icao": "LICA", "iata": "SUF", "name": "Lamezia Terme ", "shortName": "Lamezia Terme", "municipalityName": "Lamezia Terme", "location": {"lat": 38.9054, "lon": 16.2423}, "countryCode": "IT"}, "averageDailyFlights": 0.14, "operators": [{"name": "Edelweiss Air", "iata": "WK", "icao": "EDW"}]}, {"destination": {"icao": "LFOV", "iata": "LVA", "name": "Laval/Entrammes Laval-Entrammes", "shortName": "Laval-Entrammes", "municipalityName": "Laval/Entrammes", "location": {"lat": 48.0314, "lon": -0.742986}, "countryCode": "FR"}, "averageDailyFlights": 0.14, "operators": [{"name": "Jet Aviation Ph"}]}, {"destination": {"icao": "LSZA", "iata": "LUG", "name": "Lugano ", "shortName": "Lugano", "municipalityName": "Lugano", "location": {"lat": 46.0043, "lon": 8.910579}, "countryCode": "CH"}, "averageDailyFlights": 0.14, "operators": [{"name": "Cat Air Service Ag"}]}, {"destination": {"icao": "HELX", "iata": "LXR", "name": "Luxor ", "shortName": "Luxor", "municipalityName": "Luxor", "location": {"lat": 25.671, "lon": 32.7066}, "countryCode": "EG"}, "averageDailyFlights": 0.14, "operators": [{"name": "Edelweiss Air", "iata": "WK", "icao": "EDW"}]}, {"destination": {"icao": "EHBK", "iata": "MST", "name": "Maastricht Aachen", "shortName": "Aachen", "municipalityName": "Maastricht", "location": {"lat": 50.9117, "lon": 5.77014}, "countryCode": "NL"}, "averageDailyFlights": 0.14, "operators": [{"name": "SWISS", "iata": "LX", "icao": "SWR"}]}, {"destination": {"icao": "FSIA", "iata": "SEZ", "name": "Mahe Island Seychelles", "shortName": "Seychelles", "municipalityName": "Mahe Island", "location": {"lat": -4.674339, "lon": 55.5218}, "countryCode": "SC"}, "averageDailyFlights": 0.14, "operators": [{"name": "Edelweiss Air", "iata": "WK", "icao": "EDW"}]}, {"destination": {"icao": "EDFM", "iata": "MHG", "name": "Mannheim -City", "shortName": "-City", "municipalityName": "Mannheim", "location": {"lat": 49.473057, "lon": 8.514166}, "countryCode": "DE"}, "averageDailyFlights": 0.14, "operators": [{"name": "Jet Aviation Ph"}]}, {"destination": {"icao": "MKJS", "iata": "MBJ", "name": "Montego Bay Sangster", "shortName": "Sangster", "municipalityName": "Montego Bay", "location": {"lat": 18.5037, "lon": -77.9134}, "countryCode": "JM"}, "averageDailyFlights": 0.14, "operators": [{"name": "Edelweiss Air", "iata": "WK", "icao": "EDW"}]}, {"destination": {"icao": "LFMT", "iata": "MPL", "name": "Montpellier/M\u00e9diterran\u00e9e Montpellier-M\u00e9diterran\u00e9e", "shortName": "Montpellier-M\u00e9diterran\u00e9e", "municipalityName": "Montpellier/M\u00e9diterran\u00e9e", "location": {"lat": 43.5762, "lon": 3.96301}, "countryCode": "FR"}, "averageDailyFlights": 0.14, "operators": [{"name": "Netjets"}]}, {"destination": {"icao": "KMMU", "iata": "MMU", "name": "Morristown Municipal", "shortName": "Municipal", "municipalityName": "Morristown", "location": {"lat": 40.7994, "lon": -74.4149}, "countryCode": "US"}, "averageDailyFlights": 0.14, "operators": [{"name": "Cat Aviation"}]}, {"destination": {"icao": "EDLP", "iata": "PAD", "name": "Paderborn Lippstadt", "shortName": "Lippstadt", "municipalityName": "Paderborn", "location": {"lat": 51.6141, "lon": 8.616319}, "countryCode": "DE"}, "averageDailyFlights": 0.14, "operators": [{"name": "Globe Air"}]}, {"destination": {"icao": "VTSP", "iata": "HKT", "name": "Phuket ", "shortName": "Phuket", "municipalityName": "Phuket", "location": {"lat": 8.1132, "lon": 98.3169}, "countryCode": "TH"}, "averageDailyFlights": 0.14, "operators": [{"name": "Edelweiss Air", "iata": "WK", "icao": "EDW"}]}, {"destination": {"icao": "LIRP", "iata": "PSA", "name": "Pisa ", "shortName": "Pisa", "municipalityName": "Pisa", "location": {"lat": 43.6839, "lon": 10.3927}, "countryCode": "IT"}, "averageDailyFlights": 0.14, "operators": [{"name": "Abelag Aviation"}]}, {"destination": {"icao": "LPPD", "iata": "PDL", "name": "Ponta Delgada Jo\u00e3o Paulo II", "shortName": "Jo\u00e3o Paulo II", "municipalityName": "Ponta Delgada", "location": {"lat": 37.7412, "lon": -25.6979}, "countryCode": "PT"}, "averageDailyFlights": 0.14, "operators": [{"name": "Edelweiss Air", "iata": "WK", "icao": "EDW"}]}, {"destination": {"icao": "FIMP", "iata": "MRU", "name": "Port Louis Sir Seewoosagur Ramgoolam", "shortName": "Sir Seewoosagur Ramgoolam", "municipalityName": "Port Louis", "location": {"lat": -20.4302, "lon": 57.6836}, "countryCode": "MU"}, "averageDailyFlights": 0.14, "operators": [{"name": "Edelweiss Air", "iata": "WK", "icao": "EDW"}]}, {"destination": {"icao": "MBPV", "iata": "PLS", "name": "Providenciales Island Providenciales", "shortName": "Providenciales", "municipalityName": "Providenciales Island", "location": {"lat": 21.7736, "lon": -72.2659}, "countryCode": "TC"}, "averageDailyFlights": 0.14, "operators": [{"name": "Int. Jet Management"}]}, {"destination": {"icao": "GVBA", "iata": "BVC", "name": "Rabil ", "shortName": "Rabil", "municipalityName": "Rabil", "location": {"lat": 16.1365, "lon": -22.8889}, "countryCode": "CV"}, "averageDailyFlights": 0.14, "operators": [{"name": "Edelweiss Air", "iata": "WK", "icao": "EDW"}]}, {"destination": {"icao": "LERS", "iata": "REU", "name": "Reus Air Base", "shortName": "Air Base", "municipalityName": "Reus", "location": {"lat": 41.1474, "lon": 1.16717}, "countryCode": "ES"}, "averageDailyFlights": 0.14, "operators": [{"name": "Netjets"}]}, {"destination": {"icao": "BIRK", "iata": "RKV", "name": "Reykjavik ", "shortName": "Reykjavik", "municipalityName": "Reykjavik", "location": {"lat": 64.13, "lon": -21.9406}, "countryCode": "IS"}, "averageDailyFlights": 0.14, "operators": [{"name": "Cat Aviation"}]}, {"destination": {"icao": "LGRP", "iata": "RHO", "name": "Rodes Island Diagoras", "shortName": "Diagoras", "municipalityName": "Rodes Island", "location": {"lat": 36.4054, "lon": 28.0862}, "countryCode": "GR"}, "averageDailyFlights": 0.14, "operators": [{"name": "Edelweiss Air", "iata": "WK", "icao": "EDW"}]}, {"destination": {"icao": "KSJC", "iata": "SJC", "name": "San Jose Norman Y. Mineta", "shortName": "Norman Y. Mineta", "municipalityName": "San Jose", "location": {"lat": 37.3626, "lon": -121.929}, "countryCode": "US"}, "averageDailyFlights": 0.14, "operators": [{"name": "Jet Aviation Ph"}]}, {"destination": {"icao": "KBFI", "iata": "BFI", "name": "Seattle Boeing Field King County", "shortName": "Boeing Field King County", "municipalityName": "Seattle", "location": {"lat": 47.53, "lon": -122.302}, "countryCode": "US"}, "averageDailyFlights": 0.14, "operators": [{"name": "Jet Aviation Ph"}]}, {"destination": {"icao": "EKSB", "iata": "SGD", "name": "S\u00f8nderborg ", "shortName": "S\u00f8nderborg", "municipalityName": "S\u00f8nderborg", "location": {"lat": 54.9644, "lon": 9.791729}, "countryCode": "DK"}, "averageDailyFlights": 0.14, "operators": [{"name": "Air Alsie", "iata": "6I", "icao": "MMD"}]}, {"destination": {"icao": "EGJJ", "iata": "JER", "name": "St Helier Jersey", "shortName": "Jersey", "municipalityName": "St Helier", "location": {"lat": 49.2079, "lon": -2.195509}, "countryCode": "JE"}, "averageDailyFlights": 0.14, "operators": [{"name": "Motorfluggruppe Zrh"}]}, {"destination": {"icao": "GCLA", "iata": "SPC", "name": "Sta Cruz de la Palma, La Palma Island La Palma", "shortName": "La Palma", "municipalityName": "Sta Cruz de la Palma, La Palma Island", "location": {"lat": 28.6265, "lon": -17.755598}, "countryCode": "ES"}, "averageDailyFlights": 0.14, "operators": [{"name": "Edelweiss Air", "iata": "WK", "icao": "EDW"}]}, {"destination": {"icao": "KTEB", "iata": "TEB", "name": "Teterboro ", "shortName": "Teterboro", "municipalityName": "Teterboro", "location": {"lat": 40.8501, "lon": -74.0608}, "countryCode": "US"}, "averageDailyFlights": 0.14, "operators": [{"name": "Cat Air Service Ag"}]}, {"destination": {"icao": "ENTO", "iata": "TRF", "name": "Torp ", "shortName": "Torp", "municipalityName": "Torp", "location": {"lat": 59.1867, "lon": 10.2586}, "countryCode": "NO"}, "averageDailyFlights": 0.14, "operators": [{"name": "Air Hamburg"}]}, {"destination": {"icao": "LRTC", "iata": "TCE", "name": "Tulcea ", "shortName": "Tulcea", "municipalityName": "Tulcea", "location": {"lat": 45.0625, "lon": 28.7143}, "countryCode": "RO"}, "averageDailyFlights": 0.14, "operators": [{"name": "Edelweiss Air", "iata": "WK", "icao": "EDW"}]}, {"destination": {"icao": "CYVR", "iata": "YVR", "name": "Vancouver ", "shortName": "Vancouver", "municipalityName": "Vancouver", "location": {"lat": 49.1939, "lon": -123.184}, "countryCode": "CA"}, "averageDailyFlights": 0.14, "operators": [{"name": "Edelweiss Air", "iata": "WK", "icao": "EDW"}]}, {"destination": {"icao": "EBKT", "iata": "KJK", "name": "Wevelgem ", "shortName": "Wevelgem", "municipalityName": "Wevelgem", "location": {"lat": 50.8172, "lon": 3.20472}, "countryCode": "BE"}, "averageDailyFlights": 0.14, "operators": [{"name": "Abelag Aviation"}]}, {"destination": {"icao": "KHPN", "iata": "HPN", "name": "White Plains Westchester County", "shortName": "Westchester County", "municipalityName": "White Plains", "location": {"lat": 41.067, "lon": -73.7076}, "countryCode": "US"}, "averageDailyFlights": 0.14, "operators": [{"name": "Jet Aviation Ph"}]}, {"destination": {"icao": "LDZD", "iata": "ZAD", "name": "Zadar Zemunik", "shortName": "Zemunik", "municipalityName": "Zadar", "location": {"lat": 44.1083, "lon": 15.346699}, "countryCode": "HR"}, "averageDailyFlights": 0.14, "operators": [{"name": "Air Hamburg"}]}]}