{"routes": [{"destination": {"name": "Mexico City"}, "averageDailyFlights": 8.43, "operators": [{"name": "Aeromexico", "iata": "AM", "icao": "AMX"}, {"name": "VivaAerobus", "iata": "VB", "icao": "VIV"}, {"name": "Volaris", "iata": "Y4", "icao": "VOI"}]}, {"destination": {"icao": "MMGL", "iata": "GDL", "name": "Guadalajara Don Miguel Hidalgo Y Costilla", "shortName": "Don Miguel Hidalgo Y Costilla", "municipalityName": "Guadalajara", "location": {"lat": 20.5218, "lon": -103.311}, "countryCode": "MX"}, "averageDailyFlights": 3.45, "operators": [{"name": "Volaris", "iata": "Y4", "icao": "VOI"}, {"name": "VivaAerobus", "iata": "VB", "icao": "VIV"}]}, {"destination": {"name": "Canc\u00fan"}, "averageDailyFlights": 1.86, "operators": [{"name": "Volaris", "iata": "Y4", "icao": "VOI"}, {"name": "VivaAerobus", "iata": "VB", "icao": "VIV"}]}, {"destination": {"name": "Monterrey"}, "averageDailyFlights": 1.71, "operators": [{"name": "VivaAerobus", "iata": "VB", "icao": "VIV"}]}, {"destination": {"icao": "MMLO", "iata": "BJX", "name": "Silao Del Baj\u00edo", "shortName": "Del Baj\u00edo", "municipalityName": "Silao", "location": {"lat": 20.9935, "lon": -101.481}, "countryCode": "MX"}, "averageDailyFlights": 1.14, "operators": [{"name": "VivaAerobus", "iata": "VB", "icao": "VIV"}]}, {"destination": {"name": "Tijuana"}, "averageDailyFlights": 0.86, "operators": [{"name": "Volaris", "iata": "Y4", "icao": "VOI"}]}, {"destination": {"icao": "MMTC", "iata": "TRC", "name": "Torre\u00f3n Francisco Sarabia", "shortName": "Francisco Sarabia", "municipalityName": "Torre\u00f3n", "location": {"lat": 25.5683, "lon": -103.411}, "countryCode": "MX"}, "averageDailyFlights": 0.71, "operators": [{"name": "TAR Aerolineas", "iata": "YQ", "icao": "LCT"}]}, {"destination": {"icao": "MMDO", "iata": "DGO", "name": "Durango General Guadalupe Victoria", "shortName": "General Guadalupe Victoria", "municipalityName": "Durango", "location": {"lat": 24.1242, "lon": -104.528}, "countryCode": "MX"}, "averageDailyFlights": 0.57, "operators": [{"name": "TAR Aerolineas", "iata": "YQ", "icao": "LCT"}]}, {"destination": {"icao": "MMHO", "iata": "HMO", "name": "Hermosillo General Ignacio P. Garcia", "shortName": "General Ignacio P. Garcia", "municipalityName": "Hermosillo", "location": {"lat": 29.0959, "lon": -111.048}, "countryCode": "MX"}, "averageDailyFlights": 0.57, "operators": [{"name": "TAR Aerolineas", "iata": "YQ", "icao": "LCT"}]}, {"destination": {"icao": "MMPR", "iata": "PVR", "name": "Puerto Vallarta Licenciado Gustavo D\u00edaz Ordaz", "shortName": "Licenciado Gustavo D\u00edaz Ordaz", "municipalityName": "Puerto Vallarta", "location": {"lat": 20.6801, "lon": -105.254}, "countryCode": "MX"}, "averageDailyFlights": 0.45, "operators": [{"name": "VivaAerobus", "iata": "VB", "icao": "VIV"}, {"name": "TAR Aerolineas", "iata": "YQ", "icao": "LCT"}]}, {"destination": {"icao": "MMMZ", "iata": "MZT", "name": "Mazatl\u00e1n General Rafael Buelna", "shortName": "General Rafael Buelna", "municipalityName": "Mazatl\u00e1n", "location": {"lat": 23.1614, "lon": -106.266}, "countryCode": "MX"}, "averageDailyFlights": 0.43, "operators": [{"name": "TAR Aerolineas", "iata": "YQ", "icao": "LCT"}]}, {"destination": {"name": "La Paz"}, "averageDailyFlights": 0.29, "operators": [{"name": "TAR Aerolineas", "iata": "YQ", "icao": "LCT"}]}]}