{"routes": [{"destination": {"icao": "NGTA", "iata": "TRW", "name": "Tarawa Bonriki", "shortName": "Bonriki", "municipalityName": "Tarawa", "location": {"lat": 1.381639, "lon": 173.147}, "countryCode": "KI"}, "averageDailyFlights": 1.29, "operators": [{"name": "Air Kiribati", "iata": "IK", "icao": "AKL"}]}, {"destination": {"icao": "NGNU", "iata": "NIG", "name": "Nikunau ", "shortName": "Nikunau", "municipalityName": "Nikunau", "location": {"lat": -1.31444, "lon": 176.41}, "countryCode": "KI"}, "averageDailyFlights": 0.29, "operators": [{"name": "Air Kiribati", "iata": "IK", "icao": "AKL"}]}, {"destination": {"icao": "NGTR", "iata": "AIS", "name": "Arorae Island ", "shortName": "Arorae Island", "municipalityName": "Arorae Island", "location": {"lat": -2.61611, "lon": 176.803}, "countryCode": "KI"}, "averageDailyFlights": 0.14, "operators": [{"name": "Air Kiribati", "iata": "IK", "icao": "AKL"}]}, {"destination": {"icao": "NGBR", "iata": "BEZ", "name": "Beru ", "shortName": "Beru", "municipalityName": "Beru", "location": {"lat": -1.354719, "lon": 176.007}, "countryCode": "KI"}, "averageDailyFlights": 0.14, "operators": [{"name": "Air Kiribati", "iata": "IK", "icao": "AKL"}]}, {"destination": {"icao": "NGTS", "iata": "TSU", "name": "Tabiteuea South ", "shortName": "Tabiteuea South", "municipalityName": "Tabiteuea South", "location": {"lat": -1.474439, "lon": 175.064}, "countryCode": "KI"}, "averageDailyFlights": 0.14, "operators": [{"name": "Air Kiribati", "iata": "IK", "icao": "AKL"}]}, {"destination": {"icao": "NGTM", "iata": "TMN", "name": "Tamana Island ", "shortName": "Tamana Island", "municipalityName": "Tamana Island", "location": {"lat": -2.48583, "lon": 175.97}, "countryCode": "KI"}, "averageDailyFlights": 0.14, "operators": [{"name": "Air Kiribati", "iata": "IK", "icao": "AKL"}]}]}