{"routes": [{"destination": {"icao": "OIII", "iata": "THR", "name": "Tehran Mehrabad", "shortName": "Mehrabad", "municipalityName": "Tehran", "location": {"lat": 35.6892, "lon": 51.3134}, "countryCode": "IR"}, "averageDailyFlights": 4.57, "operators": [{"name": "Mahan Air", "iata": "W5", "icao": "IRM"}, {"name": "Qeshm Air", "iata": "QB", "icao": "QSM"}, {"name": "Iran Air", "iata": "IR", "icao": "IRA"}]}, {"destination": {"icao": "OIMM", "iata": "MHD", "name": "Mashhad ", "shortName": "Mashhad", "municipalityName": "Mashhad", "location": {"lat": 36.2352, "lon": 59.641}, "countryCode": "IR"}, "averageDailyFlights": 1.29, "operators": [{"name": "Sepehran Airlines", "iata": "IS", "icao": "SHI"}, {"name": "Iran Airtour", "iata": "B9", "icao": "IRB"}, {"name": "Qeshm Air", "iata": "QB", "icao": "QSM"}]}, {"destination": {"icao": "OTHH", "iata": "DOH", "name": "Doha Hamad", "shortName": "Hamad", "municipalityName": "Doha", "location": {"lat": 25.273056, "lon": 51.608055}, "countryCode": "QA"}, "averageDailyFlights": 0.57, "operators": [{"name": "Qatar Airways", "iata": "QR", "icao": "QTR"}]}, {"destination": {"icao": "LTFM", "iata": "IST", "name": "Istanbul ", "shortName": "Istanbul", "municipalityName": "Istanbul", "location": {"lat": 41.275276, "lon": 28.751944}, "countryCode": "TR"}, "averageDailyFlights": 0.57, "operators": [{"name": "Turkish Airlines", "iata": "TK", "icao": "THY"}]}, {"destination": {"icao": "OMDB", "iata": "DXB", "name": "Dubai ", "shortName": "Dubai", "municipalityName": "Dubai", "location": {"lat": 25.252798, "lon": 55.3644}, "countryCode": "AE"}, "averageDailyFlights": 0.29, "operators": [{"name": "flydubai", "iata": "FZ", "icao": "FDB"}]}, {"destination": {"icao": "OIKK", "iata": "KER", "name": "Kerman ", "shortName": "Kerman", "municipalityName": "Kerman", "location": {"lat": 30.2744, "lon": 56.9511}, "countryCode": "IR"}, "averageDailyFlights": 0.29, "operators": [{"name": "Mahan Air", "iata": "W5", "icao": "IRM"}]}, {"destination": {"icao": "OITT", "iata": "TBZ", "name": "Tabriz ", "shortName": "Tabriz", "municipalityName": "Tabriz", "location": {"lat": 38.1339, "lon": 46.235}, "countryCode": "IR"}, "averageDailyFlights": 0.29, "operators": [{"name": "Mahan Air", "iata": "W5", "icao": "IRM"}]}, {"destination": {"name": "Asaluye"}, "averageDailyFlights": 0.29, "operators": [{"name": "Mahan Air", "iata": "W5", "icao": "IRM"}]}, {"destination": {"name": "Gheshm"}, "averageDailyFlights": 0.29, "operators": [{"name": "Qeshm Air", "iata": "QB", "icao": "QSM"}]}, {"destination": {"icao": "OKBK", "iata": "KWI", "name": "Kuwait City Kuwait", "shortName": "Kuwait", "municipalityName": "Kuwait City", "location": {"lat": 29.2266, "lon": 47.9689}, "countryCode": "KW"}, "averageDailyFlights": 0.14, "operators": [{"name": "Iran Air", "iata": "IR", "icao": "IRA"}]}]}