{"routes": [{"destination": {"icao": "RCQC", "iata": "MZG", "name": "Makung City Makung", "shortName": "Makung", "municipalityName": "Makung City", "location": {"lat": 23.5687, "lon": 119.628}, "countryCode": "TW"}, "averageDailyFlights": 14.29, "operators": [{"name": "Mandarin Airlines", "iata": "AE", "icao": "MDA"}, {"name": "UNI Air", "iata": "B7", "icao": "UIA"}]}, {"destination": {"icao": "RCBS", "iata": "KNH", "name": "Shang-I Kinmen", "shortName": "Kinmen", "municipalityName": "Shang-I", "location": {"lat": 24.4279, "lon": 118.359}, "countryCode": "TW"}, "averageDailyFlights": 10.14, "operators": [{"name": "Mandarin Airlines", "iata": "AE", "icao": "MDA"}, {"name": "UNI Air", "iata": "B7", "icao": "UIA"}]}, {"destination": {"icao": "RCFG", "iata": "LZN", "name": "Nangang Island Matsu Nangan", "shortName": "Matsu Nangan", "municipalityName": "Nangang Island", "location": {"lat": 26.1598, "lon": 119.958}, "countryCode": "TW"}, "averageDailyFlights": 3.43, "operators": [{"name": "UNI Air", "iata": "B7", "icao": "UIA"}]}, {"destination": {"icao": "VVTS", "iata": "SGN", "name": "Ho Chi Minh City Tan Son Nhat", "shortName": "Tan Son Nhat", "municipalityName": "Ho Chi Minh City", "location": {"lat": 10.818799, "lon": 106.652}, "countryCode": "VN"}, "averageDailyFlights": 1.57, "operators": [{"name": "Mandarin Airlines", "iata": "AE", "icao": "MDA"}, {"name": "VietJetAir", "iata": "VJ", "icao": "VJC"}]}, {"destination": {"icao": "VVNB", "iata": "HAN", "name": "Hanoi Noi Bai", "shortName": "Noi Bai", "municipalityName": "Hanoi", "location": {"lat": 21.2212, "lon": 105.807}, "countryCode": "VN"}, "averageDailyFlights": 0.71, "operators": [{"name": "VietJetAir", "iata": "VJ", "icao": "VJC"}]}, {"destination": {"icao": "RCYU", "iata": "HUN", "name": "Hualien City Hualien", "shortName": "Hualien", "municipalityName": "Hualien City", "location": {"lat": 24.0231, "lon": 121.618}, "countryCode": "TW"}, "averageDailyFlights": 0.57, "operators": [{"name": "Mandarin Airlines", "iata": "AE", "icao": "MDA"}]}, {"destination": {"name": "Hong Kong"}, "averageDailyFlights": 0.29, "operators": [{"name": "Hong Kong Express", "iata": "UO", "icao": "HKE"}]}]}