{"routes": [{"destination": {"icao": "RJCC", "iata": "CTS", "name": "Chitose / Tomakomai New Chitose", "shortName": "New Chitose", "municipalityName": "Chitose / Tomakomai", "location": {"lat": 42.7752, "lon": 141.692}, "countryCode": "JP"}, "averageDailyFlights": 14.43, "operators": [{"name": "ANA", "iata": "NH", "icao": "ANA"}, {"name": "Japan Airlines"}, {"name": "Peach Aviation", "iata": "MM", "icao": "APJ"}, {"name": "Skymark Airlines", "iata": "BC", "icao": "SKY"}]}, {"destination": {"icao": "RJFF", "iata": "FUK", "name": "Fukuoka ", "shortName": "Fukuoka", "municipalityName": "Fukuoka", "location": {"lat": 33.5859, "lon": 130.451}, "countryCode": "JP"}, "averageDailyFlights": 13.43, "operators": [{"name": "StarFlyer", "iata": "7G", "icao": "SFJ"}, {"name": "Jetstar Japan", "iata": "GK", "icao": "JJP"}, {"name": "ANA", "iata": "NH", "icao": "ANA"}]}, {"destination": {"icao": "ROAH", "iata": "OKA", "name": "Naha ", "shortName": "Naha", "municipalityName": "Naha", "location": {"lat": 26.1958, "lon": 127.646}, "countryCode": "JP"}, "averageDailyFlights": 12.71, "operators": [{"name": "Peach Aviation", "iata": "MM", "icao": "APJ"}, {"name": "Skymark Airlines", "iata": "BC", "icao": "SKY"}, {"name": "ANA", "iata": "NH", "icao": "ANA"}, {"name": "Japan Transocean Air", "iata": "NU", "icao": "JTA"}, {"name": "Jetstar Japan", "iata": "GK", "icao": "JJP"}]}, {"destination": {"icao": "RKSI", "iata": "ICN", "name": "Seoul Incheon", "shortName": "Incheon", "municipalityName": "Seoul", "location": {"lat": 37.4691, "lon": 126.451}, "countryCode": "KR"}, "averageDailyFlights": 5.71, "operators": [{"name": "Korean Air", "iata": "KE", "icao": "KAL"}, {"name": "Asiana Airlines", "iata": "OZ", "icao": "AAR"}, {"name": "Jeju Air", "iata": "7C", "icao": "JJA"}]}, {"destination": {"icao": "RCTP", "iata": "TPE", "name": "Taipei Taiwan Taoyuan", "shortName": "Taiwan Taoyuan", "municipalityName": "Taipei", "location": {"lat": 25.0777, "lon": 121.233}, "countryCode": "TW"}, "averageDailyFlights": 3.71, "operators": [{"name": "China Airlines", "iata": "CI", "icao": "CAL"}, {"name": "Tigerair Taiwan", "iata": "IT", "icao": "TTW"}, {"name": "Peach Aviation", "iata": "MM", "icao": "APJ"}, {"name": "Malindo Air", "iata": "OD", "icao": "MXD"}]}, {"destination": {"icao": "RJFK", "iata": "KOJ", "name": "Kagoshima ", "shortName": "Kagoshima", "municipalityName": "Kagoshima", "location": {"lat": 31.8034, "lon": 130.719}, "countryCode": "JP"}, "averageDailyFlights": 3.29, "operators": [{"name": "ANA", "iata": "NH", "icao": "ANA"}, {"name": "Skymark Airlines", "iata": "BC", "icao": "SKY"}]}, {"destination": {"icao": "RPLL", "iata": "MNL", "name": "Manila Ninoy Aquino", "shortName": "Ninoy Aquino", "municipalityName": "Manila", "location": {"lat": 14.5086, "lon": 121.02}, "countryCode": "PH"}, "averageDailyFlights": 3.29, "operators": [{"name": "Cebu Pacific Air", "iata": "5J", "icao": "CEB"}, {"name": "Philippine Airlines", "iata": "PR", "icao": "PAL"}, {"name": "Jetstar Japan", "iata": "GK", "icao": "JJP"}]}, {"destination": {"icao": "RJOM", "iata": "MYJ", "name": "Matsuyama ", "shortName": "Matsuyama", "municipalityName": "Matsuyama", "location": {"lat": 33.8272, "lon": 132.7}, "countryCode": "JP"}, "averageDailyFlights": 3.29, "operators": [{"name": "ANA", "iata": "NH", "icao": "ANA"}]}, {"destination": {"icao": "RJAA", "iata": "NRT", "name": "Tokyo Narita", "shortName": "Narita", "municipalityName": "Tokyo", "location": {"lat": 35.7647, "lon": 140.386}, "countryCode": "JP"}, "averageDailyFlights": 3.29, "operators": [{"name": "ANA", "iata": "NH", "icao": "ANA"}, {"name": "Japan Airlines"}]}, {"destination": {"icao": "RJSS", "iata": "SDJ", "name": "Sendai ", "shortName": "Sendai", "municipalityName": "Sendai", "location": {"lat": 38.1397, "lon": 140.917}, "countryCode": "JP"}, "averageDailyFlights": 3.14, "operators": [{"name": "ANA", "iata": "NH", "icao": "ANA"}, {"name": "Peach Aviation", "iata": "MM", "icao": "APJ"}]}, {"destination": {"icao": "ROIG", "iata": "ISG", "name": "Ishigaki ", "shortName": "Ishigaki", "municipalityName": "Ishigaki", "location": {"lat": 24.3445, "lon": 124.187}, "countryCode": "JP"}, "averageDailyFlights": 3.01, "operators": [{"name": "ANA", "iata": "NH", "icao": "ANA"}, {"name": "Peach Aviation", "iata": "MM", "icao": "APJ"}, {"name": "Japan Transocean Air", "iata": "NU", "icao": "JTA"}]}, {"destination": {"icao": "RJOK", "iata": "KCZ", "name": "Nankoku K\u014dchi Ry\u014dma", "shortName": "K\u014dchi Ry\u014dma", "municipalityName": "Nankoku", "location": {"lat": 33.5461, "lon": 133.669}, "countryCode": "JP"}, "averageDailyFlights": 2.29, "operators": [{"name": "Fuji Dream Airlines", "iata": "JH", "icao": "FDA"}]}, {"destination": {"icao": "RJFT", "iata": "KMJ", "name": "Kumamoto ", "shortName": "Kumamoto", "municipalityName": "Kumamoto", "location": {"lat": 32.8373, "lon": 130.855}, "countryCode": "JP"}, "averageDailyFlights": 2.14, "operators": [{"name": "ANA", "iata": "NH", "icao": "ANA"}]}, {"destination": {"icao": "ROMY", "iata": "MMY", "name": "Miyako City Miyako", "shortName": "Miyako", "municipalityName": "Miyako City", "location": {"lat": 24.7828, "lon": 125.295}, "countryCode": "JP"}, "averageDailyFlights": 2.14, "operators": [{"name": "ANA", "iata": "NH", "icao": "ANA"}, {"name": "Japan Transocean Air", "iata": "NU", "icao": "JTA"}]}, {"destination": {"icao": "RJFU", "iata": "NGS", "name": "Nagasaki ", "shortName": "Nagasaki", "municipalityName": "Nagasaki", "location": {"lat": 32.9169, "lon": 129.914}, "countryCode": "JP"}, "averageDailyFlights": 2.14, "operators": [{"name": "ANA", "iata": "NH", "icao": "ANA"}]}, {"destination": {"icao": "VVNB", "iata": "HAN", "name": "Hanoi Noi Bai", "shortName": "Noi Bai", "municipalityName": "Hanoi", "location": {"lat": 21.2212, "lon": 105.807}, "countryCode": "VN"}, "averageDailyFlights": 1.86, "operators": [{"name": "VietJetAir", "iata": "VJ", "icao": "VJC"}, {"name": "Vietnam Airlines", "iata": "VN", "icao": "HVN"}]}, {"destination": {"icao": "VHHH", "iata": "HKG", "name": "Hong Kong Chek Lap Kok", "shortName": "Chek Lap Kok", "municipalityName": "Hong Kong", "location": {"lat": 22.3089, "lon": 113.915}, "countryCode": "HK"}, "averageDailyFlights": 1.57, "operators": [{"name": "Cathay Pacific", "iata": "CX", "icao": "CPA"}, {"name": "Hong Kong Express", "iata": "UO", "icao": "HKE"}]}, {"destination": {"icao": "RJSK", "iata": "AXT", "name": "Akita ", "shortName": "Akita", "municipalityName": "Akita", "location": {"lat": 39.6156, "lon": 140.219}, "countryCode": "JP"}, "averageDailyFlights": 1.14, "operators": [{"name": "ANA", "iata": "NH", "icao": "ANA"}]}, {"destination": {"icao": "VTBS", "iata": "BKK", "name": "Bangkok Suvarnabhumi", "shortName": "Suvarnabhumi", "municipalityName": "Bangkok", "location": {"lat": 13.681099, "lon": 100.747}, "countryCode": "TH"}, "averageDailyFlights": 1.14, "operators": [{"name": "Thai Airways International", "iata": "TG", "icao": "THA"}]}, {"destination": {"icao": "RCKH", "iata": "KHH", "name": "Kaohsiung City Kaohsiung", "shortName": "Kaohsiung", "municipalityName": "Kaohsiung City", "location": {"lat": 22.5771, "lon": 120.35}, "countryCode": "TW"}, "averageDailyFlights": 0.86, "operators": [{"name": "Tigerair Taiwan", "iata": "IT", "icao": "TTW"}]}, {"destination": {"icao": "VVTS", "iata": "SGN", "name": "Ho Chi Minh City Tan Son Nhat", "shortName": "Tan Son Nhat", "municipalityName": "Ho Chi Minh City", "location": {"lat": 10.818799, "lon": 106.652}, "countryCode": "VN"}, "averageDailyFlights": 0.71, "operators": [{"name": "Vietnam Airlines", "iata": "VN", "icao": "HVN"}]}, {"destination": {"icao": "ZBTJ", "iata": "TSN", "name": "Tianjin Binhai", "shortName": "Binhai", "municipalityName": "Tianjin", "location": {"lat": 39.1244, "lon": 117.346}, "countryCode": "CN"}, "averageDailyFlights": 0.71, "operators": [{"name": "Tianjin Airlines", "iata": "GS", "icao": "GCR"}]}, {"destination": {"icao": "PGUM", "iata": "GUM", "name": "Hag\u00e5t\u00f1a, Guam International Airport Antonio B. Won Pat", "shortName": "Antonio B. Won Pat", "municipalityName": "Hag\u00e5t\u00f1a, Guam International Airport", "location": {"lat": 13.4834, "lon": 144.796}, "countryCode": "GU"}, "averageDailyFlights": 0.57, "operators": [{"name": "United Airlines", "iata": "UA", "icao": "UAL"}]}, {"destination": {"icao": "WSSS", "iata": "SIN", "name": "Singapore Changi", "shortName": "Changi", "municipalityName": "Singapore", "location": {"lat": 1.35019, "lon": 103.994}, "countryCode": "SG"}, "averageDailyFlights": 0.57, "operators": [{"name": "Singapore Airlines", "iata": "SQ", "icao": "SIA"}]}, {"destination": {"icao": "ZSQD", "iata": "TAO", "name": "Qingdao Liuting", "shortName": "Liuting", "municipalityName": "Qingdao", "location": {"lat": 36.2661, "lon": 120.374}, "countryCode": "CN"}, "averageDailyFlights": 0.43, "operators": [{"name": "Shandong Airlines", "iata": "SC", "icao": "CDG"}]}, {"destination": {"icao": "MMMX", "iata": "MEX", "name": "Mexico City Licenciado Benito Juarez", "shortName": "Licenciado Benito Juarez", "municipalityName": "Mexico City", "location": {"lat": 19.4363, "lon": -99.0721}, "countryCode": "MX"}, "averageDailyFlights": 0.29, "operators": [{"name": "Qatar Airways", "iata": "QR", "icao": "QTR"}]}, {"destination": {"name": "Taybey"}, "averageDailyFlights": 0.14, "operators": [{"name": "Peach Aviation", "iata": "MM", "icao": "APJ"}]}]}