{"routes": [{"destination": {"icao": "RPVE", "iata": "MPH", "name": "Malay Godofredo P. Ramos", "shortName": "Godofredo P. Ramos", "municipalityName": "Malay", "location": {"lat": 11.9245, "lon": 121.954}, "countryCode": "PH"}, "averageDailyFlights": 3.86, "operators": [{"name": "Cebu Pacific Air", "iata": "5J", "icao": "CEB"}, {"name": "Philippines AirAsia", "iata": "Z2", "icao": "APG"}, {"name": "Philippine Airlines", "iata": "PR", "icao": "PAL"}]}, {"destination": {"icao": "WSSS", "iata": "SIN", "name": "Singapore Changi", "shortName": "Changi", "municipalityName": "Singapore", "location": {"lat": 1.35019, "lon": 103.994}, "countryCode": "SG"}, "averageDailyFlights": 2.86, "operators": [{"name": "Scoot", "iata": "TR", "icao": "TGW"}, {"name": "Cebu Pacific Air", "iata": "5J", "icao": "CEB"}, {"name": "Jetstar Asia", "iata": "3K", "icao": "JSA"}]}, {"destination": {"icao": "RKSI", "iata": "ICN", "name": "Seoul Incheon", "shortName": "Incheon", "municipalityName": "Seoul", "location": {"lat": 37.4691, "lon": 126.451}, "countryCode": "KR"}, "averageDailyFlights": 2.43, "operators": [{"name": "Jin Air", "iata": "LJ", "icao": "JNA"}, {"name": "Jeju Air", "iata": "7C", "icao": "JJA"}, {"name": "Cebu Pacific Air", "iata": "5J", "icao": "CEB"}]}, {"destination": {"icao": "RPVM", "iata": "CEB", "name": "Lapu-Lapu City Mactan Cebu", "shortName": "Mactan Cebu", "municipalityName": "Lapu-Lapu City", "location": {"lat": 10.307499, "lon": 123.979}, "countryCode": "PH"}, "averageDailyFlights": 2.29, "operators": [{"name": "Cebu Pacific Air", "iata": "5J", "icao": "CEB"}, {"name": "Philippine Airlines", "iata": "PR", "icao": "PAL"}]}, {"destination": {"icao": "VHHH", "iata": "HKG", "name": "Hong Kong Chek Lap Kok", "shortName": "Chek Lap Kok", "municipalityName": "Hong Kong", "location": {"lat": 22.3089, "lon": 113.915}, "countryCode": "HK"}, "averageDailyFlights": 2.14, "operators": [{"name": "Cebu Pacific Air", "iata": "5J", "icao": "CEB"}]}, {"destination": {"icao": "RCTP", "iata": "TPE", "name": "Taipei Taiwan Taoyuan", "shortName": "Taiwan Taoyuan", "municipalityName": "Taipei", "location": {"lat": 25.0777, "lon": 121.233}, "countryCode": "TW"}, "averageDailyFlights": 1.86, "operators": [{"name": "EVA Air", "iata": "BR", "icao": "EVA"}, {"name": "Cebu Pacific Air", "iata": "5J", "icao": "CEB"}]}, {"destination": {"icao": "RPMD", "iata": "DVO", "name": "Davao City Francisco Bangoy", "shortName": "Francisco Bangoy", "municipalityName": "Davao City", "location": {"lat": 7.12552, "lon": 125.646}, "countryCode": "PH"}, "averageDailyFlights": 1.71, "operators": [{"name": "Cebu Pacific Air", "iata": "5J", "icao": "CEB"}]}, {"destination": {"icao": "VTBS", "iata": "BKK", "name": "Bangkok Suvarnabhumi", "shortName": "Suvarnabhumi", "municipalityName": "Bangkok", "location": {"lat": 13.681099, "lon": 100.747}, "countryCode": "TH"}, "averageDailyFlights": 1.14, "operators": [{"name": "Cebu Pacific Air", "iata": "5J", "icao": "CEB"}]}, {"destination": {"icao": "OTHH", "iata": "DOH", "name": "Doha Hamad", "shortName": "Hamad", "municipalityName": "Doha", "location": {"lat": 25.273056, "lon": 51.608055}, "countryCode": "QA"}, "averageDailyFlights": 1.14, "operators": [{"name": "Qatar Airways", "iata": "QR", "icao": "QTR"}]}, {"destination": {"icao": "OMDB", "iata": "DXB", "name": "Dubai ", "shortName": "Dubai", "municipalityName": "Dubai", "location": {"lat": 25.252798, "lon": 55.3644}, "countryCode": "AE"}, "averageDailyFlights": 1.14, "operators": [{"name": "Emirates", "iata": "EK", "icao": "UAE"}]}, {"destination": {"icao": "RKPK", "iata": "PUS", "name": "Busan-si Gimhae", "shortName": "Gimhae", "municipalityName": "Busan-si", "location": {"lat": 35.1795, "lon": 128.938}, "countryCode": "KR"}, "averageDailyFlights": 0.86, "operators": [{"name": "Air Busan", "iata": "BX", "icao": "ABL"}, {"name": "Jin Air", "iata": "LJ", "icao": "JNA"}]}, {"destination": {"icao": "RPVI", "iata": "ILO", "name": "Iloilo City Iloilo", "shortName": "Iloilo", "municipalityName": "Iloilo City", "location": {"lat": 10.833017, "lon": 122.493355}, "countryCode": "PH"}, "averageDailyFlights": 0.57, "operators": [{"name": "Cebu Pacific Air", "iata": "5J", "icao": "CEB"}]}, {"destination": {"icao": "RPVB", "iata": "BCD", "name": "Bacolod City Bacolod-Silay City", "shortName": "Bacolod-Silay City", "municipalityName": "Bacolod City", "location": {"lat": 10.776399, "lon": 123.015}, "countryCode": "PH"}, "averageDailyFlights": 0.43, "operators": [{"name": "Cebu Pacific Air", "iata": "5J", "icao": "CEB"}]}, {"destination": {"icao": "RPVV", "iata": "USU", "name": "Coron Francisco B. Reyes", "shortName": "Francisco B. Reyes", "municipalityName": "Coron", "location": {"lat": 12.1215, "lon": 120.1}, "countryCode": "PH"}, "averageDailyFlights": 0.43, "operators": [{"name": "Philippine Airlines", "iata": "PR", "icao": "PAL"}]}, {"destination": {"icao": "RPMR", "iata": "GES", "name": "General Santos ", "shortName": "General Santos", "municipalityName": "General Santos", "location": {"lat": 6.058, "lon": 125.096}, "countryCode": "PH"}, "averageDailyFlights": 0.43, "operators": [{"name": "Cebu Pacific Air", "iata": "5J", "icao": "CEB"}]}, {"destination": {"icao": "VMMC", "iata": "MFM", "name": "Taipa Macau", "shortName": "Macau", "municipalityName": "Taipa", "location": {"lat": 22.1496, "lon": 113.592}, "countryCode": "MO"}, "averageDailyFlights": 0.43, "operators": [{"name": "Cebu Pacific Air", "iata": "5J", "icao": "CEB"}]}, {"destination": {"name": "El-Nido"}, "averageDailyFlights": 0.43, "operators": [{"name": "AirSWIFT", "iata": "T6", "icao": "ATX"}]}, {"destination": {"icao": "RKNY", "iata": "YNY", "name": "Sokcho / Gangneung Yangyang", "shortName": "Yangyang", "municipalityName": "Sokcho / Gangneung", "location": {"lat": 38.0613, "lon": 128.669}, "countryCode": "KR"}, "averageDailyFlights": 0.29, "operators": [{"name": "Fly Gangwon", "iata": "4V", "icao": "FGW"}]}, {"destination": {"icao": "RPMY", "iata": "CGY", "name": "Cagayan de Oro City Laguindingan", "shortName": "Laguindingan", "municipalityName": "Cagayan de Oro City", "location": {"lat": 8.612203, "lon": 124.4565}, "countryCode": "PH"}, "averageDailyFlights": 0.14, "operators": [{"name": "Cebu Pacific Air", "iata": "5J", "icao": "CEB"}]}]}