{"routes": [{"destination": {"icao": "SBRJ", "iata": "SDU", "name": "Rio de Janeiro Santos Dumont", "shortName": "Santos Dumont", "municipalityName": "Rio de Janeiro", "location": {"lat": -22.9105, "lon": -43.1631}, "countryCode": "BR"}, "averageDailyFlights": 13.66, "operators": [{"name": "Azul", "iata": "AD", "icao": "AZU"}, {"name": "LATAM", "iata": "LA", "icao": "LAN"}, {"name": "Gol", "iata": "G3", "icao": "GLO"}]}, {"destination": {"icao": "SBKP", "iata": "VCP", "name": "Campinas Viracopos", "shortName": "Viracopos", "municipalityName": "Campinas", "location": {"lat": -23.0074, "lon": -47.1345}, "countryCode": "BR"}, "averageDailyFlights": 10.14, "operators": [{"name": "Azul", "iata": "AD", "icao": "AZU"}]}, {"destination": {"icao": "SBBR", "iata": "BSB", "name": "Bras\u00edlia Presidente Juscelino Kubistschek", "shortName": "Presidente Juscelino Kubistschek", "municipalityName": "Bras\u00edlia", "location": {"lat": -15.869167, "lon": -47.920834}, "countryCode": "BR"}, "averageDailyFlights": 9.43, "operators": [{"name": "Gol", "iata": "G3", "icao": "GLO"}, {"name": "Azul", "iata": "AD", "icao": "AZU"}, {"name": "LATAM", "iata": "LA", "icao": "LAN"}]}, {"destination": {"name": "S\u00e3o Paulo"}, "averageDailyFlights": 6.43, "operators": [{"name": "LATAM", "iata": "LA", "icao": "LAN"}, {"name": "Azul", "iata": "AD", "icao": "AZU"}, {"name": "Gol", "iata": "G3", "icao": "GLO"}]}, {"destination": {"icao": "SBSV", "iata": "SSA", "name": "Salvador Deputado Luiz Eduardo Magalh\u00e3es", "shortName": "Deputado Luiz Eduardo Magalh\u00e3es", "municipalityName": "Salvador", "location": {"lat": -12.908611, "lon": -38.3225}, "countryCode": "BR"}, "averageDailyFlights": 5.72, "operators": [{"name": "Azul", "iata": "AD", "icao": "AZU"}, {"name": "Gol", "iata": "G3", "icao": "GLO"}]}, {"destination": {"icao": "SBVT", "iata": "VIX", "name": "Vit\u00f3ria Eurico de Aguiar Salles", "shortName": "Eurico de Aguiar Salles", "municipalityName": "Vit\u00f3ria", "location": {"lat": -20.258057, "lon": -40.28639}, "countryCode": "BR"}, "averageDailyFlights": 4.86, "operators": [{"name": "Azul", "iata": "AD", "icao": "AZU"}]}, {"destination": {"icao": "SBUL", "iata": "UDI", "name": "Uberl\u00e2ndia Ten. Cel. Aviador C\u00e9sar Bombonato", "shortName": "Ten. Cel. Aviador C\u00e9sar Bombonato", "municipalityName": "Uberl\u00e2ndia", "location": {"lat": -18.883612, "lon": -48.225277}, "countryCode": "BR"}, "averageDailyFlights": 4.43, "operators": [{"name": "Azul", "iata": "AD", "icao": "AZU"}]}, {"destination": {"icao": "SBGO", "iata": "GYN", "name": "Goi\u00e2nia Santa Genoveva", "shortName": "Santa Genoveva", "municipalityName": "Goi\u00e2nia", "location": {"lat": -16.631998, "lon": -49.2207}, "countryCode": "BR"}, "averageDailyFlights": 4.0, "operators": [{"name": "Azul", "iata": "AD", "icao": "AZU"}]}, {"destination": {"icao": "SBMK", "iata": "MOC", "name": "Montes Claros M\u00e1rio Ribeiro", "shortName": "M\u00e1rio Ribeiro", "municipalityName": "Montes Claros", "location": {"lat": -16.7069, "lon": -43.8189}, "countryCode": "BR"}, "averageDailyFlights": 3.73, "operators": [{"name": "Azul", "iata": "AD", "icao": "AZU"}]}, {"destination": {"icao": "SBIP", "iata": "IPN", "name": "Ipatinga Usiminas", "shortName": "Usiminas", "municipalityName": "Ipatinga", "location": {"lat": -19.4707, "lon": -42.4876}, "countryCode": "BR"}, "averageDailyFlights": 3.71, "operators": [{"name": "Azul", "iata": "AD", "icao": "AZU"}]}, {"destination": {"icao": "SBBE", "iata": "BEL", "name": "Bel\u00e9m J\u00falio Cezar Ribeiro", "shortName": "J\u00falio Cezar Ribeiro", "municipalityName": "Bel\u00e9m", "location": {"lat": -1.37925, "lon": -48.4763}, "countryCode": "BR"}, "averageDailyFlights": 2.71, "operators": [{"name": "Azul", "iata": "AD", "icao": "AZU"}]}, {"destination": {"icao": "SBPS", "iata": "BPS", "name": "Porto Seguro ", "shortName": "Porto Seguro", "municipalityName": "Porto Seguro", "location": {"lat": -16.4386, "lon": -39.0809}, "countryCode": "BR"}, "averageDailyFlights": 2.58, "operators": [{"name": "Gol", "iata": "G3", "icao": "GLO"}, {"name": "Azul", "iata": "AD", "icao": "AZU"}]}, {"destination": {"icao": "SBCT", "iata": "CWB", "name": "Curitiba Afonso Pena", "shortName": "Afonso Pena", "municipalityName": "Curitiba", "location": {"lat": -25.5285, "lon": -49.1758}, "countryCode": "BR"}, "averageDailyFlights": 2.0, "operators": [{"name": "Azul", "iata": "AD", "icao": "AZU"}]}, {"destination": {"icao": "SBCY", "iata": "CGB", "name": "Cuiab\u00e1 Marechal Rondon", "shortName": "Marechal Rondon", "municipalityName": "Cuiab\u00e1", "location": {"lat": -15.652899, "lon": -56.1167}, "countryCode": "BR"}, "averageDailyFlights": 1.86, "operators": [{"name": "Azul", "iata": "AD", "icao": "AZU"}]}, {"destination": {"icao": "SBGV", "iata": "GVR", "name": "Governador Valadares ", "shortName": "Governador Valadares", "municipalityName": "Governador Valadares", "location": {"lat": -18.8952, "lon": -41.9822}, "countryCode": "BR"}, "averageDailyFlights": 1.86, "operators": [{"name": "Azul", "iata": "AD", "icao": "AZU"}]}, {"destination": {"icao": "SBCJ", "iata": "CKS", "name": "Caraj\u00e1s ", "shortName": "Caraj\u00e1s", "municipalityName": "Caraj\u00e1s", "location": {"lat": -6.115277, "lon": -50.00139}, "countryCode": "BR"}, "averageDailyFlights": 1.29, "operators": [{"name": "Azul", "iata": "AD", "icao": "AZU"}, {"name": "Gol", "iata": "G3", "icao": "GLO"}]}, {"destination": {"icao": "SBCB", "iata": "CFB", "name": "Cabo Frio ", "shortName": "Cabo Frio", "municipalityName": "Cabo Frio", "location": {"lat": -22.9217, "lon": -42.0743}, "countryCode": "BR"}, "averageDailyFlights": 1.14, "operators": [{"name": "Azul", "iata": "AD", "icao": "AZU"}]}, {"destination": {"icao": "SBIL", "iata": "IOS", "name": "Ilh\u00e9us Bahia - Jorge Amado", "shortName": "Bahia - Jorge Amado", "municipalityName": "Ilh\u00e9us", "location": {"lat": -14.815999, "lon": -39.0332}, "countryCode": "BR"}, "averageDailyFlights": 1.14, "operators": [{"name": "Azul", "iata": "AD", "icao": "AZU"}]}, {"destination": {"icao": "MPTO", "iata": "PTY", "name": "Tocumen ", "shortName": "Tocumen", "municipalityName": "Tocumen", "location": {"lat": 9.071359, "lon": -79.3835}, "countryCode": "PA"}, "averageDailyFlights": 1.14, "operators": [{"name": "Copa Airlines", "iata": "CM", "icao": "CMP"}]}, {"destination": {"icao": "SNBR", "iata": "BRA", "name": "Barreiras ", "shortName": "Barreiras", "municipalityName": "Barreiras", "location": {"lat": -12.0789, "lon": -45.009}, "countryCode": "BR"}, "averageDailyFlights": 1.0, "operators": [{"name": "Azul", "iata": "AD", "icao": "AZU"}]}, {"destination": {"icao": "SBFL", "iata": "FLN", "name": "Florian\u00f3polis Herc\u00edlio Luz", "shortName": "Herc\u00edlio Luz", "municipalityName": "Florian\u00f3polis", "location": {"lat": -27.670279, "lon": -48.5525}, "countryCode": "BR"}, "averageDailyFlights": 1.0, "operators": [{"name": "Azul", "iata": "AD", "icao": "AZU"}]}, {"destination": {"icao": "SBSL", "iata": "SLZ", "name": "S\u00e3o Lu\u00eds Marechal Cunha Machado", "shortName": "Marechal Cunha Machado", "municipalityName": "S\u00e3o Lu\u00eds", "location": {"lat": -2.58536, "lon": -44.2341}, "countryCode": "BR"}, "averageDailyFlights": 1.0, "operators": [{"name": "Azul", "iata": "AD", "icao": "AZU"}]}, {"destination": {"icao": "SBUR", "iata": "UBA", "name": "Uberaba M\u00e1rio de Almeida Franco", "shortName": "M\u00e1rio de Almeida Franco", "municipalityName": "Uberaba", "location": {"lat": -19.764723, "lon": -47.96611}, "countryCode": "BR"}, "averageDailyFlights": 1.0, "operators": [{"name": "Azul", "iata": "AD", "icao": "AZU"}]}, {"destination": {"icao": "SKBO", "iata": "BOG", "name": "Bogot\u00e1 El Dorado", "shortName": "El Dorado", "municipalityName": "Bogot\u00e1", "location": {"lat": 4.70159, "lon": -74.1469}, "countryCode": "CO"}, "averageDailyFlights": 0.86, "operators": [{"name": "Avianca", "iata": "AV", "icao": "AVA"}]}, {"destination": {"icao": "SNGI", "iata": "GNM", "name": "Guanambi ", "shortName": "Guanambi", "municipalityName": "Guanambi", "location": {"lat": -14.2082, "lon": -42.7461}, "countryCode": "BR"}, "averageDailyFlights": 0.86, "operators": [{"name": "Azul", "iata": "AD", "icao": "AZU"}]}, {"destination": {"icao": "LPPT", "iata": "LIS", "name": "Lisbon Portela", "shortName": "Portela", "municipalityName": "Lisbon", "location": {"lat": 38.7813, "lon": -9.135919}, "countryCode": "PT"}, "averageDailyFlights": 0.86, "operators": [{"name": "TAP Air Portugal", "iata": "TP", "icao": "TAP"}]}, {"destination": {"icao": "SBMO", "iata": "MCZ", "name": "Macei\u00f3 Zumbi dos Palmares", "shortName": "Zumbi dos Palmares", "municipalityName": "Macei\u00f3", "location": {"lat": -9.510809, "lon": -35.7917}, "countryCode": "BR"}, "averageDailyFlights": 0.71, "operators": [{"name": "Gol", "iata": "G3", "icao": "GLO"}, {"name": "Azul", "iata": "AD", "icao": "AZU"}]}, {"destination": {"icao": "SBSG", "iata": "NAT", "name": "Natal Governador Alu\u00edzio Alves", "shortName": "Governador Alu\u00edzio Alves", "municipalityName": "Natal", "location": {"lat": -5.768056, "lon": -35.37611}, "countryCode": "BR"}, "averageDailyFlights": 0.71, "operators": [{"name": "Azul", "iata": "AD", "icao": "AZU"}, {"name": "Gol", "iata": "G3", "icao": "GLO"}]}, {"destination": {"icao": "SBQV", "iata": "VDC", "name": "Vit\u00f3ria da Conquista ", "shortName": "Vit\u00f3ria da Conquista", "municipalityName": "Vit\u00f3ria da Conquista", "location": {"lat": -14.862799, "lon": -40.8631}, "countryCode": "BR"}, "averageDailyFlights": 0.71, "operators": [{"name": "Azul", "iata": "AD", "icao": "AZU"}]}, {"destination": {"icao": "SBLE", "iata": "LEC", "name": "Len\u00e7\u00f3is Chapada Diamantina", "shortName": "Chapada Diamantina", "municipalityName": "Len\u00e7\u00f3is", "location": {"lat": -12.482299, "lon": -41.277}, "countryCode": "BR"}, "averageDailyFlights": 0.43, "operators": [{"name": "Azul", "iata": "AD", "icao": "AZU"}]}, {"destination": {"icao": "SBZM", "iata": "IZA", "name": "Juiz de Fora Zona da Mata Regional", "shortName": "Zona da Mata Regional", "municipalityName": "Juiz de Fora", "location": {"lat": -21.513056, "lon": -43.173058}, "countryCode": "BR"}, "averageDailyFlights": 0.29, "operators": [{"name": "Azul", "iata": "AD", "icao": "AZU"}]}, {"destination": {"icao": "SBPB", "iata": "PHB", "name": "Parna\u00edba Prefeito Doutor Jo\u00e3o Silva Filho", "shortName": "Prefeito Doutor Jo\u00e3o Silva Filho", "municipalityName": "Parna\u00edba", "location": {"lat": -2.893749, "lon": -41.732}, "countryCode": "BR"}, "averageDailyFlights": 0.29, "operators": [{"name": "Azul", "iata": "AD", "icao": "AZU"}]}, {"destination": {"name": "Jericoacoara Airport"}, "averageDailyFlights": 0.29, "operators": [{"name": "Azul", "iata": "AD", "icao": "AZU"}]}, {"destination": {"name": "Teofilo Otoni"}, "averageDailyFlights": 0.29, "operators": [{"name": "Azul", "iata": "AD", "icao": "AZU"}]}, {"destination": {"name": "Varzhinya"}, "averageDailyFlights": 0.29, "operators": [{"name": "Azul", "iata": "AD", "icao": "AZU"}]}, {"destination": {"icao": "SBJP", "iata": "JPA", "name": "Jo\u00e3o Pessoa Presidente Castro Pinto", "shortName": "Presidente Castro Pinto", "municipalityName": "Jo\u00e3o Pessoa", "location": {"lat": -7.145833, "lon": -34.948612}, "countryCode": "BR"}, "averageDailyFlights": 0.14, "operators": [{"name": "Azul", "iata": "AD", "icao": "AZU"}]}, {"destination": {"icao": "SBTC", "iata": "UNA", "name": "Una Hotel Transam\u00e9rica", "shortName": "Hotel Transam\u00e9rica", "municipalityName": "Una", "location": {"lat": -15.355199, "lon": -38.999}, "countryCode": "BR"}, "averageDailyFlights": 0.14, "operators": [{"name": "Azul", "iata": "AD", "icao": "AZU"}]}, {"destination": {"name": "Belen"}, "averageDailyFlights": 0.14, "operators": [{"name": "Azul", "iata": "AD", "icao": "AZU"}]}, {"destination": {"name": "Belo Horizonte"}, "averageDailyFlights": 0.14, "operators": [{"name": "Azul", "iata": "AD", "icao": "AZU"}]}, {"destination": {"name": "Fortaleza"}, "averageDailyFlights": 0.14, "operators": [{"name": "Azul", "iata": "AD", "icao": "AZU"}]}, {"destination": {"name": "Marab\u00e1"}, "averageDailyFlights": 0.14, "operators": [{"name": "Azul", "iata": "AD", "icao": "AZU"}]}, {"destination": {"name": "Palmas"}, "averageDailyFlights": 0.14, "operators": [{"name": "Azul", "iata": "AD", "icao": "AZU"}]}, {"destination": {"name": "Recife"}, "averageDailyFlights": 0.14, "operators": [{"name": "Azul", "iata": "AD", "icao": "AZU"}]}]}