{"routes": [{"destination": {"icao": "SKBO", "iata": "BOG", "name": "Bogot\u00e1 El Dorado", "shortName": "El Dorado", "municipalityName": "Bogot\u00e1", "location": {"lat": 4.70159, "lon": -74.1469}, "countryCode": "CO"}, "averageDailyFlights": 14.07, "operators": [{"name": "LATAM", "iata": "LA", "icao": "LAN"}, {"name": "Copa Airlines Colombia", "iata": "P5", "icao": "RPB"}, {"name": "Avianca", "iata": "AV", "icao": "AVA"}]}, {"destination": {"icao": "SKRG", "iata": "MDE", "name": "Rionegro Jose Maria C\u00f3rdova", "shortName": "Jose Maria C\u00f3rdova", "municipalityName": "Rionegro", "location": {"lat": 6.16454, "lon": -75.4231}, "countryCode": "CO"}, "averageDailyFlights": 9.57, "operators": [{"name": "Avianca", "iata": "AV", "icao": "AVA"}, {"name": "LATAM", "iata": "LA", "icao": "LAN"}]}, {"destination": {"icao": "SKCL", "iata": "CLO", "name": "Santiago de Cali Alfonso Bonilla Aragon", "shortName": "Alfonso Bonilla Aragon", "municipalityName": "Santiago de Cali", "location": {"lat": 3.54322, "lon": -76.3816}, "countryCode": "CO"}, "averageDailyFlights": 4.15, "operators": [{"name": "Avianca", "iata": "AV", "icao": "AVA"}, {"name": "LATAM", "iata": "LA", "icao": "LAN"}]}, {"destination": {"icao": "MPTO", "iata": "PTY", "name": "Tocumen ", "shortName": "Tocumen", "municipalityName": "Tocumen", "location": {"lat": 9.071359, "lon": -79.3835}, "countryCode": "PA"}, "averageDailyFlights": 3.43, "operators": [{"name": "Copa Airlines", "iata": "CM", "icao": "CMP"}]}, {"destination": {"icao": "SKSP", "iata": "ADZ", "name": "San Andr\u00e9s Gustavo Rojas Pinilla", "shortName": "Gustavo Rojas Pinilla", "municipalityName": "San Andr\u00e9s", "location": {"lat": 12.5836, "lon": -81.7112}, "countryCode": "CO"}, "averageDailyFlights": 2.14, "operators": [{"name": "LATAM", "iata": "LA", "icao": "LAN"}, {"name": "Copa Airlines Colombia", "iata": "P5", "icao": "RPB"}]}, {"destination": {"icao": "KJFK", "iata": "JFK", "name": "New York John F Kennedy", "shortName": "John F Kennedy", "municipalityName": "New York", "location": {"lat": 40.6398, "lon": -73.7789}, "countryCode": "US"}, "averageDailyFlights": 1.71, "operators": [{"name": "JetBlue Airways", "iata": "B6", "icao": "JBU"}, {"name": "Avianca", "iata": "AV", "icao": "AVA"}]}, {"destination": {"icao": "KMIA", "iata": "MIA", "name": "Miami ", "shortName": "Miami", "municipalityName": "Miami", "location": {"lat": 25.7932, "lon": -80.2906}, "countryCode": "US"}, "averageDailyFlights": 1.57, "operators": [{"name": "American Airlines", "iata": "AA", "icao": "AAL"}]}, {"destination": {"icao": "EHAM", "iata": "AMS", "name": "Amsterdam Schiphol", "shortName": "Schiphol", "municipalityName": "Amsterdam", "location": {"lat": 52.3086, "lon": 4.763889}, "countryCode": "NL"}, "averageDailyFlights": 1.14, "operators": [{"name": "KLM", "iata": "KL", "icao": "KLM"}]}, {"destination": {"icao": "KFLL", "iata": "FLL", "name": "Fort Lauderdale Hollywood", "shortName": "Hollywood", "municipalityName": "Fort Lauderdale", "location": {"lat": 26.0726, "lon": -80.1527}, "countryCode": "US"}, "averageDailyFlights": 1.14, "operators": [{"name": "Spirit Airlines", "iata": "NK", "icao": "NKS"}]}, {"destination": {"icao": "SKPE", "iata": "PEI", "name": "Pereira Mateca\u00f1a", "shortName": "Mateca\u00f1a", "municipalityName": "Pereira", "location": {"lat": 4.81267, "lon": -75.7395}, "countryCode": "CO"}, "averageDailyFlights": 1.14, "operators": [{"name": "Avianca", "iata": "AV", "icao": "AVA"}]}, {"destination": {"icao": "MPPA", "iata": "BLB", "name": "Panam\u00e1 City Panama Pacific", "shortName": "Panama Pacific", "municipalityName": "Panam\u00e1 City", "location": {"lat": 8.91479, "lon": -79.5996}, "countryCode": "PA"}, "averageDailyFlights": 0.86, "operators": [{"name": "Copa Airlines Colombia", "iata": "P5", "icao": "RPB"}]}, {"destination": {"icao": "MROC", "iata": "SJO", "name": "San Jos\u00e9 Juan Santamaria", "shortName": "Juan Santamaria", "municipalityName": "San Jos\u00e9", "location": {"lat": 9.99386, "lon": -84.2088}, "countryCode": "CR"}, "averageDailyFlights": 0.71, "operators": [{"name": "Avianca", "iata": "AV", "icao": "AVA"}]}, {"destination": {"icao": "SPJC", "iata": "LIM", "name": "Lima Jorge Ch\u00e1vez", "shortName": "Jorge Ch\u00e1vez", "municipalityName": "Lima", "location": {"lat": -12.0219, "lon": -77.1143}, "countryCode": "PE"}, "averageDailyFlights": 0.57, "operators": [{"name": "LATAM", "iata": "LA", "icao": "LAN"}]}, {"destination": {"icao": "SEGU", "iata": "GYE", "name": "Guayaquil Jos\u00e9 Joaqu\u00edn de Olmedo", "shortName": "Jos\u00e9 Joaqu\u00edn de Olmedo", "municipalityName": "Guayaquil", "location": {"lat": -2.157419, "lon": -79.8836}, "countryCode": "EC"}, "averageDailyFlights": 0.43, "operators": [{"name": "Avianca", "iata": "AV", "icao": "AVA"}]}, {"destination": {"icao": "LEMD", "iata": "MAD", "name": "Madrid Adolfo Su\u00e1rez \u2013Barajas", "shortName": "Adolfo Su\u00e1rez \u2013Barajas", "municipalityName": "Madrid", "location": {"lat": 40.4936, "lon": -3.56676}, "countryCode": "ES"}, "averageDailyFlights": 0.43, "operators": [{"name": "Plus Ultra", "iata": "PU", "icao": "PUE"}]}, {"destination": {"icao": "KBCT", "iata": "BCT", "name": "Boca Raton ", "shortName": "Boca Raton", "municipalityName": "Boca Raton", "location": {"lat": 26.378498, "lon": -80.1077}, "countryCode": "US"}, "averageDailyFlights": 0.14, "operators": [{"name": "TCA", "iata": "N6", "icao": "TZS"}]}, {"destination": {"icao": "SKBG", "iata": "BGA", "name": "Bucaramanga Palonegro", "shortName": "Palonegro", "municipalityName": "Bucaramanga", "location": {"lat": 7.1265, "lon": -73.1848}, "countryCode": "CO"}, "averageDailyFlights": 0.14, "operators": [{"name": "Avianca", "iata": "AV", "icao": "AVA"}]}, {"destination": {"icao": "KMCO", "iata": "MCO", "name": "Orlando ", "shortName": "Orlando", "municipalityName": "Orlando", "location": {"lat": 28.4294, "lon": -81.309}, "countryCode": "US"}, "averageDailyFlights": 0.14, "operators": [{"name": "Spirit Airlines", "iata": "NK", "icao": "NKS"}]}, {"destination": {"icao": "SBGR", "iata": "GRU", "name": "S\u00e3o Paulo Guarulhos - Governador Andr\u00e9 Franco Montoro", "shortName": "Guarulhos - Governador Andr\u00e9 Franco Montoro", "municipalityName": "S\u00e3o Paulo", "location": {"lat": -23.435556, "lon": -46.473057}, "countryCode": "BR"}, "averageDailyFlights": 0.14, "operators": [{"name": "Avianca", "iata": "AV", "icao": "AVA"}]}]}