{"routes": [{"destination": {"icao": "TFFJ", "iata": "SBH", "name": "Gustavia Gustaf III", "shortName": "Gustaf III", "municipalityName": "Gustavia", "location": {"lat": 17.9044, "lon": -62.8436}, "countryCode": "BL"}, "averageDailyFlights": 35.0, "operators": [{"name": "Winair", "iata": "WM", "icao": "WIA"}, {"name": "Saint Barth Commuter", "iata": "PV", "icao": "SBU"}]}, {"destination": {"icao": "TUPJ", "iata": "EIS", "name": "Road Town Terrance B. Lettsome", "shortName": "Terrance B. Lettsome", "municipalityName": "Road Town", "location": {"lat": 18.4448, "lon": -64.543}, "countryCode": "VG"}, "averageDailyFlights": 3.86, "operators": [{"name": "LIAT", "iata": "LI", "icao": "LIA"}, {"name": "Winair", "iata": "WM", "icao": "WIA"}]}, {"destination": {"icao": "TNCS", "iata": "SAB", "name": "Saba Juancho E. Yrausquin", "shortName": "Juancho E. Yrausquin", "municipalityName": "Saba", "location": {"lat": 17.645, "lon": -63.22}, "countryCode": "BQ"}, "averageDailyFlights": 3.0, "operators": [{"name": "Winair", "iata": "WM", "icao": "WIA"}]}, {"destination": {"icao": "TAPA", "iata": "ANU", "name": "St. George V.C. Bird", "shortName": "V.C. Bird", "municipalityName": "St. George", "location": {"lat": 17.1367, "lon": -61.7927}, "countryCode": "AG"}, "averageDailyFlights": 3.0, "operators": [{"name": "Winair", "iata": "WM", "icao": "WIA"}, {"name": "Air Antilles Express", "iata": "3S", "icao": "GUY"}, {"name": "LIAT", "iata": "LI", "icao": "LIA"}]}, {"destination": {"icao": "TNCE", "iata": "EUX", "name": "Sint Eustatius F. D. Roosevelt", "shortName": "F. D. Roosevelt", "municipalityName": "Sint Eustatius", "location": {"lat": 17.4965, "lon": -62.9794}, "countryCode": "BQ"}, "averageDailyFlights": 2.86, "operators": [{"name": "Winair", "iata": "WM", "icao": "WIA"}]}, {"destination": {"icao": "KJFK", "iata": "JFK", "name": "New York John F Kennedy", "shortName": "John F Kennedy", "municipalityName": "New York", "location": {"lat": 40.6398, "lon": -73.7789}, "countryCode": "US"}, "averageDailyFlights": 2.44, "operators": [{"name": "JetBlue Airways", "iata": "B6", "icao": "JBU"}, {"name": "Delta Air Lines", "iata": "DL", "icao": "DAL"}, {"name": "United Airlines", "iata": "UA", "icao": "UAL"}]}, {"destination": {"icao": "TNCC", "iata": "CUR", "name": "Willemstad Hato", "shortName": "Hato", "municipalityName": "Willemstad", "location": {"lat": 12.188899, "lon": -68.9598}, "countryCode": "CW"}, "averageDailyFlights": 2.29, "operators": [{"name": "Jetair Caribbean", "iata": "4J", "icao": "JRC"}, {"name": "PNG Air", "iata": "CG", "icao": "TOK"}, {"name": "Vuela El Salvador", "iata": "N3", "icao": "VOS"}, {"name": "Winair", "iata": "WM", "icao": "WIA"}, {"name": "FlexFlight", "iata": "W2", "icao": "FXT"}]}, {"destination": {"icao": "TKPK", "iata": "SKB", "name": "Basseterre Robert L. Bradshaw", "shortName": "Robert L. Bradshaw", "municipalityName": "Basseterre", "location": {"lat": 17.3112, "lon": -62.7187}, "countryCode": "KN"}, "averageDailyFlights": 2.14, "operators": [{"name": "Winair", "iata": "WM", "icao": "WIA"}]}, {"destination": {"icao": "TJSJ", "iata": "SJU", "name": "San Juan Luis Munoz Marin", "shortName": "Luis Munoz Marin", "municipalityName": "San Juan", "location": {"lat": 18.4394, "lon": -66.0018}, "countryCode": "PR"}, "averageDailyFlights": 1.57, "operators": [{"name": "Air Antilles Express", "iata": "3S", "icao": "GUY"}, {"name": "Silver Airways", "iata": "3M", "icao": "SIL"}, {"name": "Air Flamenco", "iata": "F4", "icao": "WAF"}]}, {"destination": {"icao": "KATL", "iata": "ATL", "name": "Atlanta Hartsfield Jackson", "shortName": "Hartsfield Jackson", "municipalityName": "Atlanta", "location": {"lat": 33.6367, "lon": -84.4281}, "countryCode": "US"}, "averageDailyFlights": 1.14, "operators": [{"name": "Delta Air Lines", "iata": "DL", "icao": "DAL"}]}, {"destination": {"icao": "KEWR", "iata": "EWR", "name": "Newark Liberty", "shortName": "Liberty", "municipalityName": "Newark", "location": {"lat": 40.6925, "lon": -74.1687}, "countryCode": "US"}, "averageDailyFlights": 1.14, "operators": [{"name": "United Airlines", "iata": "UA", "icao": "UAL"}]}, {"destination": {"icao": "LFPG", "iata": "CDG", "name": "Paris Charles de Gaulle", "shortName": "Charles de Gaulle", "municipalityName": "Paris", "location": {"lat": 49.0128, "lon": 2.549999}, "countryCode": "FR"}, "averageDailyFlights": 1.14, "operators": [{"name": "Air France", "iata": "AF", "icao": "AFR"}]}, {"destination": {"icao": "KCLT", "iata": "CLT", "name": "Charlotte Douglas", "shortName": "Douglas", "municipalityName": "Charlotte", "location": {"lat": 35.214, "lon": -80.9431}, "countryCode": "US"}, "averageDailyFlights": 1.0, "operators": [{"name": "American Airlines", "iata": "AA", "icao": "AAL"}]}, {"destination": {"icao": "CYYZ", "iata": "YYZ", "name": "Toronto Pearson", "shortName": "Pearson", "municipalityName": "Toronto", "location": {"lat": 43.6772, "lon": -79.6306}, "countryCode": "CA"}, "averageDailyFlights": 0.72, "operators": [{"name": "Air Transat", "iata": "TS", "icao": "TSC"}, {"name": "CJL"}, {"name": "Sunwing", "iata": "WG", "icao": "SWG"}, {"name": "WestJet", "iata": "WS", "icao": "WJA"}]}, {"destination": {"icao": "TDPD", "iata": "DOM", "name": "Marigot Melville Hall", "shortName": "Melville Hall", "municipalityName": "Marigot", "location": {"lat": 15.546999, "lon": -61.3}, "countryCode": "DM"}, "averageDailyFlights": 0.71, "operators": [{"name": "Air Antilles Express", "iata": "3S", "icao": "GUY"}]}, {"destination": {"icao": "TTPP", "iata": "POS", "name": "Port of Spain Piarco", "shortName": "Piarco", "municipalityName": "Port of Spain", "location": {"lat": 10.595399, "lon": -61.3372}, "countryCode": "TT"}, "averageDailyFlights": 0.71, "operators": [{"name": "KLM", "iata": "KL", "icao": "KLM"}, {"name": "Caribbean Airlines", "iata": "BW", "icao": "BWA"}]}, {"destination": {"icao": "MDSD", "iata": "SDQ", "name": "Santo Domingo City Las Am\u00e9ricas", "shortName": "Las Am\u00e9ricas", "municipalityName": "Santo Domingo City", "location": {"lat": 18.4297, "lon": -69.6689}, "countryCode": "DO"}, "averageDailyFlights": 0.71, "operators": [{"name": "Dominican Wings", "iata": "DW", "icao": "DWI"}, {"name": "Sky High Aviation", "iata": "DO", "icao": "SHH"}]}, {"destination": {"name": "Miami"}, "averageDailyFlights": 0.71, "operators": [{"name": "American Airlines", "iata": "AA", "icao": "AAL"}]}, {"destination": {"icao": "KIAD", "iata": "IAD", "name": "District of Columbia Washington Dulles", "shortName": "Washington Dulles", "municipalityName": "District of Columbia", "location": {"lat": 38.9445, "lon": -77.4558}, "countryCode": "US"}, "averageDailyFlights": 0.57, "operators": [{"name": "United Airlines", "iata": "UA", "icao": "UAL"}]}, {"destination": {"icao": "TNCA", "iata": "AUA", "name": "Oranjestad Queen Beatrix", "shortName": "Queen Beatrix", "municipalityName": "Oranjestad", "location": {"lat": 12.501399, "lon": -70.0152}, "countryCode": "AW"}, "averageDailyFlights": 0.57, "operators": [{"name": "Winair", "iata": "WM", "icao": "WIA"}, {"name": "PNG Air", "iata": "CG", "icao": "TOK"}]}, {"destination": {"icao": "KPBI", "iata": "PBI", "name": "West Palm Beach Palm Beach", "shortName": "Palm Beach", "municipalityName": "West Palm Beach", "location": {"lat": 26.6832, "lon": -80.0956}, "countryCode": "US"}, "averageDailyFlights": 0.57, "operators": [{"name": "KPO"}, {"name": "My Jet Xpress Airlines", "iata": "N7", "icao": "NEP"}, {"name": "LXJ"}]}, {"destination": {"icao": "KHPN", "iata": "HPN", "name": "White Plains Westchester County", "shortName": "Westchester County", "municipalityName": "White Plains", "location": {"lat": 41.067, "lon": -73.7076}, "countryCode": "US"}, "averageDailyFlights": 0.57, "operators": [{"name": "WWI"}, {"name": "TFF"}]}, {"destination": {"icao": "KFXE", "iata": "FXE", "name": "Fort Lauderdale Executive", "shortName": "Executive", "municipalityName": "Fort Lauderdale", "location": {"lat": 26.197298, "lon": -80.1707}, "countryCode": "US"}, "averageDailyFlights": 0.43, "operators": [{"name": "MTS"}, {"name": "TKM"}]}, {"destination": {"icao": "KFLL", "iata": "FLL", "name": "Fort Lauderdale Hollywood", "shortName": "Hollywood", "municipalityName": "Fort Lauderdale", "location": {"lat": 26.0726, "lon": -80.1527}, "countryCode": "US"}, "averageDailyFlights": 0.43, "operators": [{"name": "Spirit Airlines", "iata": "NK", "icao": "NKS"}, {"name": "Papillon Airways", "iata": "HI"}]}, {"destination": {"icao": "KTEB", "iata": "TEB", "name": "Teterboro ", "shortName": "Teterboro", "municipalityName": "Teterboro", "location": {"lat": 40.8501, "lon": -74.0608}, "countryCode": "US"}, "averageDailyFlights": 0.43, "operators": [{"name": "NUM"}, {"name": "LXJ"}, {"name": "TWY"}]}, {"destination": {"icao": "MPTO", "iata": "PTY", "name": "Tocumen ", "shortName": "Tocumen", "municipalityName": "Tocumen", "location": {"lat": 9.071359, "lon": -79.3835}, "countryCode": "PA"}, "averageDailyFlights": 0.43, "operators": [{"name": "Vuela El Salvador", "iata": "N3", "icao": "VOS"}, {"name": "Copa Airlines", "iata": "CM", "icao": "CMP"}]}, {"destination": {"icao": "CYUL", "iata": "YUL", "name": "Montreal Trudeau", "shortName": "Trudeau", "municipalityName": "Montreal", "location": {"lat": 45.4706, "lon": -73.7408}, "countryCode": "CA"}, "averageDailyFlights": 0.33, "operators": [{"name": "Sunwing", "iata": "WG", "icao": "SWG"}, {"name": "Air Transat", "iata": "TS", "icao": "TSC"}]}, {"destination": {"icao": "MKJP", "iata": "KIN", "name": "Kingston Norman Manley", "shortName": "Norman Manley", "municipalityName": "Kingston", "location": {"lat": 17.9357, "lon": -76.7875}, "countryCode": "JM"}, "averageDailyFlights": 0.29, "operators": [{"name": "Caribbean Airlines", "iata": "BW", "icao": "BWA"}]}, {"destination": {"icao": "MDJB", "iata": "JBQ", "name": "La Isabela ", "shortName": "La Isabela", "municipalityName": "La Isabela", "location": {"lat": 18.5725, "lon": -69.9856}, "countryCode": "DO"}, "averageDailyFlights": 0.29, "operators": [{"name": "Air Century", "iata": "Y2", "icao": "CEY"}]}, {"destination": {"icao": "TFFR", "iata": "PTP", "name": "Pointe-\u00e0-Pitre Le Raizet ", "shortName": "Pointe-\u00e0-Pitre Le Raizet", "municipalityName": "Pointe-\u00e0-Pitre Le Raizet", "location": {"lat": 16.2653, "lon": -61.5318}, "countryCode": "GP"}, "averageDailyFlights": 0.29, "operators": [{"name": "Air Antilles Express", "iata": "3S", "icao": "GUY"}]}, {"destination": {"icao": "TVSA", "iata": "SVD", "name": "Argyle ", "shortName": "Argyle", "municipalityName": "Argyle", "location": {"lat": 13.156389, "lon": -61.150276}, "countryCode": "VC"}, "averageDailyFlights": 0.14, "operators": [{"name": "SXM"}]}, {"destination": {"icao": "KBOS", "iata": "BOS", "name": "Boston General Edward Lawrence Logan", "shortName": "General Edward Lawrence Logan", "municipalityName": "Boston", "location": {"lat": 42.3643, "lon": -71.0052}, "countryCode": "US"}, "averageDailyFlights": 0.14, "operators": [{"name": "JetBlue Airways", "iata": "B6", "icao": "JBU"}]}, {"destination": {"icao": "TBPB", "iata": "BGI", "name": "Bridgetown Sir Grantley Adams", "shortName": "Sir Grantley Adams", "municipalityName": "Bridgetown", "location": {"lat": 13.0746, "lon": -59.4925}, "countryCode": "BB"}, "averageDailyFlights": 0.14, "operators": [{"name": "Caribbean Airlines", "iata": "BW", "icao": "BWA"}]}, {"destination": {"icao": "TVSC", "iata": "CIW", "name": "Canouan ", "shortName": "Canouan", "municipalityName": "Canouan", "location": {"lat": 12.699, "lon": -61.3424}, "countryCode": "VC"}, "averageDailyFlights": 0.14, "operators": [{"name": "N2"}]}, {"destination": {"icao": "KAFW", "iata": "AFW", "name": "Fort Worth Alliance", "shortName": "Alliance", "municipalityName": "Fort Worth", "location": {"lat": 32.9876, "lon": -97.3188}, "countryCode": "US"}, "averageDailyFlights": 0.14, "operators": [{"name": "Omni Air International", "iata": "OY", "icao": "OAE"}]}, {"destination": {"icao": "TFFG", "iata": "SFG", "name": "Grand Case L'Esp\u00e9rance", "shortName": "L'Esp\u00e9rance", "municipalityName": "Grand Case", "location": {"lat": 18.0999, "lon": -63.0472}, "countryCode": "MF"}, "averageDailyFlights": 0.14, "operators": [{"name": "FHMYL"}]}, {"destination": {"icao": "KJAX", "iata": "JAX", "name": "Jacksonville ", "shortName": "Jacksonville", "municipalityName": "Jacksonville", "location": {"lat": 30.4941, "lon": -81.6879}, "countryCode": "US"}, "averageDailyFlights": 0.14, "operators": [{"name": "LXJ"}]}, {"destination": {"icao": "KLAX", "iata": "LAX", "name": "Los Angeles ", "shortName": "Los Angeles", "municipalityName": "Los Angeles", "location": {"lat": 33.9425, "lon": -118.408}, "countryCode": "US"}, "averageDailyFlights": 0.14, "operators": [{"name": "TIV"}]}, {"destination": {"icao": "SBMQ", "iata": "MCP", "name": "Macap\u00e1 Alberto Alcolumbre", "shortName": "Alberto Alcolumbre", "municipalityName": "Macap\u00e1", "location": {"lat": 0.050664, "lon": -51.0722}, "countryCode": "BR"}, "averageDailyFlights": 0.14, "operators": [{"name": "PSOIG"}]}, {"destination": {"icao": "KAPF", "iata": "APF", "name": "Naples Municipal", "shortName": "Municipal", "municipalityName": "Naples", "location": {"lat": 26.1526, "lon": -81.7753}, "countryCode": "US"}, "averageDailyFlights": 0.14, "operators": [{"name": "LXJ"}]}, {"destination": {"icao": "KBNA", "iata": "BNA", "name": "Nashville ", "shortName": "Nashville", "municipalityName": "Nashville", "location": {"lat": 36.1245, "lon": -86.6782}, "countryCode": "US"}, "averageDailyFlights": 0.14, "operators": [{"name": "JCY"}]}, {"destination": {"icao": "KOMA", "iata": "OMA", "name": "Omaha Eppley Airfield", "shortName": "Eppley Airfield", "municipalityName": "Omaha", "location": {"lat": 41.3032, "lon": -95.8941}, "countryCode": "US"}, "averageDailyFlights": 0.14, "operators": [{"name": "ULC"}]}, {"destination": {"icao": "LFPB", "iata": "LBG", "name": "Paris -Le Bourget", "shortName": "-Le Bourget", "municipalityName": "Paris", "location": {"lat": 48.9694, "lon": 2.44139}, "countryCode": "FR"}, "averageDailyFlights": 0.14, "operators": [{"name": "KAY"}]}, {"destination": {"icao": "MTPP", "iata": "PAP", "name": "Port-au-Prince Toussaint Louverture", "shortName": "Toussaint Louverture", "municipalityName": "Port-au-Prince", "location": {"lat": 18.58, "lon": -72.2925}, "countryCode": "HT"}, "averageDailyFlights": 0.14, "operators": [{"name": "Winair", "iata": "WM", "icao": "WIA"}]}, {"destination": {"icao": "MDPP", "iata": "POP", "name": "Puerto Plata Gregorio Luperon", "shortName": "Gregorio Luperon", "municipalityName": "Puerto Plata", "location": {"lat": 19.7579, "lon": -70.57}, "countryCode": "DO"}, "averageDailyFlights": 0.14, "operators": [{"name": "Papillon Airways", "iata": "HI"}]}, {"destination": {"icao": "KRDU", "iata": "RDU", "name": "Raleigh/Durham Raleigh Durham", "shortName": "Raleigh Durham", "municipalityName": "Raleigh/Durham", "location": {"lat": 35.8776, "lon": -78.7875}, "countryCode": "US"}, "averageDailyFlights": 0.14, "operators": [{"name": "MTS"}]}, {"destination": {"icao": "MROC", "iata": "SJO", "name": "San Jos\u00e9 Juan Santamaria", "shortName": "Juan Santamaria", "municipalityName": "San Jos\u00e9", "location": {"lat": 9.99386, "lon": -84.2088}, "countryCode": "CR"}, "averageDailyFlights": 0.14, "operators": [{"name": "LXJ"}]}, {"destination": {"icao": "CYYT", "iata": "YYT", "name": "St. John's ", "shortName": "St. John's", "municipalityName": "St. John's", "location": {"lat": 47.6186, "lon": -52.7519}, "countryCode": "CA"}, "averageDailyFlights": 0.14, "operators": [{"name": "SYB"}]}, {"destination": {"icao": "KILM", "iata": "ILM", "name": "Wilmington ", "shortName": "Wilmington", "municipalityName": "Wilmington", "location": {"lat": 34.2706, "lon": -77.9026}, "countryCode": "US"}, "averageDailyFlights": 0.14, "operators": [{"name": "TKK"}]}, {"destination": {"name": "Antigua"}, "averageDailyFlights": 0.14, "operators": [{"name": "LIAT", "iata": "LI", "icao": "LIA"}]}]}