{"routes": [{"destination": {"icao": "UAAA", "iata": "ALA", "localCode": "\u0410\u041b\u0410", "name": "Almaty ", "shortName": "Almaty", "municipalityName": "Almaty", "location": {"lat": 43.3521, "lon": 77.0405}, "countryCode": "KZ"}, "averageDailyFlights": 3.43, "operators": [{"name": "Air Astana", "iata": "KC", "icao": "KZR"}, {"name": "SCAT Airlines", "iata": "DV", "icao": "VSV"}]}, {"destination": {"name": "Astana"}, "averageDailyFlights": 2.86, "operators": [{"name": "SCAT Airlines", "iata": "DV", "icao": "VSV"}, {"name": "Air Astana", "iata": "KC", "icao": "KZR"}]}, {"destination": {"icao": "UAII", "iata": "CIT", "localCode": "\u0428\u041c\u0422", "name": "Shymkent ", "shortName": "Shymkent", "municipalityName": "Shymkent", "location": {"lat": 42.3642, "lon": 69.4789}, "countryCode": "KZ"}, "averageDailyFlights": 1.43, "operators": [{"name": "SCAT Airlines", "iata": "DV", "icao": "VSV"}, {"name": "Air Astana", "iata": "KC", "icao": "KZR"}]}, {"destination": {"icao": "UATG", "iata": "GUW", "localCode": "\u0410\u0422\u042b", "name": "Atyrau ", "shortName": "Atyrau", "municipalityName": "Atyrau", "location": {"lat": 47.1219, "lon": 51.8214}, "countryCode": "KZ"}, "averageDailyFlights": 1.29, "operators": [{"name": "Air Astana", "iata": "KC", "icao": "KZR"}]}, {"destination": {"icao": "LTFM", "iata": "IST", "name": "Istanbul ", "shortName": "Istanbul", "municipalityName": "Istanbul", "location": {"lat": 41.275276, "lon": 28.751944}, "countryCode": "TR"}, "averageDailyFlights": 1.29, "operators": [{"name": "Turkish Airlines", "iata": "TK", "icao": "THY"}, {"name": "SCAT Airlines", "iata": "DV", "icao": "VSV"}, {"name": "Air Astana", "iata": "KC", "icao": "KZR"}]}, {"destination": {"icao": "UBBB", "iata": "GYD", "localCode": "\u0411\u0410\u041a", "name": "Baku Heydar Aliyev", "shortName": "Heydar Aliyev", "municipalityName": "Baku", "location": {"lat": 40.4675, "lon": 50.0467}, "countryCode": "AZ"}, "averageDailyFlights": 1.0, "operators": [{"name": "AZAL Azerbaijan Airlines", "iata": "J2", "icao": "AHY"}, {"name": "Air Astana", "iata": "KC", "icao": "KZR"}]}, {"destination": {"icao": "UATT", "iata": "AKX", "localCode": "\u0410\u041a\u0425", "name": "Aktyuinsk Aktobe", "shortName": "Aktobe", "municipalityName": "Aktyuinsk", "location": {"lat": 50.2458, "lon": 57.2067}, "countryCode": "KZ"}, "averageDailyFlights": 0.71, "operators": [{"name": "Air Astana", "iata": "KC", "icao": "KZR"}]}, {"destination": {"icao": "URWA", "iata": "ASF", "localCode": "\u0410\u0421\u0420", "name": "Astrakhan ", "shortName": "Astrakhan", "municipalityName": "Astrakhan", "location": {"lat": 46.2833, "lon": 48.0063}, "countryCode": "RU"}, "averageDailyFlights": 0.57, "operators": [{"name": "SCAT Airlines", "iata": "DV", "icao": "VSV"}]}, {"destination": {"icao": "UUEE", "iata": "SVO", "localCode": "\u0428\u0420\u041c", "name": "Moscow Sheremetyevo", "shortName": "Sheremetyevo", "municipalityName": "Moscow", "location": {"lat": 55.9726, "lon": 37.4146}, "countryCode": "RU"}, "averageDailyFlights": 0.57, "operators": [{"name": "Rossiya Airlines", "iata": "FV", "icao": "SDM"}]}, {"destination": {"icao": "UUWW", "iata": "VKO", "localCode": "\u0412\u041d\u041a", "name": "Moscow Vnukovo", "shortName": "Vnukovo", "municipalityName": "Moscow", "location": {"lat": 55.5915, "lon": 37.2615}, "countryCode": "RU"}, "averageDailyFlights": 0.57, "operators": [{"name": "SCAT Airlines", "iata": "DV", "icao": "VSV"}]}, {"destination": {"name": "London"}, "averageDailyFlights": 0.57, "operators": [{"name": "Air Astana", "iata": "KC", "icao": "KZR"}]}, {"destination": {"icao": "UGTB", "iata": "TBS", "name": "Tbilisi ", "shortName": "Tbilisi", "municipalityName": "Tbilisi", "location": {"lat": 41.6692, "lon": 44.9547}, "countryCode": "GE"}, "averageDailyFlights": 0.43, "operators": [{"name": "SCAT Airlines", "iata": "DV", "icao": "VSV"}]}, {"destination": {"icao": "USSS", "iata": "SVX", "localCode": "\u041a\u041b\u0426", "name": "Ekaterinburg Koltsovo", "shortName": "Koltsovo", "municipalityName": "Ekaterinburg", "location": {"lat": 56.7431, "lon": 60.8027}, "countryCode": "RU"}, "averageDailyFlights": 0.29, "operators": [{"name": "Red Wings", "iata": "WZ", "icao": "RWZ"}]}, {"destination": {"icao": "UACK", "iata": "KOV", "localCode": "\u041a\u0427\u0422", "name": "Kokshetau ", "shortName": "Kokshetau", "municipalityName": "Kokshetau", "location": {"lat": 53.3291, "lon": 69.5946}, "countryCode": "KZ"}, "averageDailyFlights": 0.29, "operators": [{"name": "SCAT Airlines", "iata": "DV", "icao": "VSV"}]}, {"destination": {"icao": "UGKO", "iata": "KUT", "name": "Kutaisi Kopitnari", "shortName": "Kopitnari", "municipalityName": "Kutaisi", "location": {"lat": 42.1767, "lon": 42.4826}, "countryCode": "GE"}, "averageDailyFlights": 0.29, "operators": [{"name": "Air Astana", "iata": "KC", "icao": "KZR"}]}, {"destination": {"name": "Turkestan"}, "averageDailyFlights": 0.29, "operators": [{"name": "SCAT Airlines", "iata": "DV", "icao": "VSV"}]}, {"destination": {"icao": "URMG", "iata": "GRV", "localCode": "\u0413\u0420\u041d", "name": "Grozny North", "shortName": "North", "municipalityName": "Grozny", "location": {"lat": 43.3883, "lon": 45.6986}, "countryCode": "RU"}, "averageDailyFlights": 0.14, "operators": [{"name": "SCAT Airlines", "iata": "DV", "icao": "VSV"}]}, {"destination": {"icao": "URML", "iata": "MCX", "localCode": "\u041c\u0425\u041b", "name": "Makhachkala Uytash", "shortName": "Uytash", "municipalityName": "Makhachkala", "location": {"lat": 42.8168, "lon": 47.6523}, "countryCode": "RU"}, "averageDailyFlights": 0.14, "operators": [{"name": "SCAT Airlines", "iata": "DV", "icao": "VSV"}]}, {"destination": {"icao": "UTNN", "iata": "NCU", "localCode": "\u041d\u0423\u0421", "name": "Nukus ", "shortName": "Nukus", "municipalityName": "Nukus", "location": {"lat": 42.4884, "lon": 59.6233}, "countryCode": "UZ"}, "averageDailyFlights": 0.14, "operators": [{"name": "SCAT Airlines", "iata": "DV", "icao": "VSV"}]}, {"destination": {"icao": "URSS", "iata": "AER", "localCode": "\u0421\u041e\u0427", "name": "Sochi ", "shortName": "Sochi", "municipalityName": "Sochi", "location": {"lat": 43.4499, "lon": 39.9566}, "countryCode": "RU"}, "averageDailyFlights": 0.14, "operators": [{"name": "Azimuth Airlines", "iata": "A4", "icao": "AZO"}]}, {"destination": {"icao": "UARR", "iata": "URA", "localCode": "\u0423\u0420\u041b", "name": "Uralsk ", "shortName": "Uralsk", "municipalityName": "Uralsk", "location": {"lat": 51.1508, "lon": 51.5431}, "countryCode": "KZ"}, "averageDailyFlights": 0.14, "operators": [{"name": "Air Astana", "iata": "KC", "icao": "KZR"}]}, {"destination": {"icao": "UDYZ", "iata": "EVN", "localCode": "\u0417\u0412\u0420", "name": "Yerevan Zvartnots", "shortName": "Zvartnots", "municipalityName": "Yerevan", "location": {"lat": 40.1473, "lon": 44.3959}, "countryCode": "AM"}, "averageDailyFlights": 0.14, "operators": [{"name": "Air Astana", "iata": "KC", "icao": "KZR"}]}, {"destination": {"name": "Zhukovsky"}, "averageDailyFlights": 0.14, "operators": [{"name": "Red Wings", "iata": "WZ", "icao": "RWZ"}]}]}