{"routes": [{"destination": {"icao": "UNNT", "iata": "OVB", "localCode": "\u0422\u041b\u0427", "name": "Novosibirsk Tolmachevo", "shortName": "Tolmachevo", "municipalityName": "Novosibirsk", "location": {"lat": 55.0126, "lon": 82.6507}, "countryCode": "RU"}, "averageDailyFlights": 4.43, "operators": [{"name": "S7 Airlines", "iata": "S7", "icao": "SBI"}, {"name": "NordStar Airlines", "iata": "Y7", "icao": "TYA"}]}, {"destination": {"icao": "UUEE", "iata": "SVO", "localCode": "\u0428\u0420\u041c", "name": "Moscow Sheremetyevo", "shortName": "Sheremetyevo", "municipalityName": "Moscow", "location": {"lat": 55.9726, "lon": 37.4146}, "countryCode": "RU"}, "averageDailyFlights": 4.29, "operators": [{"name": "Pobeda", "iata": "DP", "icao": "PBD"}, {"name": "Aeroflot", "iata": "SU", "icao": "AFL"}]}, {"destination": {"icao": "UUDD", "iata": "DME", "localCode": "\u0414\u041c\u0414", "name": "Moscow Domodedovo", "shortName": "Domodedovo", "municipalityName": "Moscow", "location": {"lat": 55.4088, "lon": 37.9063}, "countryCode": "RU"}, "averageDailyFlights": 3.14, "operators": [{"name": "S7 Airlines", "iata": "S7", "icao": "SBI"}, {"name": "Ural Airlines", "iata": "U6", "icao": "SVR"}]}, {"destination": {"icao": "UIKB", "iata": "ODO", "localCode": "\u0411\u0414\u0411", "name": "Bodaybo ", "shortName": "Bodaybo", "municipalityName": "Bodaybo", "location": {"lat": 57.8661, "lon": 114.243}, "countryCode": "RU"}, "averageDailyFlights": 2.77, "operators": [{"name": "Angara Airlines", "iata": "2G", "icao": "AGU"}, {"name": "IrAero", "iata": "IO", "icao": "IAE"}]}, {"destination": {"icao": "ULLI", "iata": "LED", "localCode": "\u041f\u041b\u041a", "name": "Saint-Petersburg Pulkovo", "shortName": "Pulkovo", "municipalityName": "Saint-Petersburg", "location": {"lat": 59.8003, "lon": 30.2625}, "countryCode": "RU"}, "averageDailyFlights": 2.14, "operators": [{"name": "S7 Airlines", "iata": "S7", "icao": "SBI"}, {"name": "Rossiya Airlines", "iata": "FV", "icao": "SDM"}]}, {"destination": {"icao": "UNKL", "iata": "KJA", "localCode": "\u041a\u042f\u0410", "name": "Krasnoyarsk Yemelyanovo", "shortName": "Yemelyanovo", "municipalityName": "Krasnoyarsk", "location": {"lat": 56.1729, "lon": 92.4933}, "countryCode": "RU"}, "averageDailyFlights": 1.86, "operators": [{"name": "Rossiya Airlines", "iata": "FV", "icao": "SDM"}, {"name": "UTAir", "iata": "UT", "icao": "UTA"}]}, {"destination": {"name": "Zhigalovo"}, "averageDailyFlights": 1.86, "operators": [{"name": "Gazpromavia", "iata": "4G", "icao": "GZP"}, {"name": "Angara Airlines", "iata": "2G", "icao": "AGU"}]}, {"destination": {"icao": "UIBS", "iata": "UIK", "name": "Ust-Ilimsk ", "shortName": "Ust-Ilimsk", "municipalityName": "Ust-Ilimsk", "location": {"lat": 58.1361, "lon": 102.565}, "countryCode": "RU"}, "averageDailyFlights": 1.84, "operators": [{"name": "Sibirskaya legkaya aviatsiya (SILA)"}, {"name": "IrAero", "iata": "IO", "icao": "IAE"}, {"name": "Angara Airlines", "iata": "2G", "icao": "AGU"}]}, {"destination": {"icao": "UHHH", "iata": "KHV", "localCode": "\u0425\u0411\u0420", "name": "Khabarovsk Novy", "shortName": "Novy", "municipalityName": "Khabarovsk", "location": {"lat": 48.528, "lon": 135.188}, "countryCode": "RU"}, "averageDailyFlights": 1.71, "operators": [{"name": "Aurora", "iata": "HZ", "icao": "SHU"}, {"name": "S7 Airlines", "iata": "S7", "icao": "SBI"}]}, {"destination": {"icao": "UIAA", "iata": "HTA", "localCode": "\u0421\u0425\u0422", "name": "Chita Kadala", "shortName": "Kadala", "municipalityName": "Chita", "location": {"lat": 52.0263, "lon": 113.306}, "countryCode": "RU"}, "averageDailyFlights": 1.57, "operators": [{"name": "IrAero", "iata": "IO", "icao": "IAE"}, {"name": "Angara Airlines", "iata": "2G", "icao": "AGU"}]}, {"destination": {"icao": "URSS", "iata": "AER", "localCode": "\u0421\u041e\u0427", "name": "Sochi ", "shortName": "Sochi", "municipalityName": "Sochi", "location": {"lat": 43.4499, "lon": 39.9566}, "countryCode": "RU"}, "averageDailyFlights": 1.57, "operators": [{"name": "S7 Airlines", "iata": "S7", "icao": "SBI"}]}, {"destination": {"icao": "UHWW", "iata": "VVO", "localCode": "\u0412\u0412\u041e", "name": "Vladivostok Knevichi", "shortName": "Knevichi", "municipalityName": "Vladivostok", "location": {"lat": 43.399, "lon": 132.148}, "countryCode": "RU"}, "averageDailyFlights": 1.29, "operators": [{"name": "S7 Airlines", "iata": "S7", "icao": "SBI"}, {"name": "IrAero", "iata": "IO", "icao": "IAE"}]}, {"destination": {"name": "Olekminsk"}, "averageDailyFlights": 1.14, "operators": [{"name": "Yakutia", "iata": "R3", "icao": "SYL"}, {"name": "IrAero", "iata": "IO", "icao": "IAE"}]}, {"destination": {"icao": "UEEE", "iata": "YKS", "localCode": "\u042f\u041a\u0422", "name": "Yakutsk ", "shortName": "Yakutsk", "municipalityName": "Yakutsk", "location": {"lat": 62.0933, "lon": 129.771}, "countryCode": "RU"}, "averageDailyFlights": 1.0, "operators": [{"name": "S7 Airlines", "iata": "S7", "icao": "SBI"}, {"name": "IrAero", "iata": "IO", "icao": "IAE"}, {"name": "Yakutia", "iata": "R3", "icao": "SYL"}]}, {"destination": {"icao": "UERR", "iata": "MJZ", "localCode": "\u041c\u0418\u0420", "name": "Mirny ", "shortName": "Mirny", "municipalityName": "Mirny", "location": {"lat": 62.5347, "lon": 114.039}, "countryCode": "RU"}, "averageDailyFlights": 0.87, "operators": [{"name": "IrAero", "iata": "IO", "icao": "IAE"}, {"name": "S7 Airlines", "iata": "S7", "icao": "SBI"}, {"name": "Alrosa", "iata": "6R", "icao": "DRU"}]}, {"destination": {"icao": "USSS", "iata": "SVX", "localCode": "\u041a\u041b\u0426", "name": "Ekaterinburg Koltsovo", "shortName": "Koltsovo", "municipalityName": "Ekaterinburg", "location": {"lat": 56.7431, "lon": 60.8027}, "countryCode": "RU"}, "averageDailyFlights": 0.86, "operators": [{"name": "S7 Airlines", "iata": "S7", "icao": "SBI"}, {"name": "Ural Airlines", "iata": "U6", "icao": "SVR"}]}, {"destination": {"icao": "UCFO", "iata": "OSS", "localCode": "\u041e\u0428\u0428", "name": "Osh ", "shortName": "Osh", "municipalityName": "Osh", "location": {"lat": 40.609, "lon": 72.7933}, "countryCode": "KG"}, "averageDailyFlights": 0.86, "operators": [{"name": "S7 Airlines", "iata": "S7", "icao": "SBI"}, {"name": "Avia Traffic Company", "iata": "YK", "icao": "AVJ"}, {"name": "Ural Airlines", "iata": "U6", "icao": "SVR"}]}, {"destination": {"name": "Kazachinsk"}, "averageDailyFlights": 0.86, "operators": [{"name": "Sibirskaya legkaya aviatsiya (SILA)"}]}, {"destination": {"icao": "UIKK", "iata": "KCK", "localCode": "\u041a\u0420\u041d", "name": "Kirensk ", "shortName": "Kirensk", "municipalityName": "Kirensk", "location": {"lat": 57.773, "lon": 108.064}, "countryCode": "RU"}, "averageDailyFlights": 0.71, "operators": [{"name": "Angara Airlines", "iata": "2G", "icao": "AGU"}]}, {"destination": {"icao": "UIUU", "iata": "UUD", "localCode": "\u0423\u041b\u042d", "name": "Ulan-Ude Mukhino", "shortName": "Mukhino", "municipalityName": "Ulan-Ude", "location": {"lat": 51.8078, "lon": 107.438}, "countryCode": "RU"}, "averageDailyFlights": 0.67, "operators": [{"name": "IrAero", "iata": "IO", "icao": "IAE"}, {"name": "Aero Mongolia", "iata": "M0", "icao": "MNG"}]}, {"destination": {"icao": "UCFM", "iata": "FRU", "localCode": "\u0411\u0418\u0428", "name": "Bishkek Manas", "shortName": "Manas", "municipalityName": "Bishkek", "location": {"lat": 43.0613, "lon": 74.4776}, "countryCode": "KG"}, "averageDailyFlights": 0.57, "operators": [{"name": "S7 Airlines", "iata": "S7", "icao": "SBI"}, {"name": "Avia Traffic Company", "iata": "YK", "icao": "AVJ"}]}, {"destination": {"icao": "UHBB", "iata": "BQS", "localCode": "\u0411\u0413\u0429", "name": "Blagoveschensk Ignatyevo", "shortName": "Ignatyevo", "municipalityName": "Blagoveschensk", "location": {"lat": 50.4254, "lon": 127.412}, "countryCode": "RU"}, "averageDailyFlights": 0.57, "operators": [{"name": "S7 Airlines", "iata": "S7", "icao": "SBI"}, {"name": "IrAero", "iata": "IO", "icao": "IAE"}]}, {"destination": {"icao": "UIBB", "iata": "BTK", "localCode": "\u0411\u0420\u0421", "name": "Bratsk ", "shortName": "Bratsk", "municipalityName": "Bratsk", "location": {"lat": 56.3706, "lon": 101.698}, "countryCode": "RU"}, "averageDailyFlights": 0.57, "operators": [{"name": "Angara Airlines", "iata": "2G", "icao": "AGU"}]}, {"destination": {"icao": "UERL", "iata": "ULK", "localCode": "\u041b\u0421\u041a", "name": "Lensk ", "shortName": "Lensk", "municipalityName": "Lensk", "location": {"lat": 60.7206, "lon": 114.826}, "countryCode": "RU"}, "averageDailyFlights": 0.57, "operators": [{"name": "IrAero", "iata": "IO", "icao": "IAE"}]}, {"destination": {"icao": "UWKD", "iata": "KZN", "name": "Kazan ", "shortName": "Kazan", "municipalityName": "Kazan", "location": {"lat": 55.6062, "lon": 49.2787}, "countryCode": "RU"}, "averageDailyFlights": 0.43, "operators": [{"name": "Nordwind Airlines", "iata": "N4", "icao": "NWS"}]}, {"destination": {"icao": "UHPP", "iata": "PKC", "localCode": "\u041f\u0420\u041b", "name": "Petropavlovsk-Kamchatskiy Yelizovo", "shortName": "Yelizovo", "municipalityName": "Petropavlovsk-Kamchatskiy", "location": {"lat": 53.1679, "lon": 158.454}, "countryCode": "RU"}, "averageDailyFlights": 0.43, "operators": [{"name": "S7 Airlines", "iata": "S7", "icao": "SBI"}]}, {"destination": {"name": "Talakan"}, "averageDailyFlights": 0.43, "operators": [{"name": "IrAero", "iata": "IO", "icao": "IAE"}]}, {"destination": {"name": "Ufa"}, "averageDailyFlights": 0.43, "operators": [{"name": "S7 Airlines", "iata": "S7", "icao": "SBI"}]}, {"destination": {"icao": "VTBS", "iata": "BKK", "name": "Bangkok Suvarnabhumi", "shortName": "Suvarnabhumi", "municipalityName": "Bangkok", "location": {"lat": 13.681099, "lon": 100.747}, "countryCode": "TH"}, "averageDailyFlights": 0.32, "operators": [{"name": "S7 Airlines", "iata": "S7", "icao": "SBI"}]}, {"destination": {"icao": "UTTT", "iata": "TAS", "localCode": "\u0422\u0410\u0421", "name": "Tashkent ", "shortName": "Tashkent", "municipalityName": "Tashkent", "location": {"lat": 41.2579, "lon": 69.2812}, "countryCode": "UZ"}, "averageDailyFlights": 0.31, "operators": [{"name": "Uzbekistan Airways", "iata": "HY", "icao": "UZB"}, {"name": "IrAero", "iata": "IO", "icao": "IAE"}]}, {"destination": {"icao": "UHMM", "iata": "GDX", "localCode": "\u041c\u0414\u0421", "name": "Magadan Sokol", "shortName": "Sokol", "municipalityName": "Magadan", "location": {"lat": 59.911, "lon": 150.72}, "countryCode": "RU"}, "averageDailyFlights": 0.29, "operators": [{"name": "S7 Airlines", "iata": "S7", "icao": "SBI"}]}, {"destination": {"icao": "UELL", "iata": "NER", "localCode": "\u041d\u0420\u0413", "name": "Neryungri Chulman", "shortName": "Chulman", "municipalityName": "Neryungri", "location": {"lat": 56.9139, "lon": 124.914}, "countryCode": "RU"}, "averageDailyFlights": 0.29, "operators": [{"name": "IrAero", "iata": "IO", "icao": "IAE"}]}, {"destination": {"icao": "UHSS", "iata": "UUS", "localCode": "\u042e\u0416\u0425", "name": "Yuzhno-Sakhalinsk ", "shortName": "Yuzhno-Sakhalinsk", "municipalityName": "Yuzhno-Sakhalinsk", "location": {"lat": 46.8887, "lon": 142.718}, "countryCode": "RU"}, "averageDailyFlights": 0.29, "operators": [{"name": "S7 Airlines", "iata": "S7", "icao": "SBI"}]}, {"destination": {"name": "Chara"}, "averageDailyFlights": 0.29, "operators": [{"name": "IrAero", "iata": "IO", "icao": "IAE"}]}, {"destination": {"name": "Mama"}, "averageDailyFlights": 0.29, "operators": [{"name": "IrAero", "iata": "IO", "icao": "IAE"}]}, {"destination": {"name": "Nizhneangarsk"}, "averageDailyFlights": 0.29, "operators": [{"name": "Angara Airlines", "iata": "2G", "icao": "AGU"}]}, {"destination": {"name": "Taksimo"}, "averageDailyFlights": 0.29, "operators": [{"name": "IrAero", "iata": "IO", "icao": "IAE"}]}, {"destination": {"icao": "UTDD", "iata": "DYU", "localCode": "\u0414\u0428\u0411", "name": "Dushanbe ", "shortName": "Dushanbe", "municipalityName": "Dushanbe", "location": {"lat": 38.5433, "lon": 68.825}, "countryCode": "TJ"}, "averageDailyFlights": 0.14, "operators": [{"name": "Ural Airlines", "iata": "U6", "icao": "SVR"}]}, {"destination": {"icao": "UIKE", "iata": "ERG", "localCode": "\u0415\u0413\u0427", "name": "Erbogachen Y", "shortName": "Y", "municipalityName": "Erbogachen", "location": {"lat": 61.275, "lon": 108.03}, "countryCode": "RU"}, "averageDailyFlights": 0.14, "operators": [{"name": "Angara Airlines", "iata": "2G", "icao": "AGU"}]}, {"destination": {"icao": "UTFF", "iata": "FEG", "localCode": "\u0424\u0413\u041d", "name": "Fergana ", "shortName": "Fergana", "municipalityName": "Fergana", "location": {"lat": 40.3588, "lon": 71.745}, "countryCode": "UZ"}, "averageDailyFlights": 0.14, "operators": [{"name": "S7 Airlines", "iata": "S7", "icao": "SBI"}]}, {"destination": {"icao": "ZYHB", "iata": "HRB", "name": "Harbin Taiping", "shortName": "Taiping", "municipalityName": "Harbin", "location": {"lat": 45.6234, "lon": 126.25}, "countryCode": "CN"}, "averageDailyFlights": 0.14, "operators": [{"name": "IrAero", "iata": "IO", "icao": "IAE"}]}, {"destination": {"icao": "UTDL", "iata": "LBD", "localCode": "\u0425\u0414\u0422", "name": "Khudzhand ", "shortName": "Khudzhand", "municipalityName": "Khudzhand", "location": {"lat": 40.2154, "lon": 69.6947}, "countryCode": "TJ"}, "averageDailyFlights": 0.14, "operators": [{"name": "S7 Airlines", "iata": "S7", "icao": "SBI"}]}, {"destination": {"icao": "VTSG", "iata": "KBV", "name": "Krabi ", "shortName": "Krabi", "municipalityName": "Krabi", "location": {"lat": 8.09912, "lon": 98.9862}, "countryCode": "TH"}, "averageDailyFlights": 0.14, "operators": [{"name": "Pegas Fly", "iata": "EO", "icao": "KAR"}]}, {"destination": {"icao": "UTFN", "iata": "NMA", "localCode": "\u041d\u041c\u0413", "name": "Namangan ", "shortName": "Namangan", "municipalityName": "Namangan", "location": {"lat": 40.9846, "lon": 71.5567}, "countryCode": "UZ"}, "averageDailyFlights": 0.14, "operators": [{"name": "Uzbekistan Airways", "iata": "HY", "icao": "UZB"}]}, {"destination": {"icao": "USTR", "iata": "TJM", "localCode": "\u0420\u0429\u041d", "name": "Tyumen Roshchino", "shortName": "Roshchino", "municipalityName": "Tyumen", "location": {"lat": 57.1896, "lon": 65.3243}, "countryCode": "RU"}, "averageDailyFlights": 0.14, "operators": [{"name": "UTAir", "iata": "UT", "icao": "UTA"}]}, {"destination": {"name": "Domodedovo"}, "averageDailyFlights": 0.14, "operators": [{"name": "S7 Airlines", "iata": "S7", "icao": "SBI"}]}, {"destination": {"name": "Noyabrsk"}, "averageDailyFlights": 0.14, "operators": [{"name": "IrAero", "iata": "IO", "icao": "IAE"}]}, {"destination": {"name": "Pkhuket"}, "averageDailyFlights": 0.14, "operators": [{"name": "AZUR Air", "iata": "ZF", "icao": "KTK"}]}, {"destination": {"name": "Shumak"}, "averageDailyFlights": 0.14, "operators": [{"name": "Angara Airlines", "iata": "2G", "icao": "AGU"}]}, {"destination": {"name": "Ulan-Bator (Chingiz Khan)"}, "averageDailyFlights": 0.14, "operators": [{"name": "IrAero", "iata": "IO", "icao": "IAE"}]}, {"destination": {"name": "Utapao"}, "averageDailyFlights": 0.14, "operators": [{"name": "AZUR Air", "iata": "ZF", "icao": "KTK"}]}]}