{"routes": [{"destination": {"icao": "UUEE", "iata": "SVO", "localCode": "\u0428\u0420\u041c", "name": "Moscow Sheremetyevo", "shortName": "Sheremetyevo", "municipalityName": "Moscow", "location": {"lat": 55.9726, "lon": 37.4146}, "countryCode": "RU"}, "averageDailyFlights": 15.51, "operators": [{"name": "Aeroflot", "iata": "SU", "icao": "AFL"}, {"name": "Pobeda", "iata": "DP", "icao": "PBD"}, {"name": "Smartavia", "iata": "5N", "icao": "AUL"}, {"name": "S7 Airlines", "iata": "S7", "icao": "SBI"}]}, {"destination": {"icao": "ULLI", "iata": "LED", "localCode": "\u041f\u041b\u041a", "name": "Saint-Petersburg Pulkovo", "shortName": "Pulkovo", "municipalityName": "Saint-Petersburg", "location": {"lat": 59.8003, "lon": 30.2625}, "countryCode": "RU"}, "averageDailyFlights": 13.55, "operators": [{"name": "Rossiya Airlines", "iata": "FV", "icao": "SDM"}, {"name": "Pobeda", "iata": "DP", "icao": "PBD"}, {"name": "Smartavia", "iata": "5N", "icao": "AUL"}, {"name": "Ural Airlines", "iata": "U6", "icao": "SVR"}]}, {"destination": {"icao": "UUDD", "iata": "DME", "localCode": "\u0414\u041c\u0414", "name": "Moscow Domodedovo", "shortName": "Domodedovo", "municipalityName": "Moscow", "location": {"lat": 55.4088, "lon": 37.9063}, "countryCode": "RU"}, "averageDailyFlights": 9.71, "operators": [{"name": "Ural Airlines", "iata": "U6", "icao": "SVR"}, {"name": "S7 Airlines", "iata": "S7", "icao": "SBI"}]}, {"destination": {"icao": "USSS", "iata": "SVX", "localCode": "\u041a\u041b\u0426", "name": "Ekaterinburg Koltsovo", "shortName": "Koltsovo", "municipalityName": "Ekaterinburg", "location": {"lat": 56.7431, "lon": 60.8027}, "countryCode": "RU"}, "averageDailyFlights": 1.14, "operators": [{"name": "Ural Airlines", "iata": "U6", "icao": "SVR"}]}, {"destination": {"icao": "LTAI", "iata": "AYT", "name": "Antalya ", "shortName": "Antalya", "municipalityName": "Antalya", "location": {"lat": 36.8987, "lon": 30.8005}, "countryCode": "TR"}, "averageDailyFlights": 1.04, "operators": [{"name": "STW"}, {"name": "Air Stork", "iata": "2S", "icao": "MSB"}]}, {"destination": {"name": "Ivanovo"}, "averageDailyFlights": 0.71, "operators": [{"name": "Pegas Fly", "iata": "EO", "icao": "KAR"}]}, {"destination": {"name": "Cherepovets"}, "averageDailyFlights": 0.57, "operators": [{"name": "Severstal Aircompany", "iata": "D2", "icao": "SSF"}]}, {"destination": {"name": "Novosibirsk"}, "averageDailyFlights": 0.57, "operators": [{"name": "S7 Airlines", "iata": "S7", "icao": "SBI"}]}, {"destination": {"icao": "UWGG", "iata": "GOJ", "localCode": "\u041d\u0416\u0421", "name": "Nizhniy Novgorod Strigino", "shortName": "Strigino", "municipalityName": "Nizhniy Novgorod", "location": {"lat": 56.2301, "lon": 43.784}, "countryCode": "RU"}, "averageDailyFlights": 0.43, "operators": [{"name": "Nordwind Airlines", "iata": "N4", "icao": "NWS"}]}, {"destination": {"icao": "UWOO", "iata": "REN", "localCode": "\u041e\u041d\u0413", "name": "Orenburg Central", "shortName": "Central", "municipalityName": "Orenburg", "location": {"lat": 51.7958, "lon": 55.4567}, "countryCode": "RU"}, "averageDailyFlights": 0.43, "operators": [{"name": "Nordwind Airlines", "iata": "N4", "icao": "NWS"}]}, {"destination": {"icao": "ULOO", "iata": "PKV", "localCode": "\u041f\u0421\u041a", "name": "Pskov ", "shortName": "Pskov", "municipalityName": "Pskov", "location": {"lat": 57.7839, "lon": 28.3956}, "countryCode": "RU"}, "averageDailyFlights": 0.43, "operators": [{"name": "Azimuth Airlines", "iata": "A4", "icao": "AZO"}]}, {"destination": {"name": "Perm"}, "averageDailyFlights": 0.43, "operators": [{"name": "Pegas Fly", "iata": "EO", "icao": "KAR"}]}, {"destination": {"name": "Petrozavodsk"}, "averageDailyFlights": 0.43, "operators": [{"name": "Severstal Aircompany", "iata": "D2", "icao": "SSF"}]}, {"destination": {"name": "Yekaterinburg"}, "averageDailyFlights": 0.43, "operators": [{"name": "Ural Airlines", "iata": "U6", "icao": "SVR"}]}, {"destination": {"icao": "USII", "iata": "IJK", "localCode": "\u0418\u0416\u0412", "name": "Izhevsk ", "shortName": "Izhevsk", "municipalityName": "Izhevsk", "location": {"lat": 56.8281, "lon": 53.4575}, "countryCode": "RU"}, "averageDailyFlights": 0.29, "operators": [{"name": "Izhavia", "iata": "I8", "icao": "IZA"}]}, {"destination": {"icao": "UWWW", "iata": "KUF", "localCode": "\u0421\u041a\u0427", "name": "Samara Kurumoch", "shortName": "Kurumoch", "municipalityName": "Samara", "location": {"lat": 53.5049, "lon": 50.1643}, "countryCode": "RU"}, "averageDailyFlights": 0.29, "operators": [{"name": "Nordwind Airlines", "iata": "N4", "icao": "NWS"}]}, {"destination": {"name": "Murmansk"}, "averageDailyFlights": 0.29, "operators": [{"name": "Smartavia", "iata": "5N", "icao": "AUL"}]}, {"destination": {"name": "Kazan"}, "averageDailyFlights": 0.14, "operators": [{"name": "Nordwind Airlines", "iata": "N4", "icao": "NWS"}]}, {"destination": {"name": "Minsk"}, "averageDailyFlights": 0.14, "operators": [{"name": "Belavia", "iata": "B2", "icao": "BRU"}]}]}