{"routes": [{"destination": {"icao": "VIDP", "iata": "DEL", "name": "New Delhi Indira Gandhi", "shortName": "Indira Gandhi", "municipalityName": "New Delhi", "location": {"lat": 28.5665, "lon": 77.1031}, "countryCode": "IN"}, "averageDailyFlights": 5.23, "operators": [{"name": "IndiGo", "iata": "6E", "icao": "IGO"}, {"name": "Vistara", "iata": "UK", "icao": "VTI"}]}, {"destination": {"icao": "VABB", "iata": "BOM", "name": "Mumbai Chhatrapati Shivaji", "shortName": "Chhatrapati Shivaji", "municipalityName": "Mumbai", "location": {"lat": 19.0887, "lon": 72.8679}, "countryCode": "IN"}, "averageDailyFlights": 3.71, "operators": [{"name": "Vistara", "iata": "UK", "icao": "VTI"}, {"name": "IndiGo", "iata": "6E", "icao": "IGO"}, {"name": "GoAir", "iata": "G8", "icao": "GOW"}]}, {"destination": {"icao": "VAAH", "iata": "AMD", "name": "Ahmedabad Sardar Vallabhbhai Patel", "shortName": "Sardar Vallabhbhai Patel", "municipalityName": "Ahmedabad", "location": {"lat": 23.0772, "lon": 72.6347}, "countryCode": "IN"}, "averageDailyFlights": 1.14, "operators": [{"name": "IndiGo", "iata": "6E", "icao": "IGO"}]}, {"destination": {"icao": "VOBL", "iata": "BLR", "name": "Bangalore Bengaluru", "shortName": "Bengaluru", "municipalityName": "Bangalore", "location": {"lat": 13.197899, "lon": 77.7063}, "countryCode": "IN"}, "averageDailyFlights": 1.14, "operators": [{"name": "IndiGo", "iata": "6E", "icao": "IGO"}]}, {"destination": {"icao": "VOHS", "iata": "HYD", "name": "Hyderabad Rajiv Gandhi", "shortName": "Rajiv Gandhi", "municipalityName": "Hyderabad", "location": {"lat": 17.231318, "lon": 78.429855}, "countryCode": "IN"}, "averageDailyFlights": 1.14, "operators": [{"name": "IndiGo", "iata": "6E", "icao": "IGO"}]}, {"destination": {"icao": "VILK", "iata": "LKO", "name": "Lucknow Chaudhary Charan Singh", "shortName": "Chaudhary Charan Singh", "municipalityName": "Lucknow", "location": {"lat": 26.7606, "lon": 80.8893}, "countryCode": "IN"}, "averageDailyFlights": 1.14, "operators": [{"name": "IndiGo", "iata": "6E", "icao": "IGO"}]}, {"destination": {"icao": "VAPO", "iata": "PNQ", "name": "Pune ", "shortName": "Pune", "municipalityName": "Pune", "location": {"lat": 18.5821, "lon": 73.9197}, "countryCode": "IN"}, "averageDailyFlights": 1.0, "operators": [{"name": "IndiGo", "iata": "6E", "icao": "IGO"}]}, {"destination": {"icao": "VECC", "iata": "CCU", "name": "Kolkata Netaji Subhash Chandra Bose", "shortName": "Netaji Subhash Chandra Bose", "municipalityName": "Kolkata", "location": {"lat": 22.6547, "lon": 88.4467}, "countryCode": "IN"}, "averageDailyFlights": 0.71, "operators": [{"name": "IndiGo", "iata": "6E", "icao": "IGO"}]}, {"destination": {"icao": "VIAL", "iata": "IXD", "name": "Allahabad ", "shortName": "Allahabad", "municipalityName": "Allahabad", "location": {"lat": 25.4401, "lon": 81.7339}, "countryCode": "IN"}, "averageDailyFlights": 0.43, "operators": [{"name": "Alliance Air", "iata": "9I", "icao": "LLR"}]}]}