{"routes": [{"destination": {"icao": "VIDP", "iata": "DEL", "name": "New Delhi Indira Gandhi", "shortName": "Indira Gandhi", "municipalityName": "New Delhi", "location": {"lat": 28.5665, "lon": 77.1031}, "countryCode": "IN"}, "averageDailyFlights": 8.15, "operators": [{"name": "IndiGo", "iata": "6E", "icao": "IGO"}, {"name": "AirAsia India", "iata": "I5", "icao": "IAD"}, {"name": "Alliance Air", "iata": "9I", "icao": "LLR"}]}, {"destination": {"icao": "VOBL", "iata": "BLR", "name": "Bangalore Bengaluru", "shortName": "Bengaluru", "municipalityName": "Bangalore", "location": {"lat": 13.197899, "lon": 77.7063}, "countryCode": "IN"}, "averageDailyFlights": 6.43, "operators": [{"name": "IndiGo", "iata": "6E", "icao": "IGO"}, {"name": "GoAir", "iata": "G8", "icao": "GOW"}, {"name": "AirAsia India", "iata": "I5", "icao": "IAD"}]}, {"destination": {"icao": "VABB", "iata": "BOM", "name": "Mumbai Chhatrapati Shivaji", "shortName": "Chhatrapati Shivaji", "municipalityName": "Mumbai", "location": {"lat": 19.0887, "lon": 72.8679}, "countryCode": "IN"}, "averageDailyFlights": 5.45, "operators": [{"name": "AirAsia India", "iata": "I5", "icao": "IAD"}, {"name": "Air India", "iata": "AI", "icao": "AIC"}, {"name": "Vistara", "iata": "UK", "icao": "VTI"}, {"name": "IndiGo", "iata": "6E", "icao": "IGO"}, {"name": "GoAir", "iata": "G8", "icao": "GOW"}]}, {"destination": {"icao": "VOHS", "iata": "HYD", "name": "Hyderabad Rajiv Gandhi", "shortName": "Rajiv Gandhi", "municipalityName": "Hyderabad", "location": {"lat": 17.231318, "lon": 78.429855}, "countryCode": "IN"}, "averageDailyFlights": 4.43, "operators": [{"name": "AirAsia India", "iata": "I5", "icao": "IAD"}, {"name": "IndiGo", "iata": "6E", "icao": "IGO"}]}, {"destination": {"icao": "VECC", "iata": "CCU", "name": "Kolkata Netaji Subhash Chandra Bose", "shortName": "Netaji Subhash Chandra Bose", "municipalityName": "Kolkata", "location": {"lat": 22.6547, "lon": 88.4467}, "countryCode": "IN"}, "averageDailyFlights": 4.0, "operators": [{"name": "IndiGo", "iata": "6E", "icao": "IGO"}, {"name": "SpiceJet", "iata": "SG", "icao": "SEJ"}]}, {"destination": {"icao": "VAPO", "iata": "PNQ", "name": "Pune ", "shortName": "Pune", "municipalityName": "Pune", "location": {"lat": 18.5821, "lon": 73.9197}, "countryCode": "IN"}, "averageDailyFlights": 2.15, "operators": [{"name": "AirAsia India", "iata": "I5", "icao": "IAD"}, {"name": "SpiceJet", "iata": "SG", "icao": "SEJ"}, {"name": "IndiGo", "iata": "6E", "icao": "IGO"}]}, {"destination": {"icao": "OMDB", "iata": "DXB", "name": "Dubai ", "shortName": "Dubai", "municipalityName": "Dubai", "location": {"lat": 25.252798, "lon": 55.3644}, "countryCode": "AE"}, "averageDailyFlights": 1.86, "operators": [{"name": "SpiceJet", "iata": "SG", "icao": "SEJ"}, {"name": "Air India Express", "iata": "IX", "icao": "AXB"}]}, {"destination": {"icao": "VAAH", "iata": "AMD", "name": "Ahmedabad Sardar Vallabhbhai Patel", "shortName": "Sardar Vallabhbhai Patel", "municipalityName": "Ahmedabad", "location": {"lat": 23.0772, "lon": 72.6347}, "countryCode": "IN"}, "averageDailyFlights": 1.14, "operators": [{"name": "SpiceJet", "iata": "SG", "icao": "SEJ"}]}, {"destination": {"icao": "VIAR", "iata": "ATQ", "name": "Amritsar Sri Guru Ram Dass Jee", "shortName": "Sri Guru Ram Dass Jee", "municipalityName": "Amritsar", "location": {"lat": 31.7096, "lon": 74.7973}, "countryCode": "IN"}, "averageDailyFlights": 1.14, "operators": [{"name": "SpiceJet", "iata": "SG", "icao": "SEJ"}]}, {"destination": {"icao": "VOMM", "iata": "MAA", "name": "Chennai ", "shortName": "Chennai", "municipalityName": "Chennai", "location": {"lat": 12.990005, "lon": 80.1693}, "countryCode": "IN"}, "averageDailyFlights": 1.14, "operators": [{"name": "IndiGo", "iata": "6E", "icao": "IGO"}]}, {"destination": {"icao": "VEGT", "iata": "GAU", "name": "Guwahati Lokpriya Gopinath Bordoloi", "shortName": "Lokpriya Gopinath Bordoloi", "municipalityName": "Guwahati", "location": {"lat": 26.1061, "lon": 91.5859}, "countryCode": "IN"}, "averageDailyFlights": 1.14, "operators": [{"name": "SpiceJet", "iata": "SG", "icao": "SEJ"}]}, {"destination": {"icao": "OMSJ", "iata": "SHJ", "name": "Sharjah ", "shortName": "Sharjah", "municipalityName": "Sharjah", "location": {"lat": 25.3286, "lon": 55.5172}, "countryCode": "AE"}, "averageDailyFlights": 1.0, "operators": [{"name": "Air Arabia", "iata": "G9", "icao": "ABY"}]}, {"destination": {"icao": "OOMS", "iata": "MCT", "name": "Muscat ", "shortName": "Muscat", "municipalityName": "Muscat", "location": {"lat": 23.5933, "lon": 58.2844}, "countryCode": "OM"}, "averageDailyFlights": 0.86, "operators": [{"name": "SalamAir", "iata": "OV", "icao": "OMS"}]}, {"destination": {"icao": "VTBD", "iata": "DMK", "name": "Bangkok Don Mueang", "shortName": "Don Mueang", "municipalityName": "Bangkok", "location": {"lat": 13.912599, "lon": 100.607}, "countryCode": "TH"}, "averageDailyFlights": 0.71, "operators": [{"name": "Thai AirAsia", "iata": "FD", "icao": "AIQ"}]}, {"destination": {"icao": "VEBS", "iata": "BBI", "name": "Bhubaneswar Biju Patnaik", "shortName": "Biju Patnaik", "municipalityName": "Bhubaneswar", "location": {"lat": 20.2444, "lon": 85.8178}, "countryCode": "IN"}, "averageDailyFlights": 0.46, "operators": [{"name": "IndiGo", "iata": "6E", "icao": "IGO"}, {"name": "AirAsia India", "iata": "I5", "icao": "IAD"}]}, {"destination": {"icao": "VTBS", "iata": "BKK", "name": "Bangkok Suvarnabhumi", "shortName": "Suvarnabhumi", "municipalityName": "Bangkok", "location": {"lat": 13.681099, "lon": 100.747}, "countryCode": "TH"}, "averageDailyFlights": 0.14, "operators": [{"name": "Thai Smile", "iata": "WE", "icao": "THD"}]}]}