{"routes": [{"destination": {"icao": "VIDP", "iata": "DEL", "name": "New Delhi Indira Gandhi", "shortName": "Indira Gandhi", "municipalityName": "New Delhi", "location": {"lat": 28.5665, "lon": 77.1031}, "countryCode": "IN"}, "averageDailyFlights": 2.29, "operators": [{"name": "Air India", "iata": "AI", "icao": "AIC"}]}, {"destination": {"icao": "VOBL", "iata": "BLR", "name": "Bangalore Bengaluru", "shortName": "Bengaluru", "municipalityName": "Bangalore", "location": {"lat": 13.197899, "lon": 77.7063}, "countryCode": "IN"}, "averageDailyFlights": 1.14, "operators": [{"name": "Alliance Air", "iata": "9I", "icao": "LLR"}]}, {"destination": {"icao": "VOHS", "iata": "HYD", "name": "Hyderabad Rajiv Gandhi", "shortName": "Rajiv Gandhi", "municipalityName": "Hyderabad", "location": {"lat": 17.231318, "lon": 78.429855}, "countryCode": "IN"}, "averageDailyFlights": 1.0, "operators": [{"name": "Alliance Air", "iata": "9I", "icao": "LLR"}]}, {"destination": {"icao": "OMSJ", "iata": "SHJ", "name": "Sharjah ", "shortName": "Sharjah", "municipalityName": "Sharjah", "location": {"lat": 25.3286, "lon": 55.5172}, "countryCode": "AE"}, "averageDailyFlights": 0.29, "operators": [{"name": "Air India Express", "iata": "IX", "icao": "AXB"}]}, {"destination": {"icao": "OKBK", "iata": "KWI", "name": "Kuwait City Kuwait", "shortName": "Kuwait", "municipalityName": "Kuwait City", "location": {"lat": 29.2266, "lon": 47.9689}, "countryCode": "KW"}, "averageDailyFlights": 0.14, "operators": [{"name": "Air India Express", "iata": "IX", "icao": "AXB"}]}, {"destination": {"icao": "VOTR", "iata": "TRZ", "name": "Tiruchirappally Tiruchirapally Civil", "shortName": "Tiruchirapally Civil", "municipalityName": "Tiruchirappally", "location": {"lat": 10.765399, "lon": 78.7097}, "countryCode": "IN"}, "averageDailyFlights": 0.14, "operators": [{"name": "Air India Express", "iata": "IX", "icao": "AXB"}]}]}