{"routes": [{"destination": {"icao": "VOBL", "iata": "BLR", "name": "Bangalore Bengaluru", "shortName": "Bengaluru", "municipalityName": "Bangalore", "location": {"lat": 13.197899, "lon": 77.7063}, "countryCode": "IN"}, "averageDailyFlights": 14.14, "operators": [{"name": "GoAir", "iata": "G8", "icao": "GOW"}, {"name": "AirAsia India", "iata": "I5", "icao": "IAD"}, {"name": "IndiGo", "iata": "6E", "icao": "IGO"}, {"name": "Alliance Air", "iata": "9I", "icao": "LLR"}]}, {"destination": {"icao": "VIDP", "iata": "DEL", "name": "New Delhi Indira Gandhi", "shortName": "Indira Gandhi", "municipalityName": "New Delhi", "location": {"lat": 28.5665, "lon": 77.1031}, "countryCode": "IN"}, "averageDailyFlights": 10.15, "operators": [{"name": "Air India", "iata": "AI", "icao": "AIC"}, {"name": "AirAsia India", "iata": "I5", "icao": "IAD"}, {"name": "IndiGo", "iata": "6E", "icao": "IGO"}, {"name": "Vistara", "iata": "UK", "icao": "VTI"}, {"name": "GoAir", "iata": "G8", "icao": "GOW"}]}, {"destination": {"icao": "OMDB", "iata": "DXB", "name": "Dubai ", "shortName": "Dubai", "municipalityName": "Dubai", "location": {"lat": 25.252798, "lon": 55.3644}, "countryCode": "AE"}, "averageDailyFlights": 7.0, "operators": [{"name": "Emirates", "iata": "EK", "icao": "UAE"}, {"name": "Air India", "iata": "AI", "icao": "AIC"}, {"name": "IndiGo", "iata": "6E", "icao": "IGO"}, {"name": "SpiceJet", "iata": "SG", "icao": "SEJ"}, {"name": "flydubai", "iata": "FZ", "icao": "FDB"}, {"name": "Air India Express", "iata": "IX", "icao": "AXB"}]}, {"destination": {"icao": "VABB", "iata": "BOM", "name": "Mumbai Chhatrapati Shivaji", "shortName": "Chhatrapati Shivaji", "municipalityName": "Mumbai", "location": {"lat": 19.0887, "lon": 72.8679}, "countryCode": "IN"}, "averageDailyFlights": 6.3, "operators": [{"name": "Air India", "iata": "AI", "icao": "AIC"}, {"name": "GoAir", "iata": "G8", "icao": "GOW"}, {"name": "Vistara", "iata": "UK", "icao": "VTI"}, {"name": "IndiGo", "iata": "6E", "icao": "IGO"}]}, {"destination": {"icao": "VOMM", "iata": "MAA", "name": "Chennai ", "shortName": "Chennai", "municipalityName": "Chennai", "location": {"lat": 12.990005, "lon": 80.1693}, "countryCode": "IN"}, "averageDailyFlights": 6.0, "operators": [{"name": "IndiGo", "iata": "6E", "icao": "IGO"}]}, {"destination": {"icao": "VOHS", "iata": "HYD", "name": "Hyderabad Rajiv Gandhi", "shortName": "Rajiv Gandhi", "municipalityName": "Hyderabad", "location": {"lat": 17.231318, "lon": 78.429855}, "countryCode": "IN"}, "averageDailyFlights": 5.86, "operators": [{"name": "IndiGo", "iata": "6E", "icao": "IGO"}]}, {"destination": {"icao": "OMAA", "iata": "AUH", "name": "Abu Dhabi Island and Internal Islands City Abu Dhabi", "shortName": "Abu Dhabi", "municipalityName": "Abu Dhabi Island and Internal Islands City", "location": {"lat": 24.433, "lon": 54.6511}, "countryCode": "AE"}, "averageDailyFlights": 4.86, "operators": [{"name": "GoAir", "iata": "G8", "icao": "GOW"}, {"name": "Air Arabia Abu Dhabi", "iata": "3L", "icao": "ADY"}, {"name": "Etihad Airways", "iata": "EY", "icao": "ETD"}, {"name": "Air India Express", "iata": "IX", "icao": "AXB"}, {"name": "IndiGo", "iata": "6E", "icao": "IGO"}]}, {"destination": {"icao": "OTHH", "iata": "DOH", "name": "Doha Hamad", "shortName": "Hamad", "municipalityName": "Doha", "location": {"lat": 25.273056, "lon": 51.608055}, "countryCode": "QA"}, "averageDailyFlights": 4.0, "operators": [{"name": "Qatar Airways", "iata": "QR", "icao": "QTR"}, {"name": "IndiGo", "iata": "6E", "icao": "IGO"}, {"name": "Air India Express", "iata": "IX", "icao": "AXB"}]}, {"destination": {"icao": "OOMS", "iata": "MCT", "name": "Muscat ", "shortName": "Muscat", "municipalityName": "Muscat", "location": {"lat": 23.5933, "lon": 58.2844}, "countryCode": "OM"}, "averageDailyFlights": 3.86, "operators": [{"name": "Air India Express", "iata": "IX", "icao": "AXB"}, {"name": "Oman Air", "iata": "WY", "icao": "OMA"}, {"name": "GoAir", "iata": "G8", "icao": "GOW"}, {"name": "IndiGo", "iata": "6E", "icao": "IGO"}]}, {"destination": {"icao": "OKBK", "iata": "KWI", "name": "Kuwait City Kuwait", "shortName": "Kuwait", "municipalityName": "Kuwait City", "location": {"lat": 29.2266, "lon": 47.9689}, "countryCode": "KW"}, "averageDailyFlights": 2.86, "operators": [{"name": "IndiGo", "iata": "6E", "icao": "IGO"}, {"name": "Kuwait Airways", "iata": "KU", "icao": "KAC"}, {"name": "Jazeera Airways", "iata": "J9", "icao": "JZR"}]}, {"destination": {"icao": "OMSJ", "iata": "SHJ", "name": "Sharjah ", "shortName": "Sharjah", "municipalityName": "Sharjah", "location": {"lat": 25.3286, "lon": 55.5172}, "countryCode": "AE"}, "averageDailyFlights": 2.16, "operators": [{"name": "Air Arabia", "iata": "G9", "icao": "ABY"}, {"name": "Air India Express", "iata": "IX", "icao": "AXB"}]}, {"destination": {"icao": "WSSS", "iata": "SIN", "name": "Singapore Changi", "shortName": "Changi", "municipalityName": "Singapore", "location": {"lat": 1.35019, "lon": 103.994}, "countryCode": "SG"}, "averageDailyFlights": 2.0, "operators": [{"name": "Singapore Airlines", "iata": "SQ", "icao": "SIA"}]}, {"destination": {"icao": "VRMM", "iata": "MLE", "name": "Mal\u00e9 ", "shortName": "Mal\u00e9", "municipalityName": "Mal\u00e9", "location": {"lat": 4.19183, "lon": 73.5291}, "countryCode": "MV"}, "averageDailyFlights": 1.86, "operators": [{"name": "IndiGo", "iata": "6E", "icao": "IGO"}, {"name": "Maldivian", "iata": "Q2", "icao": "DQA"}]}, {"destination": {"icao": "VCBI", "iata": "CMB", "name": "Colombo Bandaranaike", "shortName": "Bandaranaike", "municipalityName": "Colombo", "location": {"lat": 7.180759, "lon": 79.8841}, "countryCode": "LK"}, "averageDailyFlights": 1.57, "operators": [{"name": "SriLankan Airlines", "iata": "UL", "icao": "ALK"}]}, {"destination": {"icao": "OBBI", "iata": "BAH", "name": "Manama Bahrain", "shortName": "Bahrain", "municipalityName": "Manama", "location": {"lat": 26.2708, "lon": 50.6336}, "countryCode": "BH"}, "averageDailyFlights": 1.43, "operators": [{"name": "Air India Express", "iata": "IX", "icao": "AXB"}, {"name": "Gulf Air", "iata": "GF", "icao": "GFA"}]}, {"destination": {"icao": "OERK", "iata": "RUH", "name": "Riyadh King Khaled", "shortName": "King Khaled", "municipalityName": "Riyadh", "location": {"lat": 24.9576, "lon": 46.6988}, "countryCode": "SA"}, "averageDailyFlights": 1.29, "operators": [{"name": "Saudi Arabian Airlines", "iata": "SV", "icao": "SVA"}, {"name": "Air India Express", "iata": "IX", "icao": "AXB"}]}, {"destination": {"icao": "WMKK", "iata": "KUL", "name": "Kuala Lumpur ", "shortName": "Kuala Lumpur", "municipalityName": "Kuala Lumpur", "location": {"lat": 2.745579, "lon": 101.71}, "countryCode": "MY"}, "averageDailyFlights": 1.15, "operators": [{"name": "Malaysia Airlines", "iata": "MH", "icao": "MAS"}, {"name": "Malindo Air", "iata": "OD", "icao": "MXD"}, {"name": "AirAsia", "iata": "AK", "icao": "AXM"}]}, {"destination": {"icao": "VAAH", "iata": "AMD", "name": "Ahmedabad Sardar Vallabhbhai Patel", "shortName": "Sardar Vallabhbhai Patel", "municipalityName": "Ahmedabad", "location": {"lat": 23.0772, "lon": 72.6347}, "countryCode": "IN"}, "averageDailyFlights": 1.14, "operators": [{"name": "IndiGo", "iata": "6E", "icao": "IGO"}]}, {"destination": {"icao": "OEJN", "iata": "JED", "name": "Jeddah King Abdulaziz", "shortName": "King Abdulaziz", "municipalityName": "Jeddah", "location": {"lat": 21.6796, "lon": 39.1565}, "countryCode": "SA"}, "averageDailyFlights": 1.14, "operators": [{"name": "Saudi Arabian Airlines", "iata": "SV", "icao": "SVA"}]}, {"destination": {"icao": "VECC", "iata": "CCU", "name": "Kolkata Netaji Subhash Chandra Bose", "shortName": "Netaji Subhash Chandra Bose", "municipalityName": "Kolkata", "location": {"lat": 22.6547, "lon": 88.4467}, "countryCode": "IN"}, "averageDailyFlights": 1.14, "operators": [{"name": "IndiGo", "iata": "6E", "icao": "IGO"}]}, {"destination": {"icao": "VTBD", "iata": "DMK", "name": "Bangkok Don Mueang", "shortName": "Don Mueang", "municipalityName": "Bangkok", "location": {"lat": 13.912599, "lon": 100.607}, "countryCode": "TH"}, "averageDailyFlights": 1.0, "operators": [{"name": "Thai AirAsia", "iata": "FD", "icao": "AIQ"}]}, {"destination": {"icao": "VAPO", "iata": "PNQ", "name": "Pune ", "shortName": "Pune", "municipalityName": "Pune", "location": {"lat": 18.5821, "lon": 73.9197}, "countryCode": "IN"}, "averageDailyFlights": 1.0, "operators": [{"name": "IndiGo", "iata": "6E", "icao": "IGO"}]}, {"destination": {"name": "Guwahati"}, "averageDailyFlights": 1.0, "operators": [{"name": "AirAsia India", "iata": "I5", "icao": "IAD"}]}, {"destination": {"name": "London"}, "averageDailyFlights": 0.57, "operators": [{"name": "Air India", "iata": "AI", "icao": "AIC"}]}, {"destination": {"icao": "VOCL", "iata": "CCJ", "name": "Calicut ", "shortName": "Calicut", "municipalityName": "Calicut", "location": {"lat": 11.136799, "lon": 75.9553}, "countryCode": "IN"}, "averageDailyFlights": 0.43, "operators": [{"name": "Air India Express", "iata": "IX", "icao": "AXB"}]}, {"destination": {"icao": "OEDF", "iata": "DMM", "name": "Ad Dammam King Fahd", "shortName": "King Fahd", "municipalityName": "Ad Dammam", "location": {"lat": 26.4712, "lon": 49.7979}, "countryCode": "SA"}, "averageDailyFlights": 0.14, "operators": [{"name": "Air India Express", "iata": "IX", "icao": "AXB"}]}, {"destination": {"icao": "OOSA", "iata": "SLL", "name": "Salalah ", "shortName": "Salalah", "municipalityName": "Salalah", "location": {"lat": 17.0387, "lon": 54.0913}, "countryCode": "OM"}, "averageDailyFlights": 0.14, "operators": [{"name": "Air India Express", "iata": "IX", "icao": "AXB"}]}, {"destination": {"icao": "VOGO", "iata": "GOI", "name": "Vasco da Gama Dabolim", "shortName": "Dabolim", "municipalityName": "Vasco da Gama", "location": {"lat": 15.3808, "lon": 73.8314}, "countryCode": "IN"}, "averageDailyFlights": 0.14, "operators": [{"name": "IndiGo", "iata": "6E", "icao": "IGO"}]}, {"destination": {"name": "Bangalor"}, "averageDailyFlights": 0.14, "operators": [{"name": "AirAsia India", "iata": "I5", "icao": "IAD"}]}]}