{"routes": [{"destination": {"icao": "VVTS", "iata": "SGN", "name": "Ho Chi Minh City Tan Son Nhat", "shortName": "Tan Son Nhat", "municipalityName": "Ho Chi Minh City", "location": {"lat": 10.818799, "lon": 106.652}, "countryCode": "VN"}, "averageDailyFlights": 23.0, "operators": [{"name": "Bamboo Airways", "iata": "QH", "icao": "BAV"}, {"name": "VietJetAir", "iata": "VJ", "icao": "VJC"}, {"name": "Vietnam Airlines", "iata": "VN", "icao": "HVN"}]}, {"destination": {"icao": "VVNB", "iata": "HAN", "name": "Hanoi Noi Bai", "shortName": "Noi Bai", "municipalityName": "Hanoi", "location": {"lat": 21.2212, "lon": 105.807}, "countryCode": "VN"}, "averageDailyFlights": 9.72, "operators": [{"name": "VietJetAir", "iata": "VJ", "icao": "VJC"}, {"name": "Vietnam Airlines", "iata": "VN", "icao": "HVN"}, {"name": "Bamboo Airways", "iata": "QH", "icao": "BAV"}]}, {"destination": {"icao": "VVDN", "iata": "DAD", "name": "Da Nang ", "shortName": "Da Nang", "municipalityName": "Da Nang", "location": {"lat": 16.0439, "lon": 108.199}, "countryCode": "VN"}, "averageDailyFlights": 2.43, "operators": [{"name": "VietJetAir", "iata": "VJ", "icao": "VJC"}, {"name": "Bamboo Airways", "iata": "QH", "icao": "BAV"}]}, {"destination": {"icao": "RKSI", "iata": "ICN", "name": "Seoul Incheon", "shortName": "Incheon", "municipalityName": "Seoul", "location": {"lat": 37.4691, "lon": 126.451}, "countryCode": "KR"}, "averageDailyFlights": 2.29, "operators": [{"name": "VietJetAir", "iata": "VJ", "icao": "VJC"}]}, {"destination": {"icao": "VVCI", "iata": "HPH", "name": "Haiphong Cat Bi", "shortName": "Cat Bi", "municipalityName": "Haiphong", "location": {"lat": 20.8194, "lon": 106.725}, "countryCode": "VN"}, "averageDailyFlights": 2.14, "operators": [{"name": "VietJetAir", "iata": "VJ", "icao": "VJC"}, {"name": "Bamboo Airways", "iata": "QH", "icao": "BAV"}]}, {"destination": {"icao": "VVCT", "iata": "VCA", "name": "Can Tho ", "shortName": "Can Tho", "municipalityName": "Can Tho", "location": {"lat": 10.0851, "lon": 105.712}, "countryCode": "VN"}, "averageDailyFlights": 1.14, "operators": [{"name": "Bamboo Airways", "iata": "QH", "icao": "BAV"}]}, {"destination": {"icao": "VVVH", "iata": "VII", "name": "Vinh ", "shortName": "Vinh", "municipalityName": "Vinh", "location": {"lat": 18.7376, "lon": 105.671}, "countryCode": "VN"}, "averageDailyFlights": 1.14, "operators": [{"name": "VietJetAir", "iata": "VJ", "icao": "VJC"}]}, {"destination": {"icao": "VTBS", "iata": "BKK", "name": "Bangkok Suvarnabhumi", "shortName": "Suvarnabhumi", "municipalityName": "Bangkok", "location": {"lat": 13.681099, "lon": 100.747}, "countryCode": "TH"}, "averageDailyFlights": 0.71, "operators": [{"name": "Thai Vietjet Air", "iata": "VZ", "icao": "TVJ"}]}, {"destination": {"icao": "WMKK", "iata": "KUL", "name": "Kuala Lumpur ", "shortName": "Kuala Lumpur", "municipalityName": "Kuala Lumpur", "location": {"lat": 2.745579, "lon": 101.71}, "countryCode": "MY"}, "averageDailyFlights": 0.71, "operators": [{"name": "AirAsia", "iata": "AK", "icao": "AXM"}]}, {"destination": {"name": "Tkhankhoa"}, "averageDailyFlights": 0.71, "operators": [{"name": "VietJetAir", "iata": "VJ", "icao": "VJC"}]}, {"destination": {"name": "Hong Kong"}, "averageDailyFlights": 0.43, "operators": [{"name": "VietJetAir", "iata": "VJ", "icao": "VJC"}]}]}