{"routes": [{"destination": {"icao": "WARR", "iata": "SUB", "name": "Surabaya Juanda", "shortName": "Juanda", "municipalityName": "Surabaya", "location": {"lat": -7.379829, "lon": 112.787}, "countryCode": "ID"}, "averageDailyFlights": 11.71, "operators": [{"name": "Batik Air", "iata": "ID", "icao": "BTK"}, {"name": "Citilink", "iata": "QG", "icao": "CTV"}]}, {"destination": {"icao": "WIPP", "iata": "PLM", "name": "Palembang-Sumatra Island Sultan Mahmud Badaruddin Ii", "shortName": "Sultan Mahmud Badaruddin Ii", "municipalityName": "Palembang-Sumatra Island", "location": {"lat": -2.89825, "lon": 104.7}, "countryCode": "ID"}, "averageDailyFlights": 5.71, "operators": [{"name": "Batik Air", "iata": "ID", "icao": "BTK"}, {"name": "Citilink", "iata": "QG", "icao": "CTV"}]}, {"destination": {"icao": "WADD", "iata": "DPS", "name": "Denpasar-Bali Island Ngurah Rai (Bali)", "shortName": "Ngurah Rai (Bali)", "municipalityName": "Denpasar-Bali Island", "location": {"lat": -8.748169, "lon": 115.167}, "countryCode": "ID"}, "averageDailyFlights": 5.5, "operators": [{"name": "Batik Air", "iata": "ID", "icao": "BTK"}, {"name": "Citilink", "iata": "QG", "icao": "CTV"}]}, {"destination": {"name": "Dzhokyakarta"}, "averageDailyFlights": 5.43, "operators": [{"name": "Batik Air", "iata": "ID", "icao": "BTK"}]}, {"destination": {"icao": "WIMG", "iata": "PDG", "name": "Padang-Sumatra Island Tabing", "shortName": "Tabing", "municipalityName": "Padang-Sumatra Island", "location": {"lat": -0.874988, "lon": 100.352}, "countryCode": "ID"}, "averageDailyFlights": 4.86, "operators": [{"name": "Batik Air", "iata": "ID", "icao": "BTK"}, {"name": "Citilink", "iata": "QG", "icao": "CTV"}]}, {"destination": {"icao": "WIBB", "iata": "PKU", "name": "Pekanbaru-Sumatra Island Sultan Syarif Kasim Ii (Simpang Tiga)", "shortName": "Sultan Syarif Kasim Ii (Simpang Tiga)", "municipalityName": "Pekanbaru-Sumatra Island", "location": {"lat": 0.460786, "lon": 101.445}, "countryCode": "ID"}, "averageDailyFlights": 4.43, "operators": [{"name": "Batik Air", "iata": "ID", "icao": "BTK"}, {"name": "Citilink", "iata": "QG", "icao": "CTV"}]}, {"destination": {"icao": "WARQ", "iata": "SOC", "name": "Sukarata(Solo)-Java Island Adi Sumarmo Wiryokusumo", "shortName": "Adi Sumarmo Wiryokusumo", "municipalityName": "Sukarata(Solo)-Java Island", "location": {"lat": -7.516089, "lon": 110.757}, "countryCode": "ID"}, "averageDailyFlights": 4.0, "operators": [{"name": "Citilink", "iata": "QG", "icao": "CTV"}, {"name": "Batik Air", "iata": "ID", "icao": "BTK"}]}, {"destination": {"icao": "WARS", "iata": "SRG", "name": "Semarang-Java Island Achmad Yani", "shortName": "Achmad Yani", "municipalityName": "Semarang-Java Island", "location": {"lat": -6.97273, "lon": 110.375}, "countryCode": "ID"}, "averageDailyFlights": 3.3, "operators": [{"name": "Batik Air", "iata": "ID", "icao": "BTK"}, {"name": "Citilink", "iata": "QG", "icao": "CTV"}]}, {"destination": {"icao": "WARA", "iata": "MLG", "name": "Malang-Java Island Abdul Rachman Saleh", "shortName": "Abdul Rachman Saleh", "municipalityName": "Malang-Java Island", "location": {"lat": -7.926559, "lon": 112.715}, "countryCode": "ID"}, "averageDailyFlights": 3.29, "operators": [{"name": "Batik Air", "iata": "ID", "icao": "BTK"}, {"name": "Citilink", "iata": "QG", "icao": "CTV"}]}, {"destination": {"name": "Udzhungpandang"}, "averageDailyFlights": 1.14, "operators": [{"name": "Batik Air", "iata": "ID", "icao": "BTK"}]}, {"destination": {"icao": "WAAA", "iata": "UPG", "name": "Ujung Pandang-Celebes Island Hasanuddin", "shortName": "Hasanuddin", "municipalityName": "Ujung Pandang-Celebes Island", "location": {"lat": -5.061629, "lon": 119.554}, "countryCode": "ID"}, "averageDailyFlights": 1.0, "operators": [{"name": "Batik Air", "iata": "ID", "icao": "BTK"}]}, {"destination": {"icao": "WIPL", "iata": "BKS", "name": "Bengkulu-Sumatra Island Padang Kemiling (Fatmawati Soekarno)", "shortName": "Padang Kemiling (Fatmawati Soekarno)", "municipalityName": "Bengkulu-Sumatra Island", "location": {"lat": -3.863699, "lon": 102.339}, "countryCode": "ID"}, "averageDailyFlights": 0.71, "operators": [{"name": "Batik Air", "iata": "ID", "icao": "BTK"}]}, {"destination": {"name": "Siborong-Borong"}, "averageDailyFlights": 0.57, "operators": [{"name": "Citilink", "iata": "QG", "icao": "CTV"}]}, {"destination": {"icao": "WICT", "iata": "TKG", "name": "Bandar Lampung-Sumatra Island Radin Inten II (Branti)", "shortName": "Radin Inten II (Branti)", "municipalityName": "Bandar Lampung-Sumatra Island", "location": {"lat": -5.240556, "lon": 105.17555}, "countryCode": "ID"}, "averageDailyFlights": 0.43, "operators": [{"name": "Batik Air", "iata": "ID", "icao": "BTK"}]}]}