{"routes": [{"destination": {"icao": "YSSY", "iata": "SYD", "name": "Sydney City Sydney Kingsford Smith", "shortName": "Sydney Kingsford Smith", "municipalityName": "Sydney City", "location": {"lat": -33.9461, "lon": 151.177}, "countryCode": "AU"}, "averageDailyFlights": 24.3, "operators": [{"name": "Qantas", "iata": "QF", "icao": "QFA"}, {"name": "Virgin Australia", "iata": "VA", "icao": "VOZ"}]}, {"destination": {"icao": "YMML", "iata": "MEL", "name": "Melbourne City Melbourne", "shortName": "Melbourne", "municipalityName": "Melbourne City", "location": {"lat": -37.6733, "lon": 144.843}, "countryCode": "AU"}, "averageDailyFlights": 16.59, "operators": [{"name": "Jetstar", "iata": "JQ", "icao": "JST"}, {"name": "Qantas", "iata": "QF", "icao": "QFA"}, {"name": "Virgin Australia", "iata": "VA", "icao": "VOZ"}, {"name": "Rex Regional Express", "iata": "ZL", "icao": "RXA"}]}, {"destination": {"icao": "YBBN", "iata": "BNE", "name": "Brisbane City Brisbane", "shortName": "Brisbane", "municipalityName": "Brisbane City", "location": {"lat": -27.3842, "lon": 153.117}, "countryCode": "AU"}, "averageDailyFlights": 4.71, "operators": [{"name": "Virgin Australia", "iata": "VA", "icao": "VOZ"}, {"name": "Jetstar", "iata": "JQ", "icao": "JST"}]}, {"destination": {"icao": "YWLM", "iata": "NTL", "name": "Williamtown Newcastle", "shortName": "Newcastle", "municipalityName": "Williamtown", "location": {"lat": -32.795, "lon": 151.834}, "countryCode": "AU"}, "averageDailyFlights": 4.14, "operators": [{"name": "FlyPelican", "iata": "FP"}, {"name": "Fly Corporate", "iata": "FC"}]}, {"destination": {"icao": "YPAD", "iata": "ADL", "name": "Adelaide ", "shortName": "Adelaide", "municipalityName": "Adelaide", "location": {"lat": -34.945, "lon": 138.531}, "countryCode": "AU"}, "averageDailyFlights": 4.0, "operators": [{"name": "Qantas", "iata": "QF", "icao": "QFA"}, {"name": "Virgin Australia", "iata": "VA", "icao": "VOZ"}]}, {"destination": {"icao": "YBCG", "iata": "OOL", "name": "Gold Coast", "shortName": "Coast", "municipalityName": "Gold", "location": {"lat": -28.1644, "lon": 153.505}, "countryCode": "AU"}, "averageDailyFlights": 1.71, "operators": [{"name": "Virgin Australia", "iata": "VA", "icao": "VOZ"}, {"name": "Jetstar", "iata": "JQ", "icao": "JST"}]}, {"destination": {"icao": "YMHB", "iata": "HBA", "name": "Hobart ", "shortName": "Hobart", "municipalityName": "Hobart", "location": {"lat": -42.8361, "lon": 147.51}, "countryCode": "AU"}, "averageDailyFlights": 1.57, "operators": [{"name": "Fly Corporate", "iata": "FC"}, {"name": "Qantas", "iata": "QF", "icao": "QFA"}]}, {"destination": {"icao": "YPPH", "iata": "PER", "name": "Perth International", "shortName": "International", "municipalityName": "Perth", "location": {"lat": -31.940277, "lon": 115.96694}, "countryCode": "AU"}, "averageDailyFlights": 1.0, "operators": [{"name": "Qantas", "iata": "QF", "icao": "QFA"}]}]}