{"routes": [{"destination": {"name": "Chengdu"}, "averageDailyFlights": 5.29, "operators": [{"name": "Sichuan Airlines", "iata": "3U", "icao": "CSC"}, {"name": "Air China", "iata": "CA", "icao": "CCA"}, {"name": "Chengdu Airlines", "iata": "EU", "icao": "UEA"}]}, {"destination": {"icao": "ZBAA", "iata": "PEK", "name": "Beijing Capital", "shortName": "Capital", "municipalityName": "Beijing", "location": {"lat": 40.0801, "lon": 116.585}, "countryCode": "CN"}, "averageDailyFlights": 2.57, "operators": [{"name": "Air China", "iata": "CA", "icao": "CCA"}]}, {"destination": {"icao": "ZSPD", "iata": "PVG", "name": "Shanghai Pudong", "shortName": "Pudong", "municipalityName": "Shanghai", "location": {"lat": 31.1434, "lon": 121.805}, "countryCode": "CN"}, "averageDailyFlights": 2.29, "operators": [{"name": "China Eastern Airlines", "iata": "MU", "icao": "CES"}]}, {"destination": {"icao": "ZLXY", "iata": "XIY", "name": "Xianyang Xi'an", "shortName": "Xi'an", "municipalityName": "Xianyang", "location": {"lat": 34.4471, "lon": 108.752}, "countryCode": "CN"}, "averageDailyFlights": 2.0, "operators": [{"name": "Sichuan Airlines", "iata": "3U", "icao": "CSC"}, {"name": "Air Changan", "iata": "9H", "icao": "CGN"}]}, {"destination": {"icao": "ZHHH", "iata": "WUH", "name": "Wuhan Tianhe", "shortName": "Tianhe", "municipalityName": "Wuhan", "location": {"lat": 30.7838, "lon": 114.208}, "countryCode": "CN"}, "averageDailyFlights": 1.16, "operators": [{"name": "Chengdu Airlines", "iata": "EU", "icao": "UEA"}, {"name": "China Eastern Airlines", "iata": "MU", "icao": "CES"}]}, {"destination": {"icao": "ZGHA", "iata": "CSX", "name": "Changsha Huanghua", "shortName": "Huanghua", "municipalityName": "Changsha", "location": {"lat": 28.1892, "lon": 113.22}, "countryCode": "CN"}, "averageDailyFlights": 1.14, "operators": [{"name": "Joy Air", "iata": "JR", "icao": "JOY"}]}, {"destination": {"icao": "ZSCG", "iata": "CZX", "name": "Changzhou ", "shortName": "Changzhou", "municipalityName": "Changzhou", "location": {"lat": 31.9197, "lon": 119.779}, "countryCode": "CN"}, "averageDailyFlights": 1.14, "operators": [{"name": "LongJiang Airlines", "iata": "LT", "icao": "SNG"}]}, {"destination": {"icao": "ZUCK", "iata": "CKG", "name": "Chongqing Jiangbei", "shortName": "Jiangbei", "municipalityName": "Chongqing", "location": {"lat": 29.7192, "lon": 106.642}, "countryCode": "CN"}, "averageDailyFlights": 1.14, "operators": [{"name": "Sichuan Airlines", "iata": "3U", "icao": "CSC"}]}, {"destination": {"icao": "ZGKL", "iata": "KWL", "name": "Guilin City Guilin Liangjiang", "shortName": "Guilin Liangjiang", "municipalityName": "Guilin City", "location": {"lat": 25.2181, "lon": 110.039}, "countryCode": "CN"}, "averageDailyFlights": 1.14, "operators": [{"name": "China Eastern Airlines", "iata": "MU", "icao": "CES"}]}, {"destination": {"icao": "ZHYC", "iata": "YIH", "name": "Yichang ", "shortName": "Yichang", "municipalityName": "Yichang", "location": {"lat": 30.55655, "lon": 111.47999}, "countryCode": "CN"}, "averageDailyFlights": 1.14, "operators": [{"name": "China Eastern Airlines", "iata": "MU", "icao": "CES"}]}, {"destination": {"icao": "ZHCC", "iata": "CGO", "name": "Zhengzhou Xinzheng", "shortName": "Xinzheng", "municipalityName": "Zhengzhou", "location": {"lat": 34.5197, "lon": 113.841}, "countryCode": "CN"}, "averageDailyFlights": 1.02, "operators": [{"name": "Jiangxi Airlines", "iata": "RY", "icao": "CJX"}, {"name": "West Air (China)", "iata": "PN", "icao": "CHB"}]}, {"destination": {"icao": "ZGGG", "iata": "CAN", "name": "Guangzhou Baiyun", "shortName": "Baiyun", "municipalityName": "Guangzhou", "location": {"lat": 23.3924, "lon": 113.299}, "countryCode": "CN"}, "averageDailyFlights": 0.86, "operators": [{"name": "China Southern Airlines", "iata": "CZ", "icao": "CSN"}]}, {"destination": {"icao": "ZBSJ", "iata": "SJW", "name": "Shijiazhuang Daguocun", "shortName": "Daguocun", "municipalityName": "Shijiazhuang", "location": {"lat": 38.2807, "lon": 114.697}, "countryCode": "CN"}, "averageDailyFlights": 0.71, "operators": [{"name": "Spring Airlines", "iata": "9C", "icao": "CQH"}]}, {"destination": {"icao": "ZSOF", "iata": "HFE", "name": "Hefei Luogang", "shortName": "Luogang", "municipalityName": "Hefei", "location": {"lat": 31.78, "lon": 117.298}, "countryCode": "CN"}, "averageDailyFlights": 0.43, "operators": [{"name": "Spring Airlines", "iata": "9C", "icao": "CQH"}]}, {"destination": {"icao": "ZUNC", "iata": "NAO", "name": "Nanchong ", "shortName": "Nanchong", "municipalityName": "Nanchong", "location": {"lat": 30.79545, "lon": 106.1626}, "countryCode": "CN"}, "averageDailyFlights": 0.43, "operators": [{"name": "Air Guilin", "iata": "GT", "icao": "CGH"}]}, {"destination": {"icao": "ZSNJ", "iata": "NKG", "name": "Nanjing Lukou", "shortName": "Lukou", "municipalityName": "Nanjing", "location": {"lat": 31.742, "lon": 118.862}, "countryCode": "CN"}, "averageDailyFlights": 0.43, "operators": [{"name": "China Eastern Airlines", "iata": "MU", "icao": "CES"}]}, {"destination": {"icao": "ZGSZ", "iata": "SZX", "name": "Shenzhen Bao'an", "shortName": "Bao'an", "municipalityName": "Shenzhen", "location": {"lat": 22.6393, "lon": 113.811}, "countryCode": "CN"}, "averageDailyFlights": 0.43, "operators": [{"name": "Chengdu Airlines", "iata": "EU", "icao": "UEA"}]}, {"destination": {"icao": "ZSXZ", "iata": "XUZ", "name": "Xuzhou Guanyin", "shortName": "Guanyin", "municipalityName": "Xuzhou", "location": {"lat": 34.059055, "lon": 117.555275}, "countryCode": "CN"}, "averageDailyFlights": 0.43, "operators": [{"name": "Air Guilin", "iata": "GT", "icao": "CGH"}]}, {"destination": {"icao": "ZSCN", "iata": "KHN", "name": "Nanchang Changbei", "shortName": "Changbei", "municipalityName": "Nanchang", "location": {"lat": 28.865, "lon": 115.9}, "countryCode": "CN"}, "averageDailyFlights": 0.29, "operators": [{"name": "Jiangxi Airlines", "iata": "RY", "icao": "CJX"}]}, {"destination": {"name": "Haikou"}, "averageDailyFlights": 0.14, "operators": [{"name": "Air Guilin", "iata": "GT", "icao": "CGH"}]}, {"destination": {"name": "Xi'an"}, "averageDailyFlights": 0.14, "operators": [{"name": "Air Changan", "iata": "9H", "icao": "CGN"}]}]}