{"routes": [{"destination": {"icao": "ZSNJ", "iata": "NKG", "name": "Nanjing Lukou", "shortName": "Lukou", "municipalityName": "Nanjing", "location": {"lat": 31.742, "lon": 118.862}, "countryCode": "CN"}, "averageDailyFlights": 9.29, "operators": [{"name": "Shenzhen Airlines", "iata": "ZH", "icao": "CSZ"}, {"name": "China Eastern Airlines", "iata": "MU", "icao": "CES"}, {"name": "China Southern Airlines", "iata": "CZ", "icao": "CSN"}, {"name": "Donghai Airlines", "iata": "DZ", "icao": "EPA"}, {"name": "Juneyao Airlines", "iata": "HO", "icao": "DKH"}]}, {"destination": {"icao": "ZUCK", "iata": "CKG", "name": "Chongqing Jiangbei", "shortName": "Jiangbei", "municipalityName": "Chongqing", "location": {"lat": 29.7192, "lon": 106.642}, "countryCode": "CN"}, "averageDailyFlights": 7.71, "operators": [{"name": "Chongqing Airlines", "iata": "OQ", "icao": "CQN"}, {"name": "China Southern Airlines", "iata": "CZ", "icao": "CSN"}, {"name": "Sichuan Airlines", "iata": "3U", "icao": "CSC"}, {"name": "Shandong Airlines", "iata": "SC", "icao": "CDG"}, {"name": "West Air (China)", "iata": "PN", "icao": "CHB"}, {"name": "Hainan Airlines", "iata": "HU", "icao": "CHH"}, {"name": "Air China", "iata": "CA", "icao": "CCA"}]}, {"destination": {"icao": "ZSHC", "iata": "HGH", "name": "Hangzhou Xiaoshan", "shortName": "Xiaoshan", "municipalityName": "Hangzhou", "location": {"lat": 30.2295, "lon": 120.434}, "countryCode": "CN"}, "averageDailyFlights": 7.14, "operators": [{"name": "China Southern Airlines", "iata": "CZ", "icao": "CSN"}, {"name": "Shandong Airlines", "iata": "SC", "icao": "CDG"}, {"name": "Hainan Airlines", "iata": "HU", "icao": "CHH"}, {"name": "Donghai Airlines", "iata": "DZ", "icao": "EPA"}, {"name": "Xiamen Airlines", "iata": "MF", "icao": "CXA"}, {"name": "Loong Air", "iata": "GJ", "icao": "CDC"}]}, {"destination": {"icao": "ZBAD", "iata": "PKX", "name": "Beijing Daxing", "shortName": "Daxing", "municipalityName": "Beijing", "location": {"lat": 39.509167, "lon": 116.41055}, "countryCode": "CN"}, "averageDailyFlights": 6.86, "operators": [{"name": "China Southern Airlines", "iata": "CZ", "icao": "CSN"}, {"name": "China United Airlines", "iata": "KN", "icao": "CUA"}]}, {"destination": {"icao": "ZHCC", "iata": "CGO", "name": "Zhengzhou Xinzheng", "shortName": "Xinzheng", "municipalityName": "Zhengzhou", "location": {"lat": 34.5197, "lon": 113.841}, "countryCode": "CN"}, "averageDailyFlights": 6.72, "operators": [{"name": "Shandong Airlines", "iata": "SC", "icao": "CDG"}, {"name": "Hainan Airlines", "iata": "HU", "icao": "CHH"}, {"name": "China Southern Airlines", "iata": "CZ", "icao": "CSN"}, {"name": "Donghai Airlines", "iata": "DZ", "icao": "EPA"}, {"name": "Jiangxi Airlines", "iata": "RY", "icao": "CJX"}, {"name": "West Air (China)", "iata": "PN", "icao": "CHB"}]}, {"destination": {"icao": "ZSSS", "iata": "SHA", "name": "Shanghai Hongqiao", "shortName": "Hongqiao", "municipalityName": "Shanghai", "location": {"lat": 31.1979, "lon": 121.336}, "countryCode": "CN"}, "averageDailyFlights": 6.71, "operators": [{"name": "Shanghai Airlines", "iata": "FM", "icao": "CSH"}, {"name": "Shandong Airlines", "iata": "SC", "icao": "CDG"}]}, {"destination": {"icao": "ZHHH", "iata": "WUH", "name": "Wuhan Tianhe", "shortName": "Tianhe", "municipalityName": "Wuhan", "location": {"lat": 30.7838, "lon": 114.208}, "countryCode": "CN"}, "averageDailyFlights": 6.43, "operators": [{"name": "Suparna Airlines", "iata": "Y8", "icao": "YZR"}, {"name": "China Southern Airlines", "iata": "CZ", "icao": "CSN"}, {"name": "Hainan Airlines", "iata": "HU", "icao": "CHH"}, {"name": "Air China", "iata": "CA", "icao": "CCA"}]}, {"destination": {"icao": "ZSCN", "iata": "KHN", "name": "Nanchang Changbei", "shortName": "Changbei", "municipalityName": "Nanchang", "location": {"lat": 28.865, "lon": 115.9}, "countryCode": "CN"}, "averageDailyFlights": 5.43, "operators": [{"name": "Shandong Airlines", "iata": "SC", "icao": "CDG"}, {"name": "Spring Airlines", "iata": "9C", "icao": "CQH"}, {"name": "Okay Airways", "iata": "BK", "icao": "OKA"}, {"name": "Jiangxi Airlines", "iata": "RY", "icao": "CJX"}]}, {"destination": {"icao": "ZLXY", "iata": "XIY", "name": "Xianyang Xi'an", "shortName": "Xi'an", "municipalityName": "Xianyang", "location": {"lat": 34.4471, "lon": 108.752}, "countryCode": "CN"}, "averageDailyFlights": 5.29, "operators": [{"name": "China Southern Airlines", "iata": "CZ", "icao": "CSN"}, {"name": "China Eastern Airlines", "iata": "MU", "icao": "CES"}, {"name": "Hainan Airlines", "iata": "HU", "icao": "CHH"}, {"name": "Air Changan", "iata": "9H", "icao": "CGN"}]}, {"destination": {"icao": "ZSOF", "iata": "HFE", "name": "Hefei Luogang", "shortName": "Luogang", "municipalityName": "Hefei", "location": {"lat": 31.78, "lon": 117.298}, "countryCode": "CN"}, "averageDailyFlights": 4.71, "operators": [{"name": "Hainan Airlines", "iata": "HU", "icao": "CHH"}, {"name": "China Southern Airlines", "iata": "CZ", "icao": "CSN"}, {"name": "West Air (China)", "iata": "PN", "icao": "CHB"}, {"name": "Shandong Airlines", "iata": "SC", "icao": "CDG"}, {"name": "LongJiang Airlines", "iata": "LT", "icao": "SNG"}]}, {"destination": {"icao": "ZSPD", "iata": "PVG", "name": "Shanghai Pudong", "shortName": "Pudong", "municipalityName": "Shanghai", "location": {"lat": 31.1434, "lon": 121.805}, "countryCode": "CN"}, "averageDailyFlights": 4.43, "operators": [{"name": "Juneyao Airlines", "iata": "HO", "icao": "DKH"}, {"name": "China Eastern Airlines", "iata": "MU", "icao": "CES"}, {"name": "China Southern Airlines", "iata": "CZ", "icao": "CSN"}]}, {"destination": {"icao": "ZBAA", "iata": "PEK", "name": "Beijing Capital", "shortName": "Capital", "municipalityName": "Beijing", "location": {"lat": 40.0801, "lon": 116.585}, "countryCode": "CN"}, "averageDailyFlights": 4.14, "operators": [{"name": "Shandong Airlines", "iata": "SC", "icao": "CDG"}, {"name": "Air China", "iata": "CA", "icao": "CCA"}]}, {"destination": {"icao": "ZPPP", "iata": "KMG", "name": "Kunming Changshui", "shortName": "Changshui", "municipalityName": "Kunming", "location": {"lat": 25.101944, "lon": 102.92917}, "countryCode": "CN"}, "averageDailyFlights": 3.95, "operators": [{"name": "China Southern Airlines", "iata": "CZ", "icao": "CSN"}, {"name": "Lucky Air", "iata": "8L", "icao": "LKE"}, {"name": "Yunnan Hong Tu Airlines"}, {"name": "Kunming Airlines", "iata": "KY", "icao": "KNA"}, {"name": "China Eastern Airlines", "iata": "MU", "icao": "CES"}]}, {"destination": {"icao": "ZJHK", "iata": "HAK", "name": "Haikou Meilan", "shortName": "Meilan", "municipalityName": "Haikou", "location": {"lat": 19.9349, "lon": 110.459}, "countryCode": "CN"}, "averageDailyFlights": 3.72, "operators": [{"name": "China Southern Airlines", "iata": "CZ", "icao": "CSN"}, {"name": "Tianjin Airlines", "iata": "GS", "icao": "GCR"}, {"name": "Donghai Airlines", "iata": "DZ", "icao": "EPA"}, {"name": "Hainan Airlines", "iata": "HU", "icao": "CHH"}]}, {"destination": {"icao": "ZUUU", "iata": "CTU", "name": "Chengdu Shuangliu", "shortName": "Shuangliu", "municipalityName": "Chengdu", "location": {"lat": 30.5785, "lon": 103.947}, "countryCode": "CN"}, "averageDailyFlights": 3.29, "operators": [{"name": "Sichuan Airlines", "iata": "3U", "icao": "CSC"}, {"name": "China Southern Airlines", "iata": "CZ", "icao": "CSN"}, {"name": "China Eastern Airlines", "iata": "MU", "icao": "CES"}, {"name": "Air China", "iata": "CA", "icao": "CCA"}]}, {"destination": {"icao": "ZBYN", "iata": "TYN", "name": "Taiyuan Wusu", "shortName": "Wusu", "municipalityName": "Taiyuan", "location": {"lat": 37.7469, "lon": 112.628}, "countryCode": "CN"}, "averageDailyFlights": 3.14, "operators": [{"name": "Donghai Airlines", "iata": "DZ", "icao": "EPA"}, {"name": "Hainan Airlines", "iata": "HU", "icao": "CHH"}, {"name": "China Southern Airlines", "iata": "CZ", "icao": "CSN"}]}, {"destination": {"icao": "ZSFZ", "iata": "FOC", "name": "Fuzhou Changle", "shortName": "Changle", "municipalityName": "Fuzhou", "location": {"lat": 25.9351, "lon": 119.663}, "countryCode": "CN"}, "averageDailyFlights": 2.71, "operators": [{"name": "Shandong Airlines", "iata": "SC", "icao": "CDG"}, {"name": "Xiamen Airlines", "iata": "MF", "icao": "CXA"}]}, {"destination": {"icao": "ZSJN", "iata": "TNA", "name": "Jinan Yaoqiang", "shortName": "Yaoqiang", "municipalityName": "Jinan", "location": {"lat": 36.8572, "lon": 117.216}, "countryCode": "CN"}, "averageDailyFlights": 2.57, "operators": [{"name": "Shandong Airlines", "iata": "SC", "icao": "CDG"}, {"name": "Loong Air", "iata": "GJ", "icao": "CDC"}]}, {"destination": {"icao": "ZGOW", "iata": "SWA", "name": "Shantou Jieyang Chaoshan", "shortName": "Jieyang Chaoshan", "municipalityName": "Shantou", "location": {"lat": 23.552, "lon": 116.5033}, "countryCode": "CN"}, "averageDailyFlights": 2.29, "operators": [{"name": "China Southern Airlines", "iata": "CZ", "icao": "CSN"}, {"name": "Shanghai Airlines", "iata": "FM", "icao": "CSH"}]}, {"destination": {"icao": "ZSWZ", "iata": "WNZ", "name": "Wenzhou Yongqiang", "shortName": "Yongqiang", "municipalityName": "Wenzhou", "location": {"lat": 27.9122, "lon": 120.852}, "countryCode": "CN"}, "averageDailyFlights": 2.29, "operators": [{"name": "Shandong Airlines", "iata": "SC", "icao": "CDG"}, {"name": "Hainan Airlines", "iata": "HU", "icao": "CHH"}]}, {"destination": {"icao": "ZBSJ", "iata": "SJW", "name": "Shijiazhuang Daguocun", "shortName": "Daguocun", "municipalityName": "Shijiazhuang", "location": {"lat": 38.2807, "lon": 114.697}, "countryCode": "CN"}, "averageDailyFlights": 2.14, "operators": [{"name": "Spring Airlines", "iata": "9C", "icao": "CQH"}, {"name": "China United Airlines", "iata": "KN", "icao": "CUA"}]}, {"destination": {"icao": "ZYTX", "iata": "SHE", "name": "Shenyang Taoxian", "shortName": "Taoxian", "municipalityName": "Shenyang", "location": {"lat": 41.6398, "lon": 123.483}, "countryCode": "CN"}, "averageDailyFlights": 2.0, "operators": [{"name": "China Southern Airlines", "iata": "CZ", "icao": "CSN"}, {"name": "Spring Airlines", "iata": "9C", "icao": "CQH"}, {"name": "Shenzhen Airlines", "iata": "ZH", "icao": "CSZ"}]}, {"destination": {"icao": "ZSNB", "iata": "NGB", "name": "Ningbo Lishe", "shortName": "Lishe", "municipalityName": "Ningbo", "location": {"lat": 29.8267, "lon": 121.462}, "countryCode": "CN"}, "averageDailyFlights": 1.86, "operators": [{"name": "Spring Airlines", "iata": "9C", "icao": "CQH"}, {"name": "China Eastern Airlines", "iata": "MU", "icao": "CES"}]}, {"destination": {"icao": "ZSAM", "iata": "XMN", "name": "Xiamen Gaoqi", "shortName": "Gaoqi", "municipalityName": "Xiamen", "location": {"lat": 24.544, "lon": 118.128}, "countryCode": "CN"}, "averageDailyFlights": 1.86, "operators": [{"name": "Xiamen Airlines", "iata": "MF", "icao": "CXA"}, {"name": "Shandong Airlines", "iata": "SC", "icao": "CDG"}]}, {"destination": {"icao": "ZSQZ", "iata": "JJN", "name": "Quanzhou ", "shortName": "Quanzhou", "municipalityName": "Quanzhou", "location": {"lat": 24.7964, "lon": 118.59}, "countryCode": "CN"}, "averageDailyFlights": 1.71, "operators": [{"name": "Donghai Airlines", "iata": "DZ", "icao": "EPA"}, {"name": "Xiamen Airlines", "iata": "MF", "icao": "CXA"}, {"name": "Qingdao Airlines", "iata": "QW", "icao": "QDA"}]}, {"destination": {"icao": "ZUGY", "iata": "KWE", "name": "Guiyang Longdongbao", "shortName": "Longdongbao", "municipalityName": "Guiyang", "location": {"lat": 26.5385, "lon": 106.801}, "countryCode": "CN"}, "averageDailyFlights": 1.64, "operators": [{"name": "China Southern Airlines", "iata": "CZ", "icao": "CSN"}, {"name": "Tianjin Airlines", "iata": "GS", "icao": "GCR"}, {"name": "China Express Airlines", "iata": "G5", "icao": "HXA"}]}, {"destination": {"icao": "ZSYW", "iata": "YIW", "name": "Yiwu ", "shortName": "Yiwu", "municipalityName": "Yiwu", "location": {"lat": 29.3447, "lon": 120.032}, "countryCode": "CN"}, "averageDailyFlights": 1.57, "operators": [{"name": "China Southern Airlines", "iata": "CZ", "icao": "CSN"}]}, {"destination": {"icao": "ZGHA", "iata": "CSX", "name": "Changsha Huanghua", "shortName": "Huanghua", "municipalityName": "Changsha", "location": {"lat": 28.1892, "lon": 113.22}, "countryCode": "CN"}, "averageDailyFlights": 1.43, "operators": [{"name": "China Southern Airlines", "iata": "CZ", "icao": "CSN"}]}, {"destination": {"icao": "ZBTJ", "iata": "TSN", "name": "Tianjin Binhai", "shortName": "Binhai", "municipalityName": "Tianjin", "location": {"lat": 39.1244, "lon": 117.346}, "countryCode": "CN"}, "averageDailyFlights": 1.2, "operators": [{"name": "Air China", "iata": "CA", "icao": "CCA"}, {"name": "Sichuan Airlines", "iata": "3U", "icao": "CSC"}]}, {"destination": {"icao": "ZSCG", "iata": "CZX", "name": "Changzhou ", "shortName": "Changzhou", "municipalityName": "Changzhou", "location": {"lat": 31.9197, "lon": 119.779}, "countryCode": "CN"}, "averageDailyFlights": 1.14, "operators": [{"name": "Shenzhen Airlines", "iata": "ZH", "icao": "CSZ"}]}, {"destination": {"icao": "ZSGZ", "iata": "KOW", "name": "Ganzhou ", "shortName": "Ganzhou", "municipalityName": "Ganzhou", "location": {"lat": 25.853333, "lon": 114.77889}, "countryCode": "CN"}, "averageDailyFlights": 1.14, "operators": [{"name": "Tianjin Airlines", "iata": "GS", "icao": "GCR"}]}, {"destination": {"icao": "ZLLL", "iata": "LHW", "name": "Lanzhou Zhongchuan", "shortName": "Zhongchuan", "municipalityName": "Lanzhou", "location": {"lat": 36.5152, "lon": 103.62}, "countryCode": "CN"}, "averageDailyFlights": 1.14, "operators": [{"name": "China Eastern Airlines", "iata": "MU", "icao": "CES"}]}, {"destination": {"icao": "ZSLG", "iata": "LYG", "name": "Lianyungang ", "shortName": "Lianyungang", "municipalityName": "Lianyungang", "location": {"lat": 34.571667, "lon": 118.87361}, "countryCode": "CN"}, "averageDailyFlights": 1.14, "operators": [{"name": "Tianjin Airlines", "iata": "GS", "icao": "GCR"}]}, {"destination": {"icao": "ZULZ", "iata": "LZO", "name": "Luzhou ", "shortName": "Luzhou", "municipalityName": "Luzhou", "location": {"lat": 28.8522, "lon": 105.393}, "countryCode": "CN"}, "averageDailyFlights": 1.14, "operators": [{"name": "China Southern Airlines", "iata": "CZ", "icao": "CSN"}]}, {"destination": {"icao": "ZHNY", "iata": "NNY", "name": "Nanyang ", "shortName": "Nanyang", "municipalityName": "Nanyang", "location": {"lat": 32.9808, "lon": 112.615}, "countryCode": "CN"}, "averageDailyFlights": 1.14, "operators": [{"name": "Hainan Airlines", "iata": "HU", "icao": "CHH"}]}, {"destination": {"icao": "ZJSY", "iata": "SYX", "name": "Sanya Phoenix", "shortName": "Phoenix", "municipalityName": "Sanya", "location": {"lat": 18.3029, "lon": 109.412}, "countryCode": "CN"}, "averageDailyFlights": 1.14, "operators": [{"name": "China Southern Airlines", "iata": "CZ", "icao": "CSN"}]}, {"destination": {"icao": "ZSWX", "iata": "WUX", "name": "Wuxi Sunan Shuofang", "shortName": "Sunan Shuofang", "municipalityName": "Wuxi", "location": {"lat": 31.4944, "lon": 120.429}, "countryCode": "CN"}, "averageDailyFlights": 1.14, "operators": [{"name": "Shenzhen Airlines", "iata": "ZH", "icao": "CSZ"}]}, {"destination": {"icao": "ZHXF", "iata": "XFN", "name": "Xiangfan ", "shortName": "Xiangfan", "municipalityName": "Xiangfan", "location": {"lat": 32.1506, "lon": 112.291}, "countryCode": "CN"}, "averageDailyFlights": 1.14, "operators": [{"name": "Shenzhen Airlines", "iata": "ZH", "icao": "CSZ"}]}, {"destination": {"icao": "ZSXZ", "iata": "XUZ", "name": "Xuzhou Guanyin", "shortName": "Guanyin", "municipalityName": "Xuzhou", "location": {"lat": 34.059055, "lon": 117.555275}, "countryCode": "CN"}, "averageDailyFlights": 1.14, "operators": [{"name": "Loong Air", "iata": "GJ", "icao": "CDC"}]}, {"destination": {"icao": "ZBYC", "iata": "YCU", "name": "Yuncheng Guangong", "shortName": "Guangong", "municipalityName": "Yuncheng", "location": {"lat": 35.11639, "lon": 111.03139}, "countryCode": "CN"}, "averageDailyFlights": 1.14, "operators": [{"name": "Shenzhen Airlines", "iata": "ZH", "icao": "CSZ"}]}, {"destination": {"icao": "ZGCD", "iata": "CGD", "name": "Changde ", "shortName": "Changde", "municipalityName": "Changde", "location": {"lat": 28.9189, "lon": 111.64}, "countryCode": "CN"}, "averageDailyFlights": 1.0, "operators": [{"name": "China Southern Airlines", "iata": "CZ", "icao": "CSN"}]}, {"destination": {"icao": "ZSNT", "iata": "NTG", "name": "Nantong ", "shortName": "Nantong", "municipalityName": "Nantong", "location": {"lat": 32.0708, "lon": 120.976}, "countryCode": "CN"}, "averageDailyFlights": 1.0, "operators": [{"name": "Shenzhen Airlines", "iata": "ZH", "icao": "CSZ"}]}, {"destination": {"icao": "ZSYN", "iata": "YNZ", "name": "Yancheng ", "shortName": "Yancheng", "municipalityName": "Yancheng", "location": {"lat": 33.425835, "lon": 120.20306}, "countryCode": "CN"}, "averageDailyFlights": 1.0, "operators": [{"name": "China Southern Airlines", "iata": "CZ", "icao": "CSN"}]}, {"destination": {"icao": "ZUXC", "iata": "XIC", "name": "Xichang Qingshan", "shortName": "Qingshan", "municipalityName": "Xichang", "location": {"lat": 27.9891, "lon": 102.184}, "countryCode": "CN"}, "averageDailyFlights": 0.86, "operators": [{"name": "Sichuan Airlines", "iata": "3U", "icao": "CSC"}]}, {"destination": {"icao": "ZHYC", "iata": "YIH", "name": "Yichang ", "shortName": "Yichang", "municipalityName": "Yichang", "location": {"lat": 30.55655, "lon": 111.47999}, "countryCode": "CN"}, "averageDailyFlights": 0.86, "operators": [{"name": "Donghai Airlines", "iata": "DZ", "icao": "EPA"}]}, {"destination": {"icao": "ZPLJ", "iata": "LJG", "name": "Lijiang ", "shortName": "Lijiang", "municipalityName": "Lijiang", "location": {"lat": 26.68, "lon": 100.246}, "countryCode": "CN"}, "averageDailyFlights": 0.71, "operators": [{"name": "Yunnan Hong Tu Airlines"}]}, {"destination": {"icao": "ZSLY", "iata": "LYI", "name": "Linyi Shubuling", "shortName": "Shubuling", "municipalityName": "Linyi", "location": {"lat": 35.0461, "lon": 118.412}, "countryCode": "CN"}, "averageDailyFlights": 0.71, "operators": [{"name": "Loong Air", "iata": "GJ", "icao": "CDC"}]}, {"destination": {"name": "Yantai"}, "averageDailyFlights": 0.57, "operators": [{"name": "Shandong Airlines", "iata": "SC", "icao": "CDG"}]}, {"destination": {"icao": "ZHES", "iata": "ENH", "name": "Enshi ", "shortName": "Enshi", "municipalityName": "Enshi", "location": {"lat": 30.3203, "lon": 109.485}, "countryCode": "CN"}, "averageDailyFlights": 0.43, "operators": [{"name": "Air Guilin", "iata": "GT", "icao": "CGH"}]}, {"destination": {"icao": "ZYHB", "iata": "HRB", "name": "Harbin Taiping", "shortName": "Taiping", "municipalityName": "Harbin", "location": {"lat": 45.6234, "lon": 126.25}, "countryCode": "CN"}, "averageDailyFlights": 0.43, "operators": [{"name": "China Southern Airlines", "iata": "CZ", "icao": "CSN"}]}, {"destination": {"icao": "ZPJH", "iata": "JHG", "name": "Jinghong Xishuangbanna Gasa", "shortName": "Xishuangbanna Gasa", "municipalityName": "Jinghong", "location": {"lat": 21.9739, "lon": 100.76}, "countryCode": "CN"}, "averageDailyFlights": 0.43, "operators": [{"name": "Ruili Airlines", "iata": "DR", "icao": "RLH"}]}, {"destination": {"icao": "ZPDL", "iata": "DLU", "name": "Xiaguan Dali", "shortName": "Dali", "municipalityName": "Xiaguan", "location": {"lat": 25.6494, "lon": 100.319}, "countryCode": "CN"}, "averageDailyFlights": 0.43, "operators": [{"name": "Yunnan Hong Tu Airlines"}]}, {"destination": {"icao": "ZUZY", "iata": "ZYI", "name": "Zunyi Xinzhou", "shortName": "Xinzhou", "municipalityName": "Zunyi", "location": {"lat": 27.5895, "lon": 107.0007}, "countryCode": "CN"}, "averageDailyFlights": 0.43, "operators": [{"name": "Chengdu Airlines", "iata": "EU", "icao": "UEA"}]}, {"destination": {"icao": "ZSSH", "iata": "HIA", "name": "Huai'an Lianshui", "shortName": "Lianshui", "municipalityName": "Huai'an", "location": {"lat": 33.790833, "lon": 119.125}, "countryCode": "CN"}, "averageDailyFlights": 0.29, "operators": [{"name": "Kunming Airlines", "iata": "KY", "icao": "KNA"}, {"name": "Air Changan", "iata": "9H", "icao": "CGN"}]}, {"destination": {"icao": "ZGMX", "iata": "MXZ", "name": "Meixian ", "shortName": "Meixian", "municipalityName": "Meixian", "location": {"lat": 24.35, "lon": 116.133}, "countryCode": "CN"}, "averageDailyFlights": 0.29, "operators": [{"name": "China Express Airlines", "iata": "G5", "icao": "HXA"}]}, {"destination": {"icao": "ZSTX", "iata": "TXN", "name": "Huangshan City Tunxi", "shortName": "Tunxi", "municipalityName": "Huangshan City", "location": {"lat": 29.7333, "lon": 118.256}, "countryCode": "CN"}, "averageDailyFlights": 0.14, "operators": [{"name": "Hebei Airlines", "iata": "NS", "icao": "HBH"}]}, {"destination": {"icao": "ZWWW", "iata": "URC", "name": "\u00dcr\u00fcmqi Diwopu", "shortName": "Diwopu", "municipalityName": "\u00dcr\u00fcmqi", "location": {"lat": 43.9071, "lon": 87.4742}, "countryCode": "CN"}, "averageDailyFlights": 0.14, "operators": [{"name": "China Southern Airlines", "iata": "CZ", "icao": "CSN"}]}, {"destination": {"name": "Dalian"}, "averageDailyFlights": 0.14, "operators": [{"name": "Hainan Airlines", "iata": "HU", "icao": "CHH"}]}]}