{"routes": [{"destination": {"icao": "ZPPP", "iata": "KMG", "name": "Kunming Changshui", "shortName": "Changshui", "municipalityName": "Kunming", "location": {"lat": 25.101944, "lon": 102.92917}, "countryCode": "CN"}, "averageDailyFlights": 7.04, "operators": [{"name": "Tibet Airlines", "iata": "TV", "icao": "TBA"}, {"name": "Lucky Air", "iata": "8L", "icao": "LKE"}, {"name": "Kunming Airlines", "iata": "KY", "icao": "KNA"}, {"name": "Ruili Airlines", "iata": "DR", "icao": "RLH"}, {"name": "Yunnan Hong Tu Airlines"}, {"name": "China Eastern Airlines", "iata": "MU", "icao": "CES"}, {"name": "Sichuan Airlines", "iata": "3U", "icao": "CSC"}]}, {"destination": {"icao": "ZUUU", "iata": "CTU", "name": "Chengdu Shuangliu", "shortName": "Shuangliu", "municipalityName": "Chengdu", "location": {"lat": 30.5785, "lon": 103.947}, "countryCode": "CN"}, "averageDailyFlights": 4.21, "operators": [{"name": "Tibet Airlines", "iata": "TV", "icao": "TBA"}, {"name": "Air China", "iata": "CA", "icao": "CCA"}, {"name": "Kunming Airlines", "iata": "KY", "icao": "KNA"}, {"name": "Sichuan Airlines", "iata": "3U", "icao": "CSC"}, {"name": "China Eastern Airlines", "iata": "MU", "icao": "CES"}, {"name": "Ruili Airlines", "iata": "DR", "icao": "RLH"}]}, {"destination": {"icao": "ZGGG", "iata": "CAN", "name": "Guangzhou Baiyun", "shortName": "Baiyun", "municipalityName": "Guangzhou", "location": {"lat": 23.3924, "lon": 113.299}, "countryCode": "CN"}, "averageDailyFlights": 2.29, "operators": [{"name": "China Eastern Airlines", "iata": "MU", "icao": "CES"}, {"name": "China Southern Airlines", "iata": "CZ", "icao": "CSN"}]}, {"destination": {"icao": "ZUCK", "iata": "CKG", "name": "Chongqing Jiangbei", "shortName": "Jiangbei", "municipalityName": "Chongqing", "location": {"lat": 29.7192, "lon": 106.642}, "countryCode": "CN"}, "averageDailyFlights": 1.57, "operators": [{"name": "Ruili Airlines", "iata": "DR", "icao": "RLH"}, {"name": "Tibet Airlines", "iata": "TV", "icao": "TBA"}]}, {"destination": {"icao": "ZSNJ", "iata": "NKG", "name": "Nanjing Lukou", "shortName": "Lukou", "municipalityName": "Nanjing", "location": {"lat": 31.742, "lon": 118.862}, "countryCode": "CN"}, "averageDailyFlights": 1.14, "operators": [{"name": "Beijing Capital Airlines", "iata": "JD", "icao": "CBJ"}]}, {"destination": {"icao": "ZLXY", "iata": "XIY", "name": "Xianyang Xi'an", "shortName": "Xi'an", "municipalityName": "Xianyang", "location": {"lat": 34.4471, "lon": 108.752}, "countryCode": "CN"}, "averageDailyFlights": 1.0, "operators": [{"name": "Kunming Airlines", "iata": "KY", "icao": "KNA"}]}, {"destination": {"icao": "ZSFZ", "iata": "FOC", "name": "Fuzhou Changle", "shortName": "Changle", "municipalityName": "Fuzhou", "location": {"lat": 25.9351, "lon": 119.663}, "countryCode": "CN"}, "averageDailyFlights": 0.71, "operators": [{"name": "Ruili Airlines", "iata": "DR", "icao": "RLH"}]}, {"destination": {"icao": "ZUGY", "iata": "KWE", "name": "Guiyang Longdongbao", "shortName": "Longdongbao", "municipalityName": "Guiyang", "location": {"lat": 26.5385, "lon": 106.801}, "countryCode": "CN"}, "averageDailyFlights": 0.71, "operators": [{"name": "Colorful Guizhou Airlines", "iata": "GY", "icao": "CGZ"}]}, {"destination": {"icao": "ZSPD", "iata": "PVG", "name": "Shanghai Pudong", "shortName": "Pudong", "municipalityName": "Shanghai", "location": {"lat": 31.1434, "lon": 121.805}, "countryCode": "CN"}, "averageDailyFlights": 0.71, "operators": [{"name": "China Eastern Airlines", "iata": "MU", "icao": "CES"}]}, {"destination": {"icao": "ZHHH", "iata": "WUH", "name": "Wuhan Tianhe", "shortName": "Tianhe", "municipalityName": "Wuhan", "location": {"lat": 30.7838, "lon": 114.208}, "countryCode": "CN"}, "averageDailyFlights": 0.71, "operators": [{"name": "Ruili Airlines", "iata": "DR", "icao": "RLH"}]}, {"destination": {"icao": "ZHCC", "iata": "CGO", "name": "Zhengzhou Xinzheng", "shortName": "Xinzheng", "municipalityName": "Zhengzhou", "location": {"lat": 34.5197, "lon": 113.841}, "countryCode": "CN"}, "averageDailyFlights": 0.71, "operators": [{"name": "Kunming Airlines", "iata": "KY", "icao": "KNA"}]}, {"destination": {"icao": "ZSQZ", "iata": "JJN", "name": "Quanzhou ", "shortName": "Quanzhou", "municipalityName": "Quanzhou", "location": {"lat": 24.7964, "lon": 118.59}, "countryCode": "CN"}, "averageDailyFlights": 0.57, "operators": [{"name": "Kunming Airlines", "iata": "KY", "icao": "KNA"}, {"name": "Ruili Airlines", "iata": "DR", "icao": "RLH"}]}, {"destination": {"icao": "ZSHC", "iata": "HGH", "name": "Hangzhou Xiaoshan", "shortName": "Xiaoshan", "municipalityName": "Hangzhou", "location": {"lat": 30.2295, "lon": 120.434}, "countryCode": "CN"}, "averageDailyFlights": 0.43, "operators": [{"name": "Kunming Airlines", "iata": "KY", "icao": "KNA"}]}, {"destination": {"icao": "VYMD", "iata": "MDL", "name": "Mandalay ", "shortName": "Mandalay", "municipalityName": "Mandalay", "location": {"lat": 21.7022, "lon": 95.9779}, "countryCode": "MM"}, "averageDailyFlights": 0.43, "operators": [{"name": "Ruili Airlines", "iata": "DR", "icao": "RLH"}]}, {"destination": {"icao": "ZGOW", "iata": "SWA", "name": "Shantou Jieyang Chaoshan", "shortName": "Jieyang Chaoshan", "municipalityName": "Shantou", "location": {"lat": 23.552, "lon": 116.5033}, "countryCode": "CN"}, "averageDailyFlights": 0.43, "operators": [{"name": "Ruili Airlines", "iata": "DR", "icao": "RLH"}]}, {"destination": {"name": "Changsha"}, "averageDailyFlights": 0.14, "operators": [{"name": "Yunnan Hong Tu Airlines"}]}]}