{"routes": [{"destination": {"icao": "ZPPP", "iata": "KMG", "name": "Kunming Changshui", "shortName": "Changshui", "municipalityName": "Kunming", "location": {"lat": 25.101944, "lon": 102.92917}, "countryCode": "CN"}, "averageDailyFlights": 2.29, "operators": [{"name": "China Eastern Airlines", "iata": "MU", "icao": "CES"}]}, {"destination": {"icao": "ZSHC", "iata": "HGH", "name": "Hangzhou Xiaoshan", "shortName": "Xiaoshan", "municipalityName": "Hangzhou", "location": {"lat": 30.2295, "lon": 120.434}, "countryCode": "CN"}, "averageDailyFlights": 1.14, "operators": [{"name": "Sichuan Airlines", "iata": "3U", "icao": "CSC"}]}, {"destination": {"icao": "ZBAD", "iata": "PKX", "name": "Beijing Daxing", "shortName": "Daxing", "municipalityName": "Beijing", "location": {"lat": 39.509167, "lon": 116.41055}, "countryCode": "CN"}, "averageDailyFlights": 0.71, "operators": [{"name": "China Eastern Airlines", "iata": "MU", "icao": "CES"}]}, {"destination": {"icao": "ZUUU", "iata": "CTU", "name": "Chengdu Shuangliu", "shortName": "Shuangliu", "municipalityName": "Chengdu", "location": {"lat": 30.5785, "lon": 103.947}, "countryCode": "CN"}, "averageDailyFlights": 0.71, "operators": [{"name": "Tibet Airlines", "iata": "TV", "icao": "TBA"}]}, {"destination": {"icao": "ZLXY", "iata": "XIY", "name": "Xianyang Xi'an", "shortName": "Xi'an", "municipalityName": "Xianyang", "location": {"lat": 34.4471, "lon": 108.752}, "countryCode": "CN"}, "averageDailyFlights": 0.71, "operators": [{"name": "China Eastern Airlines", "iata": "MU", "icao": "CES"}]}, {"destination": {"icao": "ZSPD", "iata": "PVG", "name": "Shanghai Pudong", "shortName": "Pudong", "municipalityName": "Shanghai", "location": {"lat": 31.1434, "lon": 121.805}, "countryCode": "CN"}, "averageDailyFlights": 0.43, "operators": [{"name": "China Eastern Airlines", "iata": "MU", "icao": "CES"}]}, {"destination": {"icao": "ZPSM", "iata": "SYM", "name": "Simao ", "shortName": "Simao", "municipalityName": "Simao", "location": {"lat": 22.7933, "lon": 100.959}, "countryCode": "CN"}, "averageDailyFlights": 0.43, "operators": [{"name": "Tibet Airlines", "iata": "TV", "icao": "TBA"}]}, {"destination": {"icao": "ZPDL", "iata": "DLU", "name": "Xiaguan Dali", "shortName": "Dali", "municipalityName": "Xiaguan", "location": {"lat": 25.6494, "lon": 100.319}, "countryCode": "CN"}, "averageDailyFlights": 0.29, "operators": [{"name": "Tibet Airlines", "iata": "TV", "icao": "TBA"}]}]}