{"routes": [{"destination": {"icao": "ZYCC", "iata": "CGQ", "name": "Changchun Longjia", "shortName": "Longjia", "municipalityName": "Changchun", "location": {"lat": 43.9962, "lon": 125.685}, "countryCode": "CN"}, "averageDailyFlights": 2.14, "operators": [{"name": "Air Changan", "iata": "9H", "icao": "CGN"}, {"name": "Qingdao Airlines", "iata": "QW", "icao": "QDA"}, {"name": "Loong Air", "iata": "GJ", "icao": "CDC"}]}, {"destination": {"name": "Dalian"}, "averageDailyFlights": 1.14, "operators": [{"name": "Hainan Airlines", "iata": "HU", "icao": "CHH"}]}, {"destination": {"name": "Shenyang"}, "averageDailyFlights": 1.14, "operators": [{"name": "Hainan Airlines", "iata": "HU", "icao": "CHH"}]}, {"destination": {"icao": "ZLXY", "iata": "XIY", "name": "Xianyang Xi'an", "shortName": "Xi'an", "municipalityName": "Xianyang", "location": {"lat": 34.4471, "lon": 108.752}, "countryCode": "CN"}, "averageDailyFlights": 0.86, "operators": [{"name": "Air Changan", "iata": "9H", "icao": "CGN"}]}, {"destination": {"icao": "ZGHA", "iata": "CSX", "name": "Changsha Huanghua", "shortName": "Huanghua", "municipalityName": "Changsha", "location": {"lat": 28.1892, "lon": 113.22}, "countryCode": "CN"}, "averageDailyFlights": 0.71, "operators": [{"name": "Guangxi Beibu Gulf Airlines", "iata": "GX", "icao": "CBG"}]}, {"destination": {"icao": "ZJSY", "iata": "SYX", "name": "Sanya Phoenix", "shortName": "Phoenix", "municipalityName": "Sanya", "location": {"lat": 18.3029, "lon": 109.412}, "countryCode": "CN"}, "averageDailyFlights": 0.71, "operators": [{"name": "Qingdao Airlines", "iata": "QW", "icao": "QDA"}]}, {"destination": {"icao": "ZUCK", "iata": "CKG", "name": "Chongqing Jiangbei", "shortName": "Jiangbei", "municipalityName": "Chongqing", "location": {"lat": 29.7192, "lon": 106.642}, "countryCode": "CN"}, "averageDailyFlights": 0.43, "operators": [{"name": "China Express Airlines", "iata": "G5", "icao": "HXA"}]}, {"destination": {"icao": "ZJHK", "iata": "HAK", "name": "Haikou Meilan", "shortName": "Meilan", "municipalityName": "Haikou", "location": {"lat": 19.9349, "lon": 110.459}, "countryCode": "CN"}, "averageDailyFlights": 0.43, "operators": [{"name": "Guangxi Beibu Gulf Airlines", "iata": "GX", "icao": "CBG"}]}, {"destination": {"icao": "ZSHC", "iata": "HGH", "name": "Hangzhou Xiaoshan", "shortName": "Xiaoshan", "municipalityName": "Hangzhou", "location": {"lat": 30.2295, "lon": 120.434}, "countryCode": "CN"}, "averageDailyFlights": 0.43, "operators": [{"name": "Loong Air", "iata": "GJ", "icao": "CDC"}]}, {"destination": {"icao": "ZSNB", "iata": "NGB", "name": "Ningbo Lishe", "shortName": "Lishe", "municipalityName": "Ningbo", "location": {"lat": 29.8267, "lon": 121.462}, "countryCode": "CN"}, "averageDailyFlights": 0.43, "operators": [{"name": "Qingdao Airlines", "iata": "QW", "icao": "QDA"}]}, {"destination": {"name": "Chengdu"}, "averageDailyFlights": 0.43, "operators": [{"name": "China Express Airlines", "iata": "G5", "icao": "HXA"}]}, {"destination": {"icao": "ZSPD", "iata": "PVG", "name": "Shanghai Pudong", "shortName": "Pudong", "municipalityName": "Shanghai", "location": {"lat": 31.1434, "lon": 121.805}, "countryCode": "CN"}, "averageDailyFlights": 0.29, "operators": [{"name": "Suparna Airlines", "iata": "Y8", "icao": "YZR"}]}, {"destination": {"icao": "ZBYN", "iata": "TYN", "name": "Taiyuan Wusu", "shortName": "Wusu", "municipalityName": "Taiyuan", "location": {"lat": 37.7469, "lon": 112.628}, "countryCode": "CN"}, "averageDailyFlights": 0.29, "operators": [{"name": "Qingdao Airlines", "iata": "QW", "icao": "QDA"}]}, {"destination": {"name": "Guangzhou"}, "averageDailyFlights": 0.14, "operators": [{"name": "Hainan Airlines", "iata": "HU", "icao": "CHH"}]}, {"destination": {"name": "Harbin"}, "averageDailyFlights": 0.14, "operators": [{"name": "Qingdao Airlines", "iata": "QW", "icao": "QDA"}]}, {"destination": {"name": "Shenzhen"}, "averageDailyFlights": 0.14, "operators": [{"name": "Hainan Airlines", "iata": "HU", "icao": "CHH"}]}, {"destination": {"name": "Xi'an"}, "averageDailyFlights": 0.14, "operators": [{"name": "Air Changan", "iata": "9H", "icao": "CGN"}]}]}