{"routes": [{"destination": {"icao": "BGSF", "iata": "SFJ", "name": "Kangerlussuaq ", "shortName": "Kangerlussuaq", "municipalityName": "Kangerlussuaq", "location": {"lat": 67.01222, "lon": -50.7116}, "countryCode": "GL"}, "averageDailyFlights": 8.86, "operators": [{"name": "Air Greenland", "iata": "GL", "icao": "GRL"}]}, {"destination": {"icao": "BGBW", "iata": "UAK", "name": "Narsarsuaq ", "shortName": "Narsarsuaq", "municipalityName": "Narsarsuaq", "location": {"lat": 61.1605, "lon": -45.426}, "countryCode": "GL"}, "averageDailyFlights": 1.43, "operators": [{"name": "Air Greenland", "iata": "GL", "icao": "GRL"}]}, {"destination": {"icao": "BGSS", "iata": "JHS", "name": "Sisimiut ", "shortName": "Sisimiut", "municipalityName": "Sisimiut", "location": {"lat": 66.9513, "lon": -53.7293}, "countryCode": "GL"}, "averageDailyFlights": 1.0, "operators": [{"name": "Air Greenland", "iata": "GL", "icao": "GRL"}]}, {"destination": {"icao": "BGJN", "iata": "JAV", "name": "Ilulissat ", "shortName": "Ilulissat", "municipalityName": "Ilulissat", "location": {"lat": 69.2432, "lon": -51.0571}, "countryCode": "GL"}, "averageDailyFlights": 0.86, "operators": [{"name": "Air Greenland", "iata": "GL", "icao": "GRL"}]}, {"destination": {"icao": "BGMQ", "iata": "JSU", "name": "Maniitsoq ", "shortName": "Maniitsoq", "municipalityName": "Maniitsoq", "location": {"lat": 65.4125, "lon": -52.9394}, "countryCode": "GL"}, "averageDailyFlights": 0.86, "operators": [{"name": "Air Greenland", "iata": "GL", "icao": "GRL"}]}, {"destination": {"icao": "BIKF", "iata": "KEF", "name": "Reykjavik Keflavik", "shortName": "Keflavik", "municipalityName": "Reykjavik", "location": {"lat": 63.985, "lon": -22.6056}, "countryCode": "IS"}, "averageDailyFlights": 0.71, "operators": [{"name": "Icelandair", "iata": "FI", "icao": "ICE"}]}, {"destination": {"icao": "BGKK", "iata": "KUS", "name": "Kulusuk ", "shortName": "Kulusuk", "municipalityName": "Kulusuk", "location": {"lat": 65.5736, "lon": -37.1236}, "countryCode": "GL"}, "averageDailyFlights": 0.43, "operators": [{"name": "Air Greenland", "iata": "GL", "icao": "GRL"}]}, {"destination": {"icao": "BGAA", "iata": "JEG", "name": "Aasiaat ", "shortName": "Aasiaat", "municipalityName": "Aasiaat", "location": {"lat": 68.7218, "lon": -52.7847}, "countryCode": "GL"}, "averageDailyFlights": 0.14, "operators": [{"name": "Air Greenland", "iata": "GL", "icao": "GRL"}]}, {"destination": {"icao": "CYFB", "iata": "YFB", "name": "Iqaluit ", "shortName": "Iqaluit", "municipalityName": "Iqaluit", "location": {"lat": 63.7564, "lon": -68.5558}, "countryCode": "CA"}, "averageDailyFlights": 0.14, "operators": [{"name": "Air Greenland", "iata": "GL", "icao": "GRL"}]}, {"destination": {"icao": "BGGH", "iata": "GOH", "name": "Nuuk ", "shortName": "Nuuk", "municipalityName": "Nuuk", "location": {"lat": 64.1909, "lon": -51.6781}, "countryCode": "GL"}, "averageDailyFlights": 0.14, "operators": [{"name": "Air Greenland", "iata": "GL", "icao": "GRL"}]}, {"destination": {"icao": "BGUQ", "iata": "JQA", "name": "Uummannaq Qaarsut", "shortName": "Qaarsut", "municipalityName": "Uummannaq", "location": {"lat": 70.7342, "lon": -52.6962}, "countryCode": "GL"}, "averageDailyFlights": 0.14, "operators": [{"name": "Air Greenland", "iata": "GL", "icao": "GRL"}]}, {"destination": {"name": "Paamiut"}, "averageDailyFlights": 0.14, "operators": [{"name": "Air Greenland", "iata": "GL", "icao": "GRL"}]}]}