{"routes": [{"destination": {"icao": "CYVR", "iata": "YVR", "name": "Vancouver ", "shortName": "Vancouver", "municipalityName": "Vancouver", "location": {"lat": 49.1939, "lon": -123.184}, "countryCode": "CA"}, "averageDailyFlights": 14.86, "operators": [{"name": "Air Canada", "iata": "AC", "icao": "ACA"}, {"name": "WestJet", "iata": "WS", "icao": "WJA"}, {"name": "Air North", "iata": "4N", "icao": "ANT"}, {"name": "Central Mountain Air", "iata": "9M", "icao": "GLR"}, {"name": "9M"}, {"name": "KFC"}, {"name": "Canadian North", "iata": "5T", "icao": "MPE"}]}, {"destination": {"icao": "CYYC", "iata": "YYC", "name": "Calgary ", "shortName": "Calgary", "municipalityName": "Calgary", "location": {"lat": 51.1139, "lon": -114.02}, "countryCode": "CA"}, "averageDailyFlights": 11.0, "operators": [{"name": "WestJet", "iata": "WS", "icao": "WJA"}, {"name": "Air Canada", "iata": "AC", "icao": "ACA"}, {"name": "Flair Airlines", "iata": "F8", "icao": "FLE"}, {"name": "DAT"}]}, {"destination": {"icao": "CYEG", "iata": "YEG", "name": "Edmonton ", "shortName": "Edmonton", "municipalityName": "Edmonton", "location": {"lat": 53.3097, "lon": -113.58}, "countryCode": "CA"}, "averageDailyFlights": 7.71, "operators": [{"name": "WestJet", "iata": "WS", "icao": "WJA"}, {"name": "Flair Airlines", "iata": "F8", "icao": "FLE"}]}, {"destination": {"icao": "CYYJ", "iata": "YYJ", "name": "Victoria ", "shortName": "Victoria", "municipalityName": "Victoria", "location": {"lat": 48.6469, "lon": -123.426}, "countryCode": "CA"}, "averageDailyFlights": 3.71, "operators": [{"name": "WestJet", "iata": "WS", "icao": "WJA"}, {"name": "Pacific Coastal Airlines", "iata": "8P", "icao": "PCO"}]}, {"destination": {"icao": "CYYZ", "iata": "YYZ", "name": "Toronto Pearson", "shortName": "Pearson", "municipalityName": "Toronto", "location": {"lat": 43.6772, "lon": -79.6306}, "countryCode": "CA"}, "averageDailyFlights": 3.14, "operators": [{"name": "Swoop", "iata": "WO", "icao": "WSW"}, {"name": "Air Canada", "iata": "AC", "icao": "ACA"}, {"name": "Flair Airlines", "iata": "F8", "icao": "FLE"}]}, {"destination": {"icao": "CYXS", "iata": "YXS", "name": "Prince George ", "shortName": "Prince George", "municipalityName": "Prince George", "location": {"lat": 53.8894, "lon": -122.679}, "countryCode": "CA"}, "averageDailyFlights": 1.0, "operators": [{"name": "9M"}, {"name": "Central Mountain Air", "iata": "9M", "icao": "GLR"}, {"name": "KFC"}]}, {"destination": {"icao": "CYWG", "iata": "YWG", "name": "Winnipeg James Armstrong Richardson", "shortName": "James Armstrong Richardson", "municipalityName": "Winnipeg", "location": {"lat": 49.91, "lon": -97.2399}, "countryCode": "CA"}, "averageDailyFlights": 1.0, "operators": [{"name": "WestJet", "iata": "WS", "icao": "WJA"}, {"name": "Flair Airlines", "iata": "F8", "icao": "FLE"}]}, {"destination": {"icao": "CYUL", "iata": "YUL", "name": "Montreal Trudeau", "shortName": "Trudeau", "municipalityName": "Montreal", "location": {"lat": 45.4706, "lon": -73.7408}, "countryCode": "CA"}, "averageDailyFlights": 0.57, "operators": [{"name": "Air Canada", "iata": "AC", "icao": "ACA"}]}, {"destination": {"icao": "CYXT", "iata": "YXT", "name": "Terrace ", "shortName": "Terrace", "municipalityName": "Terrace", "location": {"lat": 54.4685, "lon": -128.576}, "countryCode": "CA"}, "averageDailyFlights": 0.57, "operators": [{"name": "Canadian North", "iata": "5T", "icao": "MPE"}, {"name": "KFC"}]}, {"destination": {"icao": "CYXE", "iata": "YXE", "name": "Saskatoon Diefenbaker", "shortName": "Diefenbaker", "municipalityName": "Saskatoon", "location": {"lat": 52.1708, "lon": -106.7}, "countryCode": "CA"}, "averageDailyFlights": 0.43, "operators": [{"name": "WestJet", "iata": "WS", "icao": "WJA"}]}, {"destination": {"icao": "CYXJ", "iata": "YXJ", "name": "Fort St.John ", "shortName": "Fort St.John", "municipalityName": "Fort St.John", "location": {"lat": 56.2381, "lon": -120.74}, "countryCode": "CA"}, "averageDailyFlights": 0.29, "operators": [{"name": "Air Canada", "iata": "AC", "icao": "ACA"}, {"name": "NCB"}]}, {"destination": {"icao": "CYQR", "iata": "YQR", "name": "Regina ", "shortName": "Regina", "municipalityName": "Regina", "location": {"lat": 50.4319, "lon": -104.666}, "countryCode": "CA"}, "averageDailyFlights": 0.29, "operators": [{"name": "WestJet", "iata": "WS", "icao": "WJA"}]}, {"destination": {"icao": "CYCD", "iata": "YCD", "name": "Nanaimo ", "shortName": "Nanaimo", "municipalityName": "Nanaimo", "location": {"lat": 49.05497, "lon": -123.869865}, "countryCode": "CA"}, "averageDailyFlights": 0.14, "operators": [{"name": "Air Canada", "iata": "AC", "icao": "ACA"}]}]}