{"routes": [{"destination": {"icao": "CYYZ", "iata": "YYZ", "name": "Toronto Pearson", "shortName": "Pearson", "municipalityName": "Toronto", "location": {"lat": 43.6772, "lon": -79.6306}, "countryCode": "CA"}, "averageDailyFlights": 2.86, "operators": [{"name": "Air Canada", "iata": "AC", "icao": "ACA"}]}, {"destination": {"icao": "CYOW", "iata": "YOW", "name": "Ottawa Macdonald-Cartier", "shortName": "Macdonald-Cartier", "municipalityName": "Ottawa", "location": {"lat": 45.3225, "lon": -75.6692}, "countryCode": "CA"}, "averageDailyFlights": 1.71, "operators": [{"name": "Porter Airlines", "iata": "PD", "icao": "POE"}, {"name": "PAL Airlines", "iata": "PB", "icao": "PVL"}]}, {"destination": {"icao": "CYTZ", "iata": "YTZ", "name": "Toronto Billy Bishop  City Centre", "shortName": "Billy Bishop  City Centre", "municipalityName": "Toronto", "location": {"lat": 43.6275, "lon": -79.3962}, "countryCode": "CA"}, "averageDailyFlights": 1.14, "operators": [{"name": "Porter Airlines", "iata": "PD", "icao": "POE"}]}, {"destination": {"icao": "CYDF", "iata": "YDF", "name": "Deer Lake ", "shortName": "Deer Lake", "municipalityName": "Deer Lake", "location": {"lat": 49.2108, "lon": -57.3914}, "countryCode": "CA"}, "averageDailyFlights": 1.0, "operators": [{"name": "PAL Airlines", "iata": "PB", "icao": "PVL"}]}, {"destination": {"icao": "CYYC", "iata": "YYC", "name": "Calgary ", "shortName": "Calgary", "municipalityName": "Calgary", "location": {"lat": 51.1139, "lon": -114.02}, "countryCode": "CA"}, "averageDailyFlights": 0.86, "operators": [{"name": "WestJet", "iata": "WS", "icao": "WJA"}]}, {"destination": {"icao": "CYHM", "iata": "YHM", "name": "Hamilton John C. Munro", "shortName": "John C. Munro", "municipalityName": "Hamilton", "location": {"lat": 43.1736, "lon": -79.935}, "countryCode": "CA"}, "averageDailyFlights": 0.71, "operators": [{"name": "Swoop", "iata": "WO", "icao": "WSW"}]}, {"destination": {"name": "Montreal"}, "averageDailyFlights": 0.57, "operators": [{"name": "Air Canada", "iata": "AC", "icao": "ACA"}]}, {"destination": {"icao": "CYYY", "iata": "YYY", "name": "Mont-Joli Mont Joli", "shortName": "Mont Joli", "municipalityName": "Mont-Joli", "location": {"lat": 48.6086, "lon": -68.2081}, "countryCode": "CA"}, "averageDailyFlights": 0.43, "operators": [{"name": "PAL Airlines", "iata": "PB", "icao": "PVL"}]}, {"destination": {"icao": "CYEG", "iata": "YEG", "name": "Edmonton ", "shortName": "Edmonton", "municipalityName": "Edmonton", "location": {"lat": 53.3097, "lon": -113.58}, "countryCode": "CA"}, "averageDailyFlights": 0.29, "operators": [{"name": "WestJet", "iata": "WS", "icao": "WJA"}]}, {"destination": {"icao": "CYYT", "iata": "YYT", "name": "St. John's ", "shortName": "St. John's", "municipalityName": "St. John's", "location": {"lat": 47.6186, "lon": -52.7519}, "countryCode": "CA"}, "averageDailyFlights": 0.14, "operators": [{"name": "PAL Airlines", "iata": "PB", "icao": "PVL"}]}]}