{"routes": [{"destination": {"icao": "CYYC", "iata": "YYC", "name": "Calgary ", "shortName": "Calgary", "municipalityName": "Calgary", "location": {"lat": 51.1139, "lon": -114.02}, "countryCode": "CA"}, "averageDailyFlights": 7.71, "operators": [{"name": "WestJet", "iata": "WS", "icao": "WJA"}]}, {"destination": {"icao": "CYVR", "iata": "YVR", "name": "Vancouver ", "shortName": "Vancouver", "municipalityName": "Vancouver", "location": {"lat": 49.1939, "lon": -123.184}, "countryCode": "CA"}, "averageDailyFlights": 4.86, "operators": [{"name": "Air Canada", "iata": "AC", "icao": "ACA"}, {"name": "WestJet", "iata": "WS", "icao": "WJA"}, {"name": "Flair Airlines", "iata": "F8", "icao": "FLE"}]}, {"destination": {"icao": "CYYZ", "iata": "YYZ", "name": "Toronto Pearson", "shortName": "Pearson", "municipalityName": "Toronto", "location": {"lat": 43.6772, "lon": -79.6306}, "countryCode": "CA"}, "averageDailyFlights": 3.43, "operators": [{"name": "Air Canada", "iata": "AC", "icao": "ACA"}, {"name": "WestJet", "iata": "WS", "icao": "WJA"}, {"name": "Flair Airlines", "iata": "F8", "icao": "FLE"}]}, {"destination": {"icao": "CYEG", "iata": "YEG", "name": "Edmonton ", "shortName": "Edmonton", "municipalityName": "Edmonton", "location": {"lat": 53.3097, "lon": -113.58}, "countryCode": "CA"}, "averageDailyFlights": 2.29, "operators": [{"name": "WestJet", "iata": "WS", "icao": "WJA"}]}, {"destination": {"icao": "CYWG", "iata": "YWG", "name": "Winnipeg James Armstrong Richardson", "shortName": "James Armstrong Richardson", "municipalityName": "Winnipeg", "location": {"lat": 49.91, "lon": -97.2399}, "countryCode": "CA"}, "averageDailyFlights": 2.0, "operators": [{"name": "WestJet", "iata": "WS", "icao": "WJA"}]}, {"destination": {"icao": "CYPA", "iata": "YPA", "name": "Prince Albert Glass Field", "shortName": "Glass Field", "municipalityName": "Prince Albert", "location": {"lat": 53.2142, "lon": -105.673}, "countryCode": "CA"}, "averageDailyFlights": 0.86, "operators": [{"name": "Transwest Air", "iata": "4T", "icao": "WEW"}]}, {"destination": {"icao": "CYQR", "iata": "YQR", "name": "Regina ", "shortName": "Regina", "municipalityName": "Regina", "location": {"lat": 50.4319, "lon": -104.666}, "countryCode": "CA"}, "averageDailyFlights": 0.86, "operators": [{"name": "Air Canada", "iata": "AC", "icao": "ACA"}]}, {"destination": {"icao": "CYLW", "iata": "YLW", "name": "Kelowna ", "shortName": "Kelowna", "municipalityName": "Kelowna", "location": {"lat": 49.9561, "lon": -119.378}, "countryCode": "CA"}, "averageDailyFlights": 0.43, "operators": [{"name": "WestJet", "iata": "WS", "icao": "WJA"}]}, {"destination": {"icao": "KMSP", "iata": "MSP", "name": "Minneapolis Wold-Chamberlain", "shortName": "Wold-Chamberlain", "municipalityName": "Minneapolis", "location": {"lat": 44.882, "lon": -93.2218}, "countryCode": "US"}, "averageDailyFlights": 0.43, "operators": [{"name": "WestJet", "iata": "WS", "icao": "WJA"}]}, {"destination": {"icao": "CZFD", "iata": "ZFD", "name": "Fond-Du-Lac ", "shortName": "Fond-Du-Lac", "municipalityName": "Fond-Du-Lac", "location": {"lat": 59.3344, "lon": -107.182}, "countryCode": "CA"}, "averageDailyFlights": 0.14, "operators": [{"name": "Transwest Air", "iata": "4T", "icao": "WEW"}]}, {"destination": {"icao": "KGTF", "iata": "GTF", "name": "Great Falls ", "shortName": "Great Falls", "municipalityName": "Great Falls", "location": {"lat": 47.482, "lon": -111.371}, "countryCode": "US"}, "averageDailyFlights": 0.14, "operators": [{"name": "ASP"}]}]}