{"routes": [{"destination": {"icao": "DGSI", "iata": "KMS", "name": "Kumasi ", "shortName": "Kumasi", "municipalityName": "Kumasi", "location": {"lat": 6.71456, "lon": -1.590819}, "countryCode": "GH"}, "averageDailyFlights": 11.43, "operators": [{"name": "Africa World Airlines", "iata": "AW", "icao": "AFW"}, {"name": "Passion Air", "iata": "OP", "icao": "DIG"}]}, {"destination": {"icao": "DGLE", "iata": "TML", "name": "Tamale ", "shortName": "Tamale", "municipalityName": "Tamale", "location": {"lat": 9.557189, "lon": -0.863214}, "countryCode": "GH"}, "averageDailyFlights": 6.71, "operators": [{"name": "Africa World Airlines", "iata": "AW", "icao": "AFW"}, {"name": "Passion Air", "iata": "OP", "icao": "DIG"}]}, {"destination": {"icao": "DNMM", "iata": "LOS", "name": "Lagos Murtala Muhammed", "shortName": "Murtala Muhammed", "municipalityName": "Lagos", "location": {"lat": 6.57737, "lon": 3.32116}, "countryCode": "NG"}, "averageDailyFlights": 6.0, "operators": [{"name": "Africa World Airlines", "iata": "AW", "icao": "AFW"}, {"name": "Air Peace", "iata": "P4", "icao": "APK"}]}, {"destination": {"icao": "DGTK", "iata": "TKD", "name": "Sekondi-Takoradi Takoradi", "shortName": "Takoradi", "municipalityName": "Sekondi-Takoradi", "location": {"lat": 4.896059, "lon": -1.77476}, "countryCode": "GH"}, "averageDailyFlights": 4.71, "operators": [{"name": "Passion Air", "iata": "OP", "icao": "DIG"}, {"name": "Africa World Airlines", "iata": "AW", "icao": "AFW"}]}, {"destination": {"icao": "DIAP", "iata": "ABJ", "name": "Abidjan Port Bouet", "shortName": "Port Bouet", "municipalityName": "Abidjan", "location": {"lat": 5.26139, "lon": -3.92629}, "countryCode": "CI"}, "averageDailyFlights": 4.29, "operators": [{"name": "Air Cote D'Ivoire", "iata": "HF", "icao": "VRE"}, {"name": "Qatar Airways", "iata": "QR", "icao": "QTR"}, {"name": "Emirates", "iata": "EK", "icao": "UAE"}, {"name": "Middle East Airlines", "iata": "ME", "icao": "MEA"}, {"name": "Air Burkina", "iata": "2J", "icao": "VBW"}]}, {"destination": {"icao": "DXXX", "iata": "LFW", "name": "Lom\u00e9 -Tokoin", "shortName": "-Tokoin", "municipalityName": "Lom\u00e9", "location": {"lat": 6.165609, "lon": 1.25451}, "countryCode": "TG"}, "averageDailyFlights": 3.29, "operators": [{"name": "ASKY", "iata": "KP", "icao": "SKK"}, {"name": "Brussels Airlines", "iata": "SN", "icao": "BEL"}]}, {"destination": {"icao": "GLRB", "iata": "ROB", "name": "Monrovia Roberts", "shortName": "Roberts", "municipalityName": "Monrovia", "location": {"lat": 6.233789, "lon": -10.362299}, "countryCode": "LR"}, "averageDailyFlights": 2.14, "operators": [{"name": "ASKY", "iata": "KP", "icao": "SKK"}, {"name": "Air Peace", "iata": "P4", "icao": "APK"}, {"name": "Kenya Airways", "iata": "KQ", "icao": "KQA"}]}, {"destination": {"icao": "HAAB", "iata": "ADD", "name": "Addis Ababa Bole", "shortName": "Bole", "municipalityName": "Addis Ababa", "location": {"lat": 8.97789, "lon": 38.7993}, "countryCode": "ET"}, "averageDailyFlights": 1.86, "operators": [{"name": "Ethiopian Airlines", "iata": "ET", "icao": "ETH"}]}, {"destination": {"icao": "GFLL", "iata": "FNA", "name": "Freetown Lungi", "shortName": "Lungi", "municipalityName": "Freetown", "location": {"lat": 8.616439, "lon": -13.1955}, "countryCode": "SL"}, "averageDailyFlights": 1.86, "operators": [{"name": "ASKY", "iata": "KP", "icao": "SKK"}, {"name": "Kenya Airways", "iata": "KQ", "icao": "KQA"}]}, {"destination": {"icao": "HKJK", "iata": "NBO", "name": "Nairobi Jomo Kenyatta", "shortName": "Jomo Kenyatta", "municipalityName": "Nairobi", "location": {"lat": -1.319239, "lon": 36.9278}, "countryCode": "KE"}, "averageDailyFlights": 1.57, "operators": [{"name": "Kenya Airways", "iata": "KQ", "icao": "KQA"}]}, {"destination": {"icao": "DNAA", "iata": "ABV", "name": "Abuja Nnamdi Azikiwe", "shortName": "Nnamdi Azikiwe", "municipalityName": "Abuja", "location": {"lat": 9.00679, "lon": 7.263169}, "countryCode": "NG"}, "averageDailyFlights": 1.14, "operators": [{"name": "Africa World Airlines", "iata": "AW", "icao": "AFW"}]}, {"destination": {"icao": "EHAM", "iata": "AMS", "name": "Amsterdam Schiphol", "shortName": "Schiphol", "municipalityName": "Amsterdam", "location": {"lat": 52.3086, "lon": 4.763889}, "countryCode": "NL"}, "averageDailyFlights": 1.14, "operators": [{"name": "KLM", "iata": "KL", "icao": "KLM"}]}, {"destination": {"icao": "OTHH", "iata": "DOH", "name": "Doha Hamad", "shortName": "Hamad", "municipalityName": "Doha", "location": {"lat": 25.273056, "lon": 51.608055}, "countryCode": "QA"}, "averageDailyFlights": 1.14, "operators": [{"name": "Qatar Airways", "iata": "QR", "icao": "QTR"}]}, {"destination": {"icao": "OMDB", "iata": "DXB", "name": "Dubai ", "shortName": "Dubai", "municipalityName": "Dubai", "location": {"lat": 25.252798, "lon": 55.3644}, "countryCode": "AE"}, "averageDailyFlights": 1.14, "operators": [{"name": "Emirates", "iata": "EK", "icao": "UAE"}]}, {"destination": {"icao": "LTFM", "iata": "IST", "name": "Istanbul ", "shortName": "Istanbul", "municipalityName": "Istanbul", "location": {"lat": 41.275276, "lon": 28.751944}, "countryCode": "TR"}, "averageDailyFlights": 1.14, "operators": [{"name": "Turkish Airlines", "iata": "TK", "icao": "THY"}]}, {"destination": {"icao": "EGLL", "iata": "LHR", "name": "London Heathrow", "shortName": "Heathrow", "municipalityName": "London", "location": {"lat": 51.4706, "lon": -0.461941}, "countryCode": "GB"}, "averageDailyFlights": 1.14, "operators": [{"name": "British Airways", "iata": "BA", "icao": "BAW"}]}, {"destination": {"icao": "KJFK", "iata": "JFK", "name": "New York John F Kennedy", "shortName": "John F Kennedy", "municipalityName": "New York", "location": {"lat": 40.6398, "lon": -73.7789}, "countryCode": "US"}, "averageDailyFlights": 1.14, "operators": [{"name": "Delta Air Lines", "iata": "DL", "icao": "DAL"}]}, {"destination": {"name": "Sanyani"}, "averageDailyFlights": 1.0, "operators": [{"name": "Passion Air", "iata": "OP", "icao": "DIG"}]}, {"destination": {"icao": "EBBR", "iata": "BRU", "name": "Brussels ", "shortName": "Brussels", "municipalityName": "Brussels", "location": {"lat": 50.9014, "lon": 4.484439}, "countryCode": "BE"}, "averageDailyFlights": 0.86, "operators": [{"name": "Brussels Airlines", "iata": "SN", "icao": "BEL"}]}, {"destination": {"icao": "GMMN", "iata": "CMN", "name": "Casablanca Mohammed V", "shortName": "Mohammed V", "municipalityName": "Casablanca", "location": {"lat": 33.3675, "lon": -7.58997}, "countryCode": "MA"}, "averageDailyFlights": 0.86, "operators": [{"name": "Royal Air Maroc", "iata": "AT", "icao": "RAM"}]}, {"destination": {"name": "Wa Airport"}, "averageDailyFlights": 0.86, "operators": [{"name": "Passion Air", "iata": "OP", "icao": "DIG"}]}, {"destination": {"icao": "HECA", "iata": "CAI", "name": "Cairo ", "shortName": "Cairo", "municipalityName": "Cairo", "location": {"lat": 30.1219, "lon": 31.4056}, "countryCode": "EG"}, "averageDailyFlights": 0.71, "operators": [{"name": "EgyptAir", "iata": "MS", "icao": "MSR"}]}, {"destination": {"icao": "HRYR", "iata": "KGL", "name": "Kigali ", "shortName": "Kigali", "municipalityName": "Kigali", "location": {"lat": -1.968629, "lon": 30.1395}, "countryCode": "RW"}, "averageDailyFlights": 0.71, "operators": [{"name": "RwandAir", "iata": "WB", "icao": "RWD"}]}, {"destination": {"icao": "LPPT", "iata": "LIS", "name": "Lisbon Portela", "shortName": "Portela", "municipalityName": "Lisbon", "location": {"lat": 38.7813, "lon": -9.135919}, "countryCode": "PT"}, "averageDailyFlights": 0.57, "operators": [{"name": "TAP Air Portugal", "iata": "TP", "icao": "TAP"}]}, {"destination": {"icao": "DFFD", "iata": "OUA", "name": "Ouagadougou ", "shortName": "Ouagadougou", "municipalityName": "Ouagadougou", "location": {"lat": 12.353199, "lon": -1.51242}, "countryCode": "BF"}, "averageDailyFlights": 0.57, "operators": [{"name": "Air France", "iata": "AF", "icao": "AFR"}, {"name": "Air Burkina", "iata": "2J", "icao": "VBW"}]}, {"destination": {"icao": "FPST", "iata": "TMS", "name": "S\u00e3o Tom\u00e9 ", "shortName": "S\u00e3o Tom\u00e9", "municipalityName": "S\u00e3o Tom\u00e9", "location": {"lat": 0.378174, "lon": 6.71215}, "countryCode": "ST"}, "averageDailyFlights": 0.57, "operators": [{"name": "TAP Air Portugal", "iata": "TP", "icao": "TAP"}]}, {"destination": {"icao": "GOBD", "iata": "DSS", "name": "Dakar Blaise Diagne", "shortName": "Blaise Diagne", "municipalityName": "Dakar", "location": {"lat": 14.671111, "lon": -17.066944}, "countryCode": "SN"}, "averageDailyFlights": 0.43, "operators": [{"name": "Kenya Airways", "iata": "KQ", "icao": "KQA"}]}, {"destination": {"icao": "KIAD", "iata": "IAD", "name": "District of Columbia Washington Dulles", "shortName": "Washington Dulles", "municipalityName": "District of Columbia", "location": {"lat": 38.9445, "lon": -77.4558}, "countryCode": "US"}, "averageDailyFlights": 0.43, "operators": [{"name": "United Airlines", "iata": "UA", "icao": "UAL"}]}, {"destination": {"icao": "FAOR", "iata": "JNB", "name": "Jo'anna OR Tambo", "shortName": "OR Tambo", "municipalityName": "Jo'anna", "location": {"lat": -26.1392, "lon": 28.246}, "countryCode": "ZA"}, "averageDailyFlights": 0.43, "operators": [{"name": "South African Airways", "iata": "SA", "icao": "SAA"}]}, {"destination": {"icao": "LFPG", "iata": "CDG", "name": "Paris Charles de Gaulle", "shortName": "Charles de Gaulle", "municipalityName": "Paris", "location": {"lat": 49.0128, "lon": 2.549999}, "countryCode": "FR"}, "averageDailyFlights": 0.43, "operators": [{"name": "Air France", "iata": "AF", "icao": "AFR"}]}, {"destination": {"name": "S\u00e3o Paulo"}, "averageDailyFlights": 0.43, "operators": [{"name": "Emirates", "iata": "EK", "icao": "UAE"}]}, {"destination": {"icao": "OLBA", "iata": "BEY", "name": "Beirut Rafic Hariri", "shortName": "Rafic Hariri", "municipalityName": "Beirut", "location": {"lat": 33.8209, "lon": 35.4884}, "countryCode": "LB"}, "averageDailyFlights": 0.29, "operators": [{"name": "Middle East Airlines", "iata": "ME", "icao": "MEA"}]}]}