{"routes": [{"destination": {"icao": "DGAA", "iata": "ACC", "name": "Accra Kotoka", "shortName": "Kotoka", "municipalityName": "Accra", "location": {"lat": 5.605189, "lon": -0.166786}, "countryCode": "GH"}, "averageDailyFlights": 4.57, "operators": [{"name": "Emirates", "iata": "EK", "icao": "UAE"}, {"name": "Qatar Airways", "iata": "QR", "icao": "QTR"}, {"name": "Air Cote D'Ivoire", "iata": "HF", "icao": "VRE"}, {"name": "Middle East Airlines", "iata": "ME", "icao": "MEA"}, {"name": "Air Burkina", "iata": "2J", "icao": "VBW"}]}, {"destination": {"icao": "GOBD", "iata": "DSS", "name": "Dakar Blaise Diagne", "shortName": "Blaise Diagne", "municipalityName": "Dakar", "location": {"lat": 14.671111, "lon": -17.066944}, "countryCode": "SN"}, "averageDailyFlights": 4.0, "operators": [{"name": "Air Cote D'Ivoire", "iata": "HF", "icao": "VRE"}, {"name": "Air Senegal", "iata": "HC", "icao": "SZN"}, {"name": "Kenya Airways", "iata": "KQ", "icao": "KQA"}]}, {"destination": {"icao": "GMMN", "iata": "CMN", "name": "Casablanca Mohammed V", "shortName": "Mohammed V", "municipalityName": "Casablanca", "location": {"lat": 33.3675, "lon": -7.58997}, "countryCode": "MA"}, "averageDailyFlights": 2.86, "operators": [{"name": "Royal Air Maroc", "iata": "AT", "icao": "RAM"}, {"name": "Air Cote D'Ivoire", "iata": "HF", "icao": "VRE"}]}, {"destination": {"icao": "DBBB", "iata": "COO", "name": "Cotonou Cadjehoun", "shortName": "Cadjehoun", "municipalityName": "Cotonou", "location": {"lat": 6.35723, "lon": 2.38435}, "countryCode": "BJ"}, "averageDailyFlights": 2.29, "operators": [{"name": "Air Cote D'Ivoire", "iata": "HF", "icao": "VRE"}, {"name": "Brussels Airlines", "iata": "SN", "icao": "BEL"}, {"name": "Turkish Airlines", "iata": "TK", "icao": "THY"}]}, {"destination": {"icao": "DXXX", "iata": "LFW", "name": "Lom\u00e9 -Tokoin", "shortName": "-Tokoin", "municipalityName": "Lom\u00e9", "location": {"lat": 6.165609, "lon": 1.25451}, "countryCode": "TG"}, "averageDailyFlights": 2.29, "operators": [{"name": "ASKY", "iata": "KP", "icao": "SKK"}, {"name": "Air Cote D'Ivoire", "iata": "HF", "icao": "VRE"}]}, {"destination": {"icao": "GUCY", "iata": "CKY", "name": "Conakry ", "shortName": "Conakry", "municipalityName": "Conakry", "location": {"lat": 9.57689, "lon": -13.612}, "countryCode": "GN"}, "averageDailyFlights": 2.0, "operators": [{"name": "Air Cote D'Ivoire", "iata": "HF", "icao": "VRE"}, {"name": "Ethiopian Airlines", "iata": "ET", "icao": "ETH"}]}, {"destination": {"icao": "DFFD", "iata": "OUA", "name": "Ouagadougou ", "shortName": "Ouagadougou", "municipalityName": "Ouagadougou", "location": {"lat": 12.353199, "lon": -1.51242}, "countryCode": "BF"}, "averageDailyFlights": 2.0, "operators": [{"name": "Tunisair", "iata": "TU", "icao": "TAR"}, {"name": "Air Burkina", "iata": "2J", "icao": "VBW"}, {"name": "Air Cote D'Ivoire", "iata": "HF", "icao": "VRE"}, {"name": "Brussels Airlines", "iata": "SN", "icao": "BEL"}]}, {"destination": {"icao": "GABS", "iata": "BKO", "name": "Senou ", "shortName": "Senou", "municipalityName": "Senou", "location": {"lat": 12.533499, "lon": -7.94994}, "countryCode": "ML"}, "averageDailyFlights": 2.0, "operators": [{"name": "Air Cote D'Ivoire", "iata": "HF", "icao": "VRE"}, {"name": "Mauritania Airlines International", "iata": "L6", "icao": "MAI"}, {"name": "Groupe Transair", "iata": "R2", "icao": "GTS"}]}, {"destination": {"icao": "LFPG", "iata": "CDG", "name": "Paris Charles de Gaulle", "shortName": "Charles de Gaulle", "municipalityName": "Paris", "location": {"lat": 49.0128, "lon": 2.549999}, "countryCode": "FR"}, "averageDailyFlights": 1.86, "operators": [{"name": "Air France", "iata": "AF", "icao": "AFR"}]}, {"destination": {"icao": "DNMM", "iata": "LOS", "name": "Lagos Murtala Muhammed", "shortName": "Murtala Muhammed", "municipalityName": "Lagos", "location": {"lat": 6.57737, "lon": 3.32116}, "countryCode": "NG"}, "averageDailyFlights": 1.57, "operators": [{"name": "Middle East Airlines", "iata": "ME", "icao": "MEA"}, {"name": "Air Cote D'Ivoire", "iata": "HF", "icao": "VRE"}]}, {"destination": {"icao": "LFPO", "iata": "ORY", "name": "Paris -Orly", "shortName": "-Orly", "municipalityName": "Paris", "location": {"lat": 48.7253, "lon": 2.35944}, "countryCode": "FR"}, "averageDailyFlights": 1.43, "operators": [{"name": "Corsair", "iata": "SS", "icao": "CRL"}]}, {"destination": {"icao": "DRRN", "iata": "NIM", "name": "Niamey Diori Hamani", "shortName": "Diori Hamani", "municipalityName": "Niamey", "location": {"lat": 13.481499, "lon": 2.183609}, "countryCode": "NE"}, "averageDailyFlights": 1.29, "operators": [{"name": "Air Cote D'Ivoire", "iata": "HF", "icao": "VRE"}, {"name": "Tunisair", "iata": "TU", "icao": "TAR"}]}, {"destination": {"icao": "DIKO", "iata": "HGO", "name": "Korhogo ", "shortName": "Korhogo", "municipalityName": "Korhogo", "location": {"lat": 9.38718, "lon": -5.55666}, "countryCode": "CI"}, "averageDailyFlights": 0.86, "operators": [{"name": "Air Cote D'Ivoire", "iata": "HF", "icao": "VRE"}]}, {"destination": {"icao": "FZAA", "iata": "FIH", "name": "Kinshasa Ndjili", "shortName": "Ndjili", "municipalityName": "Kinshasa", "location": {"lat": -4.385749, "lon": 15.4446}, "countryCode": "CD"}, "averageDailyFlights": 0.71, "operators": [{"name": "Air Cote D'Ivoire", "iata": "HF", "icao": "VRE"}]}, {"destination": {"icao": "DTTA", "iata": "TUN", "name": "Tunis Carthage", "shortName": "Carthage", "municipalityName": "Tunis", "location": {"lat": 36.851, "lon": 10.227199}, "countryCode": "TN"}, "averageDailyFlights": 0.71, "operators": [{"name": "Tunisair", "iata": "TU", "icao": "TAR"}]}, {"destination": {"icao": "FKYS", "iata": "NSI", "name": "Yaound\u00e9 Nsimalen", "shortName": "Nsimalen", "municipalityName": "Yaound\u00e9", "location": {"lat": 3.722559, "lon": 11.553299}, "countryCode": "CM"}, "averageDailyFlights": 0.71, "operators": [{"name": "Air Cote D'Ivoire", "iata": "HF", "icao": "VRE"}]}, {"destination": {"icao": "LTFM", "iata": "IST", "name": "Istanbul ", "shortName": "Istanbul", "municipalityName": "Istanbul", "location": {"lat": 41.275276, "lon": 28.751944}, "countryCode": "TR"}, "averageDailyFlights": 0.57, "operators": [{"name": "Turkish Airlines", "iata": "TK", "icao": "THY"}]}, {"destination": {"icao": "FOOL", "iata": "LBV", "name": "Libreville Leon M'ba", "shortName": "Leon M'ba", "municipalityName": "Libreville", "location": {"lat": 0.4586, "lon": 9.41228}, "countryCode": "GA"}, "averageDailyFlights": 0.57, "operators": [{"name": "Groupe Transair", "iata": "R2", "icao": "GTS"}, {"name": "Air Cote D'Ivoire", "iata": "HF", "icao": "VRE"}]}, {"destination": {"icao": "KJFK", "iata": "JFK", "name": "New York John F Kennedy", "shortName": "John F Kennedy", "municipalityName": "New York", "location": {"lat": 40.6398, "lon": -73.7789}, "countryCode": "US"}, "averageDailyFlights": 0.57, "operators": [{"name": "Ethiopian Airlines", "iata": "ET", "icao": "ETH"}]}, {"destination": {"icao": "DNAA", "iata": "ABV", "name": "Abuja Nnamdi Azikiwe", "shortName": "Nnamdi Azikiwe", "municipalityName": "Abuja", "location": {"lat": 9.00679, "lon": 7.263169}, "countryCode": "NG"}, "averageDailyFlights": 0.43, "operators": [{"name": "Air Cote D'Ivoire", "iata": "HF", "icao": "VRE"}]}, {"destination": {"icao": "DAAG", "iata": "ALG", "name": "Algiers Houari Boumediene", "shortName": "Houari Boumediene", "municipalityName": "Algiers", "location": {"lat": 36.691, "lon": 3.215409}, "countryCode": "DZ"}, "averageDailyFlights": 0.43, "operators": [{"name": "Air Algerie", "iata": "AH", "icao": "DAH"}]}, {"destination": {"icao": "DFOO", "iata": "BOY", "name": "Bobo Dioulasso ", "shortName": "Bobo Dioulasso", "municipalityName": "Bobo Dioulasso", "location": {"lat": 11.160099, "lon": -4.330969}, "countryCode": "BF"}, "averageDailyFlights": 0.43, "operators": [{"name": "Air Burkina", "iata": "2J", "icao": "VBW"}]}, {"destination": {"icao": "FCBB", "iata": "BZV", "name": "Brazzaville Maya-Maya", "shortName": "Maya-Maya", "municipalityName": "Brazzaville", "location": {"lat": -4.251699, "lon": 15.253}, "countryCode": "CG"}, "averageDailyFlights": 0.43, "operators": [{"name": "Air Cote D'Ivoire", "iata": "HF", "icao": "VRE"}]}, {"destination": {"icao": "GLRB", "iata": "ROB", "name": "Monrovia Roberts", "shortName": "Roberts", "municipalityName": "Monrovia", "location": {"lat": 6.233789, "lon": -10.362299}, "countryCode": "LR"}, "averageDailyFlights": 0.43, "operators": [{"name": "Air Cote D'Ivoire", "iata": "HF", "icao": "VRE"}]}, {"destination": {"icao": "HKJK", "iata": "NBO", "name": "Nairobi Jomo Kenyatta", "shortName": "Jomo Kenyatta", "municipalityName": "Nairobi", "location": {"lat": -1.319239, "lon": 36.9278}, "countryCode": "KE"}, "averageDailyFlights": 0.43, "operators": [{"name": "Kenya Airways", "iata": "KQ", "icao": "KQA"}]}, {"destination": {"name": "Dubai City"}, "averageDailyFlights": 0.43, "operators": [{"name": "Emirates", "iata": "EK", "icao": "UAE"}]}, {"destination": {"icao": "OLBA", "iata": "BEY", "name": "Beirut Rafic Hariri", "shortName": "Rafic Hariri", "municipalityName": "Beirut", "location": {"lat": 33.8209, "lon": 35.4884}, "countryCode": "LB"}, "averageDailyFlights": 0.29, "operators": [{"name": "Middle East Airlines", "iata": "ME", "icao": "MEA"}]}, {"destination": {"name": "Addis Ababa"}, "averageDailyFlights": 0.29, "operators": [{"name": "Ethiopian Airlines", "iata": "ET", "icao": "ETH"}]}, {"destination": {"icao": "GGOV", "iata": "OXB", "name": "Bissau Osvaldo Vieira", "shortName": "Osvaldo Vieira", "municipalityName": "Bissau", "location": {"lat": 11.8948, "lon": -15.653699}, "countryCode": "GW"}, "averageDailyFlights": 0.14, "operators": [{"name": "Air Cote D'Ivoire", "iata": "HF", "icao": "VRE"}]}, {"destination": {"icao": "EBBR", "iata": "BRU", "name": "Brussels ", "shortName": "Brussels", "municipalityName": "Brussels", "location": {"lat": 50.9014, "lon": 4.484439}, "countryCode": "BE"}, "averageDailyFlights": 0.14, "operators": [{"name": "Brussels Airlines", "iata": "SN", "icao": "BEL"}]}, {"destination": {"icao": "DIOD", "iata": "KEO", "name": "Odienn\u00e9 Odienne", "shortName": "Odienne", "municipalityName": "Odienn\u00e9", "location": {"lat": 9.5, "lon": -7.566999}, "countryCode": "CI"}, "averageDailyFlights": 0.14, "operators": [{"name": "Air Cote D'Ivoire", "iata": "HF", "icao": "VRE"}]}]}