{"routes": [{"destination": {"name": "Hong Kong"}, "averageDailyFlights": 1.29, "operators": [{"name": "Sino-Lac Air", "iata": "HQ"}, {"name": "Ethiopian Airlines", "iata": "ET", "icao": "ETH"}]}, {"destination": {"icao": "ZGGG", "iata": "CAN", "name": "Guangzhou Baiyun", "shortName": "Baiyun", "municipalityName": "Guangzhou", "location": {"lat": 23.3924, "lon": 113.299}, "countryCode": "CN"}, "averageDailyFlights": 0.86, "operators": [{"name": "Ethiopian Airlines", "iata": "ET", "icao": "ETH"}]}, {"destination": {"icao": "ZSPD", "iata": "PVG", "name": "Shanghai Pudong", "shortName": "Pudong", "municipalityName": "Shanghai", "location": {"lat": 31.1434, "lon": 121.805}, "countryCode": "CN"}, "averageDailyFlights": 0.71, "operators": [{"name": "Ethiopian Airlines", "iata": "ET", "icao": "ETH"}]}, {"destination": {"icao": "LEAL", "iata": "ALC", "name": "Alicante ", "shortName": "Alicante", "municipalityName": "Alicante", "location": {"lat": 38.2822, "lon": -0.558156}, "countryCode": "ES"}, "averageDailyFlights": 0.43, "operators": [{"name": "TUI Airlines Belgium", "iata": "TB", "icao": "JAF"}]}, {"destination": {"icao": "LTAU", "iata": "ASR", "name": "Kayseri Erkilet", "shortName": "Erkilet", "municipalityName": "Kayseri", "location": {"lat": 38.7704, "lon": 35.4954}, "countryCode": "TR"}, "averageDailyFlights": 0.43, "operators": [{"name": "TUI Airlines Belgium", "iata": "TB", "icao": "JAF"}]}, {"destination": {"icao": "ZHHH", "iata": "WUH", "name": "Wuhan Tianhe", "shortName": "Tianhe", "municipalityName": "Wuhan", "location": {"lat": 30.7838, "lon": 114.208}, "countryCode": "CN"}, "averageDailyFlights": 0.43, "operators": [{"name": "Ethiopian Airlines", "iata": "ET", "icao": "ETH"}]}, {"destination": {"icao": "ZHCC", "iata": "CGO", "name": "Zhengzhou Xinzheng", "shortName": "Xinzheng", "municipalityName": "Zhengzhou", "location": {"lat": 34.5197, "lon": 113.841}, "countryCode": "CN"}, "averageDailyFlights": 0.43, "operators": [{"name": "Ethiopian Airlines", "iata": "ET", "icao": "ETH"}]}, {"destination": {"icao": "DTTJ", "iata": "DJE", "name": "Houmt El Souk Djerba Zarzis", "shortName": "Djerba Zarzis", "municipalityName": "Houmt El Souk", "location": {"lat": 33.875, "lon": 10.7755}, "countryCode": "TN"}, "averageDailyFlights": 0.29, "operators": [{"name": "TUI Airlines Belgium", "iata": "TB", "icao": "JAF"}]}, {"destination": {"icao": "LEPA", "iata": "PMI", "name": "Palma De Mallorca ", "shortName": "Palma De Mallorca", "municipalityName": "Palma De Mallorca", "location": {"lat": 39.5517, "lon": 2.73881}, "countryCode": "ES"}, "averageDailyFlights": 0.29, "operators": [{"name": "TUI Airlines Belgium", "iata": "TB", "icao": "JAF"}]}, {"destination": {"icao": "UAKK", "iata": "KGF", "localCode": "\u041a\u0413\u0414", "name": "Qaraghandy Sary-Arka", "shortName": "Sary-Arka", "municipalityName": "Qaraghandy", "location": {"lat": 49.6708, "lon": 73.3344}, "countryCode": "KZ"}, "averageDailyFlights": 0.29, "operators": [{"name": "Ethiopian Airlines", "iata": "ET", "icao": "ETH"}]}, {"destination": {"icao": "LGRP", "iata": "RHO", "name": "Rodes Island Diagoras", "shortName": "Diagoras", "municipalityName": "Rodes Island", "location": {"lat": 36.4054, "lon": 28.0862}, "countryCode": "GR"}, "averageDailyFlights": 0.29, "operators": [{"name": "TUI Airlines Belgium", "iata": "TB", "icao": "JAF"}]}, {"destination": {"icao": "GCTS", "iata": "TFS", "name": "Tenerife Island Tenerife South", "shortName": "Tenerife South", "municipalityName": "Tenerife Island", "location": {"lat": 28.0445, "lon": -16.5725}, "countryCode": "ES"}, "averageDailyFlights": 0.29, "operators": [{"name": "TUI Airlines Belgium", "iata": "TB", "icao": "JAF"}]}, {"destination": {"name": "S\u00e3o Paulo"}, "averageDailyFlights": 0.29, "operators": [{"name": "Ethiopian Airlines", "iata": "ET", "icao": "ETH"}]}, {"destination": {"icao": "GMMN", "iata": "CMN", "name": "Casablanca Mohammed V", "shortName": "Mohammed V", "municipalityName": "Casablanca", "location": {"lat": 33.3675, "lon": -7.58997}, "countryCode": "MA"}, "averageDailyFlights": 0.14, "operators": [{"name": "TUI Airlines Belgium", "iata": "TB", "icao": "JAF"}]}, {"destination": {"icao": "GMTT", "iata": "TNG", "name": "Tangier Ibn Batouta", "shortName": "Ibn Batouta", "municipalityName": "Tangier", "location": {"lat": 35.7269, "lon": -5.91689}, "countryCode": "MA"}, "averageDailyFlights": 0.14, "operators": [{"name": "TUI Airlines Belgium", "iata": "TB", "icao": "JAF"}]}, {"destination": {"icao": "LLBG", "iata": "TLV", "name": "Tel Aviv Yafo Ben Gurion", "shortName": "Ben Gurion", "municipalityName": "Tel Aviv Yafo", "location": {"lat": 32.0114, "lon": 34.8867}, "countryCode": "IL"}, "averageDailyFlights": 0.14, "operators": [{"name": "El Al", "iata": "LY", "icao": "ELY"}]}, {"destination": {"name": "Nairobi"}, "averageDailyFlights": 0.14, "operators": [{"name": "AZUR Air", "iata": "ZF", "icao": "KTK"}]}, {"destination": {"name": "Yerevan"}, "averageDailyFlights": 0.14, "operators": [{"name": "Jeju Air", "iata": "7C", "icao": "JJA"}]}]}