{"routes": [{"destination": {"icao": "EDDF", "iata": "FRA", "name": "Frankfurt-am-Main ", "shortName": "Frankfurt-am-Main", "municipalityName": "Frankfurt-am-Main", "location": {"lat": 50.0264, "lon": 8.543129}, "countryCode": "DE"}, "averageDailyFlights": 5.0, "operators": [{"name": "Lufthansa", "iata": "LH", "icao": "DLH"}]}, {"destination": {"icao": "LTAI", "iata": "AYT", "name": "Antalya ", "shortName": "Antalya", "municipalityName": "Antalya", "location": {"lat": 36.8987, "lon": 30.8005}, "countryCode": "TR"}, "averageDailyFlights": 4.58, "operators": [{"name": "Sun Express", "iata": "XQ", "icao": "SXS"}, {"name": "Freebird Airlines", "iata": "FH", "icao": "FHY"}, {"name": "Pegasus", "iata": "PC", "icao": "PGT"}, {"name": "Air Stork", "iata": "2S", "icao": "MSB"}, {"name": "Condor", "iata": "DE", "icao": "CFG"}, {"name": "Corendon Air", "iata": "XC", "icao": "CAI"}]}, {"destination": {"icao": "LEPA", "iata": "PMI", "name": "Palma De Mallorca ", "shortName": "Palma De Mallorca", "municipalityName": "Palma De Mallorca", "location": {"lat": 39.5517, "lon": 2.73881}, "countryCode": "ES"}, "averageDailyFlights": 3.29, "operators": [{"name": "Condor", "iata": "DE", "icao": "CFG"}, {"name": "Eurowings", "iata": "EW", "icao": "EWG"}]}, {"destination": {"icao": "LOWW", "iata": "VIE", "name": "Vienna Schwechat", "shortName": "Schwechat", "municipalityName": "Vienna", "location": {"lat": 48.1103, "lon": 16.5697}, "countryCode": "AT"}, "averageDailyFlights": 1.71, "operators": [{"name": "Austrian", "iata": "OS", "icao": "AUA"}]}, {"destination": {"icao": "HEGN", "iata": "HRG", "name": "Hurghada ", "shortName": "Hurghada", "municipalityName": "Hurghada", "location": {"lat": 27.1783, "lon": 33.7994}, "countryCode": "EG"}, "averageDailyFlights": 1.43, "operators": [{"name": "Air Cairo", "iata": "SM", "icao": "MSC"}, {"name": "Condor", "iata": "DE", "icao": "CFG"}]}, {"destination": {"icao": "LGIR", "iata": "HER", "name": "Heraklion Nikos Kazantzakis", "shortName": "Nikos Kazantzakis", "municipalityName": "Heraklion", "location": {"lat": 35.3397, "lon": 25.1803}, "countryCode": "GR"}, "averageDailyFlights": 1.14, "operators": [{"name": "Norwegian Air UK", "iata": "DI", "icao": "NRS"}, {"name": "Condor", "iata": "DE", "icao": "CFG"}]}, {"destination": {"name": "Munich"}, "averageDailyFlights": 0.86, "operators": [{"name": "Lufthansa", "iata": "LH", "icao": "DLH"}]}, {"destination": {"icao": "LGRP", "iata": "RHO", "name": "Rodes Island Diagoras", "shortName": "Diagoras", "municipalityName": "Rodes Island", "location": {"lat": 36.4054, "lon": 28.0862}, "countryCode": "GR"}, "averageDailyFlights": 0.71, "operators": [{"name": "Condor", "iata": "DE", "icao": "CFG"}]}, {"destination": {"icao": "LTFM", "iata": "IST", "name": "Istanbul ", "shortName": "Istanbul", "municipalityName": "Istanbul", "location": {"lat": 41.275276, "lon": 28.751944}, "countryCode": "TR"}, "averageDailyFlights": 0.57, "operators": [{"name": "Turkish Airlines", "iata": "TK", "icao": "THY"}]}, {"destination": {"icao": "GCTS", "iata": "TFS", "name": "Tenerife Island Tenerife South", "shortName": "Tenerife South", "municipalityName": "Tenerife Island", "location": {"lat": 28.0445, "lon": -16.5725}, "countryCode": "ES"}, "averageDailyFlights": 0.57, "operators": [{"name": "Condor", "iata": "DE", "icao": "CFG"}]}, {"destination": {"icao": "LGKR", "iata": "CFU", "name": "Kerkyra Island Ioannis Kapodistrias", "shortName": "Ioannis Kapodistrias", "municipalityName": "Kerkyra Island", "location": {"lat": 39.6019, "lon": 19.9117}, "countryCode": "GR"}, "averageDailyFlights": 0.43, "operators": [{"name": "Condor", "iata": "DE", "icao": "CFG"}]}, {"destination": {"icao": "LGKO", "iata": "KGS", "name": "Kos Island Kos", "shortName": "Kos", "municipalityName": "Kos Island", "location": {"lat": 36.7933, "lon": 27.0917}, "countryCode": "GR"}, "averageDailyFlights": 0.43, "operators": [{"name": "Condor", "iata": "DE", "icao": "CFG"}]}, {"destination": {"icao": "EGSS", "iata": "STN", "name": "London Stansted", "shortName": "Stansted", "municipalityName": "London", "location": {"lat": 51.885, "lon": 0.234999}, "countryCode": "GB"}, "averageDailyFlights": 0.43, "operators": [{"name": "Ryanair", "iata": "FR", "icao": "RYR"}]}, {"destination": {"icao": "EIDW", "iata": "DUB", "name": "Dublin ", "shortName": "Dublin", "municipalityName": "Dublin", "location": {"lat": 53.4213, "lon": -6.27007}, "countryCode": "IE"}, "averageDailyFlights": 0.29, "operators": [{"name": "Ryanair", "iata": "FR", "icao": "RYR"}]}, {"destination": {"icao": "GCFV", "iata": "FUE", "name": "Fuerteventura Island Fuerteventura", "shortName": "Fuerteventura", "municipalityName": "Fuerteventura Island", "location": {"lat": 28.4527, "lon": -13.8638}, "countryCode": "ES"}, "averageDailyFlights": 0.29, "operators": [{"name": "Condor", "iata": "DE", "icao": "CFG"}]}, {"destination": {"icao": "GCLP", "iata": "LPA", "name": "Gran Canaria Island Gran Canaria", "shortName": "Gran Canaria", "municipalityName": "Gran Canaria Island", "location": {"lat": 27.9319, "lon": -15.386599}, "countryCode": "ES"}, "averageDailyFlights": 0.29, "operators": [{"name": "Condor", "iata": "DE", "icao": "CFG"}]}, {"destination": {"icao": "DTTJ", "iata": "DJE", "name": "Houmt El Souk Djerba Zarzis", "shortName": "Djerba Zarzis", "municipalityName": "Houmt El Souk", "location": {"lat": 33.875, "lon": 10.7755}, "countryCode": "TN"}, "averageDailyFlights": 0.29, "operators": [{"name": "Nouvelair Tunisie", "iata": "BJ", "icao": "LBT"}]}, {"destination": {"icao": "HEMA", "iata": "RMF", "name": "Marsa Alam ", "shortName": "Marsa Alam", "municipalityName": "Marsa Alam", "location": {"lat": 25.5571, "lon": 34.5837}, "countryCode": "EG"}, "averageDailyFlights": 0.29, "operators": [{"name": "Air Cairo", "iata": "SM", "icao": "MSC"}]}, {"destination": {"icao": "DTMB", "iata": "MIR", "name": "Monastir Habib Bourguiba", "shortName": "Habib Bourguiba", "municipalityName": "Monastir", "location": {"lat": 35.7581, "lon": 10.754699}, "countryCode": "TN"}, "averageDailyFlights": 0.29, "operators": [{"name": "Nouvelair Tunisie", "iata": "BJ", "icao": "LBT"}]}, {"destination": {"icao": "LGSA", "iata": "CHQ", "name": "Souda Chania", "shortName": "Chania", "municipalityName": "Souda", "location": {"lat": 35.5317, "lon": 24.1497}, "countryCode": "GR"}, "averageDailyFlights": 0.29, "operators": [{"name": "Condor", "iata": "DE", "icao": "CFG"}]}, {"destination": {"icao": "LPFR", "iata": "FAO", "name": "Faro ", "shortName": "Faro", "municipalityName": "Faro", "location": {"lat": 37.0144, "lon": -7.965909}, "countryCode": "PT"}, "averageDailyFlights": 0.14, "operators": [{"name": "Condor", "iata": "DE", "icao": "CFG"}]}, {"destination": {"icao": "LPMA", "iata": "FNC", "name": "Funchal Madeira", "shortName": "Madeira", "municipalityName": "Funchal", "location": {"lat": 32.6979, "lon": -16.7745}, "countryCode": "PT"}, "averageDailyFlights": 0.14, "operators": [{"name": "Condor", "iata": "DE", "icao": "CFG"}]}]}