{"routes": [{"destination": {"icao": "EGPD", "iata": "ABZ", "name": "Aberdeen Dyce", "shortName": "Dyce", "municipalityName": "Aberdeen", "location": {"lat": 57.2019, "lon": -2.197779}, "countryCode": "GB"}, "averageDailyFlights": 1.14, "operators": [{"name": "Eastern Airways", "iata": "T3", "icao": "EZE"}]}, {"destination": {"name": "Amsterdam"}, "averageDailyFlights": 1.14, "operators": [{"name": "KLM", "iata": "KL", "icao": "KLM"}]}, {"destination": {"icao": "EGHQ", "iata": "NQY", "name": "Newquay Cornwall", "shortName": "Cornwall", "municipalityName": "Newquay", "location": {"lat": 50.4406, "lon": -4.995409}, "countryCode": "GB"}, "averageDailyFlights": 0.71, "operators": [{"name": "Eastern Airways", "iata": "T3", "icao": "EZE"}]}, {"destination": {"icao": "EKEB", "iata": "EBJ", "name": "Esbjerg ", "shortName": "Esbjerg", "municipalityName": "Esbjerg", "location": {"lat": 55.5259, "lon": 8.5534}, "countryCode": "DK"}, "averageDailyFlights": 0.57, "operators": [{"name": "Eastern Airways", "iata": "T3", "icao": "EZE"}]}, {"destination": {"icao": "LTFM", "iata": "IST", "name": "Istanbul ", "shortName": "Istanbul", "municipalityName": "Istanbul", "location": {"lat": 41.275276, "lon": 28.751944}, "countryCode": "TR"}, "averageDailyFlights": 0.14, "operators": [{"name": "Corendon Air", "iata": "XC", "icao": "CAI"}]}, {"destination": {"icao": "LFMP", "iata": "PGF", "name": "Perpignan/Rivesaltes Perpignan-Rivesaltes (Llaban\u00e8re)", "shortName": "Perpignan-Rivesaltes (Llaban\u00e8re)", "municipalityName": "Perpignan/Rivesaltes", "location": {"lat": 42.7404, "lon": 2.87067}, "countryCode": "FR"}, "averageDailyFlights": 0.14, "operators": [{"name": "Iberia", "iata": "IB", "icao": "IBE"}]}, {"destination": {"icao": "EGJJ", "iata": "JER", "name": "St Helier Jersey", "shortName": "Jersey", "municipalityName": "St Helier", "location": {"lat": 49.2079, "lon": -2.195509}, "countryCode": "JE"}, "averageDailyFlights": 0.14, "operators": [{"name": "Eastern Airways", "iata": "T3", "icao": "EZE"}]}]}