{"routes": [{"destination": {"icao": "EGLL", "iata": "LHR", "name": "London Heathrow", "shortName": "Heathrow", "municipalityName": "London", "location": {"lat": 51.4706, "lon": -0.461941}, "countryCode": "GB"}, "averageDailyFlights": 5.71, "operators": [{"name": "British Airways", "iata": "BA", "icao": "BAW"}]}, {"destination": {"icao": "EHAM", "iata": "AMS", "name": "Amsterdam Schiphol", "shortName": "Schiphol", "municipalityName": "Amsterdam", "location": {"lat": 52.3086, "lon": 4.763889}, "countryCode": "NL"}, "averageDailyFlights": 4.43, "operators": [{"name": "KLM", "iata": "KL", "icao": "KLM"}]}, {"destination": {"icao": "EGPB", "iata": "LSI", "name": "Lerwick Sumburgh", "shortName": "Sumburgh", "municipalityName": "Lerwick", "location": {"lat": 59.8789, "lon": -1.29556}, "countryCode": "GB"}, "averageDailyFlights": 3.86, "operators": [{"name": "Loganair", "iata": "LM", "icao": "LOG"}, {"name": "Eastern Airways", "iata": "T3", "icao": "EZE"}]}, {"destination": {"icao": "EGCC", "iata": "MAN", "name": "Manchester ", "shortName": "Manchester", "municipalityName": "Manchester", "location": {"lat": 53.3537, "lon": -2.27495}, "countryCode": "GB"}, "averageDailyFlights": 3.57, "operators": [{"name": "Loganair", "iata": "LM", "icao": "LOG"}]}, {"destination": {"icao": "EGPA", "iata": "KOI", "name": "Orkney Kirkwall", "shortName": "Kirkwall", "municipalityName": "Orkney", "location": {"lat": 58.9578, "lon": -2.904999}, "countryCode": "GB"}, "averageDailyFlights": 3.0, "operators": [{"name": "Loganair", "iata": "LM", "icao": "LOG"}]}, {"destination": {"icao": "EGBB", "iata": "BHX", "name": "Birmingham ", "shortName": "Birmingham", "municipalityName": "Birmingham", "location": {"lat": 52.4539, "lon": -1.748029}, "countryCode": "GB"}, "averageDailyFlights": 2.71, "operators": [{"name": "Loganair", "iata": "LM", "icao": "LOG"}]}, {"destination": {"icao": "ENZV", "iata": "SVG", "name": "Stavanger Sola", "shortName": "Sola", "municipalityName": "Stavanger", "location": {"lat": 58.8767, "lon": 5.63778}, "countryCode": "NO"}, "averageDailyFlights": 2.71, "operators": [{"name": "SAS", "iata": "SK", "icao": "SAS"}, {"name": "Wideroe", "iata": "WF", "icao": "WIF"}]}, {"destination": {"icao": "EGKK", "iata": "LGW", "name": "London Gatwick", "shortName": "Gatwick", "municipalityName": "London", "location": {"lat": 51.1481, "lon": -0.190277}, "countryCode": "GB"}, "averageDailyFlights": 2.43, "operators": [{"name": "easyJet", "iata": "U2", "icao": "EZY"}]}, {"destination": {"icao": "ENBR", "iata": "BGO", "name": "Bergen Flesland", "shortName": "Flesland", "municipalityName": "Bergen", "location": {"lat": 60.2934, "lon": 5.21814}, "countryCode": "NO"}, "averageDailyFlights": 2.14, "operators": [{"name": "Wideroe", "iata": "WF", "icao": "WIF"}]}, {"destination": {"icao": "EIDW", "iata": "DUB", "name": "Dublin ", "shortName": "Dublin", "municipalityName": "Dublin", "location": {"lat": 53.4213, "lon": -6.27007}, "countryCode": "IE"}, "averageDailyFlights": 2.0, "operators": [{"name": "Loganair", "iata": "LM", "icao": "LOG"}, {"name": "Aer Lingus", "iata": "EI", "icao": "EIN"}]}, {"destination": {"icao": "EGPC", "iata": "WIC", "name": "Wick ", "shortName": "Wick", "municipalityName": "Wick", "location": {"lat": 58.4589, "lon": -3.09306}, "countryCode": "GB"}, "averageDailyFlights": 1.71, "operators": [{"name": "Eastern Airways", "iata": "T3", "icao": "EZE"}]}, {"destination": {"icao": "EGSH", "iata": "NWI", "name": "Norwich ", "shortName": "Norwich", "municipalityName": "Norwich", "location": {"lat": 52.6758, "lon": 1.28278}, "countryCode": "GB"}, "averageDailyFlights": 1.57, "operators": [{"name": "Loganair", "iata": "LM", "icao": "LOG"}]}, {"destination": {"icao": "EGNT", "iata": "NCL", "name": "Newcastle upon Tyne Newcastle", "shortName": "Newcastle", "municipalityName": "Newcastle upon Tyne", "location": {"lat": 55.0375, "lon": -1.691669}, "countryCode": "GB"}, "averageDailyFlights": 1.29, "operators": [{"name": "Loganair", "iata": "LM", "icao": "LOG"}]}, {"destination": {"icao": "EGAC", "iata": "BHD", "name": "Belfast George Best  City", "shortName": "George Best  City", "municipalityName": "Belfast", "location": {"lat": 54.6181, "lon": -5.872499}, "countryCode": "GB"}, "averageDailyFlights": 1.14, "operators": [{"name": "Loganair", "iata": "LM", "icao": "LOG"}]}, {"destination": {"icao": "EGNJ", "iata": "HUY", "name": "Grimsby Humberside", "shortName": "Humberside", "municipalityName": "Grimsby", "location": {"lat": 53.5744, "lon": -0.350832}, "countryCode": "GB"}, "averageDailyFlights": 1.14, "operators": [{"name": "Eastern Airways", "iata": "T3", "icao": "EZE"}]}, {"destination": {"icao": "EGNV", "iata": "MME", "name": "Durham Tees Valley", "shortName": "Tees Valley", "municipalityName": "Durham", "location": {"lat": 54.5092, "lon": -1.429409}, "countryCode": "GB"}, "averageDailyFlights": 1.0, "operators": [{"name": "Loganair", "iata": "LM", "icao": "LOG"}]}, {"destination": {"icao": "ENGM", "iata": "OSL", "name": "Oslo Gardermoen", "shortName": "Gardermoen", "municipalityName": "Oslo", "location": {"lat": 60.1939, "lon": 11.100399}, "countryCode": "NO"}, "averageDailyFlights": 1.0, "operators": [{"name": "Loganair", "iata": "LM", "icao": "LOG"}]}, {"destination": {"icao": "EGGD", "iata": "BRS", "name": "Bristol ", "shortName": "Bristol", "municipalityName": "Bristol", "location": {"lat": 51.3827, "lon": -2.719089}, "countryCode": "GB"}, "averageDailyFlights": 0.86, "operators": [{"name": "Loganair", "iata": "LM", "icao": "LOG"}]}, {"destination": {"icao": "EKEB", "iata": "EBJ", "name": "Esbjerg ", "shortName": "Esbjerg", "municipalityName": "Esbjerg", "location": {"lat": 55.5259, "lon": 8.5534}, "countryCode": "DK"}, "averageDailyFlights": 0.86, "operators": [{"name": "Loganair", "iata": "LM", "icao": "LOG"}]}, {"destination": {"icao": "EPGD", "iata": "GDN", "name": "Gda\u0144sk Lech Wa\u0142\u0119sa", "shortName": "Lech Wa\u0142\u0119sa", "municipalityName": "Gda\u0144sk", "location": {"lat": 54.3776, "lon": 18.4662}, "countryCode": "PL"}, "averageDailyFlights": 0.57, "operators": [{"name": "Wizz Air", "iata": "W6", "icao": "WZZ"}]}, {"destination": {"icao": "LEPA", "iata": "PMI", "name": "Palma De Mallorca ", "shortName": "Palma De Mallorca", "municipalityName": "Palma De Mallorca", "location": {"lat": 39.5517, "lon": 2.73881}, "countryCode": "ES"}, "averageDailyFlights": 0.43, "operators": [{"name": "TUI Airways", "iata": "BY", "icao": "TOM"}]}, {"destination": {"icao": "EGJB", "iata": "GCI", "name": "St Peter Port Guernsey", "shortName": "Guernsey", "municipalityName": "St Peter Port", "location": {"lat": 49.435, "lon": -2.601969}, "countryCode": "GG"}, "averageDailyFlights": 0.43, "operators": [{"name": "Aurigny Air Services", "iata": "GR", "icao": "AUR"}, {"name": "Loganair", "iata": "LM", "icao": "LOG"}]}, {"destination": {"icao": "LEAL", "iata": "ALC", "name": "Alicante ", "shortName": "Alicante", "municipalityName": "Alicante", "location": {"lat": 38.2822, "lon": -0.558156}, "countryCode": "ES"}, "averageDailyFlights": 0.29, "operators": [{"name": "Ryanair", "iata": "FR", "icao": "RYR"}]}, {"destination": {"icao": "LBBG", "iata": "BOJ", "name": "Burgas ", "shortName": "Burgas", "municipalityName": "Burgas", "location": {"lat": 42.5696, "lon": 27.5152}, "countryCode": "BG"}, "averageDailyFlights": 0.29, "operators": [{"name": "BH Air", "iata": "8H", "icao": "BGH"}]}, {"destination": {"icao": "EKCH", "iata": "CPH", "name": "Copenhagen Kastrup", "shortName": "Kastrup", "municipalityName": "Copenhagen", "location": {"lat": 55.6179, "lon": 12.656}, "countryCode": "DK"}, "averageDailyFlights": 0.29, "operators": [{"name": "SAS", "iata": "SK", "icao": "SAS"}]}, {"destination": {"icao": "LTBS", "iata": "DLM", "name": "Dalaman ", "shortName": "Dalaman", "municipalityName": "Dalaman", "location": {"lat": 36.7131, "lon": 28.7925}, "countryCode": "TR"}, "averageDailyFlights": 0.29, "operators": [{"name": "TUI Airways", "iata": "BY", "icao": "TOM"}]}, {"destination": {"icao": "LPFR", "iata": "FAO", "name": "Faro ", "shortName": "Faro", "municipalityName": "Faro", "location": {"lat": 37.0144, "lon": -7.965909}, "countryCode": "PT"}, "averageDailyFlights": 0.29, "operators": [{"name": "Ryanair", "iata": "FR", "icao": "RYR"}]}, {"destination": {"icao": "LGKR", "iata": "CFU", "name": "Kerkyra Island Ioannis Kapodistrias", "shortName": "Ioannis Kapodistrias", "municipalityName": "Kerkyra Island", "location": {"lat": 39.6019, "lon": 19.9117}, "countryCode": "GR"}, "averageDailyFlights": 0.29, "operators": [{"name": "TUI Airways", "iata": "BY", "icao": "TOM"}]}, {"destination": {"icao": "LEMG", "iata": "AGP", "name": "M\u00e1laga ", "shortName": "M\u00e1laga", "municipalityName": "M\u00e1laga", "location": {"lat": 36.6749, "lon": -4.49911}, "countryCode": "ES"}, "averageDailyFlights": 0.29, "operators": [{"name": "Ryanair", "iata": "FR", "icao": "RYR"}]}, {"destination": {"icao": "EVRA", "iata": "RIX", "localCode": "\u0420\u0418\u0425", "name": "Riga ", "shortName": "Riga", "municipalityName": "Riga", "location": {"lat": 56.9236, "lon": 23.9711}, "countryCode": "LV"}, "averageDailyFlights": 0.29, "operators": [{"name": "airBaltic", "iata": "BT", "icao": "BTI"}]}, {"destination": {"icao": "EGHI", "iata": "SOU", "name": "Southampton ", "shortName": "Southampton", "municipalityName": "Southampton", "location": {"lat": 50.9503, "lon": -1.356799}, "countryCode": "GB"}, "averageDailyFlights": 0.29, "operators": [{"name": "Loganair", "iata": "LM", "icao": "LOG"}]}, {"destination": {"icao": "EGAE", "iata": "LDY", "name": "Derry City City of Derry", "shortName": "City of Derry", "municipalityName": "Derry City", "location": {"lat": 55.0428, "lon": -7.161109}, "countryCode": "GB"}, "averageDailyFlights": 0.14, "operators": [{"name": "Eastern Airways", "iata": "T3", "icao": "EZE"}]}, {"destination": {"icao": "ENHD", "iata": "HAU", "name": "Karm\u00f8y Haugesund", "shortName": "Haugesund", "municipalityName": "Karm\u00f8y", "location": {"lat": 59.3453, "lon": 5.20836}, "countryCode": "NO"}, "averageDailyFlights": 0.14, "operators": [{"name": "Eastern Airways", "iata": "T3", "icao": "EZE"}]}, {"destination": {"icao": "LERS", "iata": "REU", "name": "Reus Air Base", "shortName": "Air Base", "municipalityName": "Reus", "location": {"lat": 41.1474, "lon": 1.16717}, "countryCode": "ES"}, "averageDailyFlights": 0.14, "operators": [{"name": "TUI Airways", "iata": "BY", "icao": "TOM"}]}, {"destination": {"icao": "LGRP", "iata": "RHO", "name": "Rodes Island Diagoras", "shortName": "Diagoras", "municipalityName": "Rodes Island", "location": {"lat": 36.4054, "lon": 28.0862}, "countryCode": "GR"}, "averageDailyFlights": 0.14, "operators": [{"name": "TUI Airways", "iata": "BY", "icao": "TOM"}]}, {"destination": {"icao": "GCTS", "iata": "TFS", "name": "Tenerife Island Tenerife South", "shortName": "Tenerife South", "municipalityName": "Tenerife Island", "location": {"lat": 28.0445, "lon": -16.5725}, "countryCode": "ES"}, "averageDailyFlights": 0.14, "operators": [{"name": "TUI Airways", "iata": "BY", "icao": "TOM"}]}]}