{"routes": [{"destination": {"icao": "ENGM", "iata": "OSL", "name": "Oslo Gardermoen", "shortName": "Gardermoen", "municipalityName": "Oslo", "location": {"lat": 60.1939, "lon": 11.100399}, "countryCode": "NO"}, "averageDailyFlights": 6.71, "operators": [{"name": "Norwegian Air Shuttle", "iata": "DY", "icao": "NOZ"}, {"name": "SAS", "iata": "SK", "icao": "SAS"}]}, {"destination": {"icao": "ENBR", "iata": "BGO", "name": "Bergen Flesland", "shortName": "Flesland", "municipalityName": "Bergen", "location": {"lat": 60.2934, "lon": 5.21814}, "countryCode": "NO"}, "averageDailyFlights": 6.43, "operators": [{"name": "Wideroe", "iata": "WF", "icao": "WIF"}, {"name": "SAS", "iata": "SK", "icao": "SAS"}]}, {"destination": {"icao": "EHAM", "iata": "AMS", "name": "Amsterdam Schiphol", "shortName": "Schiphol", "municipalityName": "Amsterdam", "location": {"lat": 52.3086, "lon": 4.763889}, "countryCode": "NL"}, "averageDailyFlights": 2.0, "operators": [{"name": "KLM", "iata": "KL", "icao": "KLM"}]}, {"destination": {"icao": "EKCH", "iata": "CPH", "name": "Copenhagen Kastrup", "shortName": "Kastrup", "municipalityName": "Copenhagen", "location": {"lat": 55.6179, "lon": 12.656}, "countryCode": "DK"}, "averageDailyFlights": 1.43, "operators": [{"name": "SAS", "iata": "SK", "icao": "SAS"}]}, {"destination": {"icao": "EPGD", "iata": "GDN", "name": "Gda\u0144sk Lech Wa\u0142\u0119sa", "shortName": "Lech Wa\u0142\u0119sa", "municipalityName": "Gda\u0144sk", "location": {"lat": 54.3776, "lon": 18.4662}, "countryCode": "PL"}, "averageDailyFlights": 0.86, "operators": [{"name": "Wizz Air", "iata": "W6", "icao": "WZZ"}]}, {"destination": {"icao": "EYKA", "iata": "KUN", "localCode": "KUN", "name": "Kaunas ", "shortName": "Kaunas", "municipalityName": "Kaunas", "location": {"lat": 54.9639, "lon": 24.0848}, "countryCode": "LT"}, "averageDailyFlights": 0.43, "operators": [{"name": "Wizz Air", "iata": "W6", "icao": "WZZ"}]}, {"destination": {"icao": "LGRP", "iata": "RHO", "name": "Rodes Island Diagoras", "shortName": "Diagoras", "municipalityName": "Rodes Island", "location": {"lat": 36.4054, "lon": 28.0862}, "countryCode": "GR"}, "averageDailyFlights": 0.43, "operators": [{"name": "Aegean Airlines", "iata": "A3", "icao": "AEE"}, {"name": "Novair", "iata": "N9", "icao": "NVR"}]}, {"destination": {"icao": "LEAL", "iata": "ALC", "name": "Alicante ", "shortName": "Alicante", "municipalityName": "Alicante", "location": {"lat": 38.2822, "lon": -0.558156}, "countryCode": "ES"}, "averageDailyFlights": 0.29, "operators": [{"name": "Norwegian Air Shuttle", "iata": "DY", "icao": "NOZ"}]}, {"destination": {"icao": "LTAI", "iata": "AYT", "name": "Antalya ", "shortName": "Antalya", "municipalityName": "Antalya", "location": {"lat": 36.8987, "lon": 30.8005}, "countryCode": "TR"}, "averageDailyFlights": 0.14, "operators": [{"name": "Braathens International"}]}, {"destination": {"icao": "KBGR", "iata": "BGR", "name": "Bangor ", "shortName": "Bangor", "municipalityName": "Bangor", "location": {"lat": 44.8074, "lon": -68.8281}, "countryCode": "US"}, "averageDailyFlights": 0.14, "operators": [{"name": "A2R"}]}, {"destination": {"icao": "EGLF", "iata": "FAB", "name": "Farnborough ", "shortName": "Farnborough", "municipalityName": "Farnborough", "location": {"lat": 51.2758, "lon": -0.776332}, "countryCode": "GB"}, "averageDailyFlights": 0.14, "operators": [{"name": "AOJ"}]}, {"destination": {"icao": "YMHU", "iata": "MCV", "name": "McArthur River Mine ", "shortName": "McArthur River Mine", "municipalityName": "McArthur River Mine", "location": {"lat": -16.4425, "lon": 136.084}, "countryCode": "AU"}, "averageDailyFlights": 0.14, "operators": [{"name": "A2R"}]}, {"destination": {"icao": "LGSA", "iata": "CHQ", "name": "Souda Chania", "shortName": "Chania", "municipalityName": "Souda", "location": {"lat": 35.5317, "lon": 24.1497}, "countryCode": "GR"}, "averageDailyFlights": 0.14, "operators": [{"name": "SAS", "iata": "SK", "icao": "SAS"}]}, {"destination": {"icao": "ESSB", "iata": "BMA", "name": "Stockholm -Bromma", "shortName": "-Bromma", "municipalityName": "Stockholm", "location": {"lat": 59.3544, "lon": 17.941698}, "countryCode": "SE"}, "averageDailyFlights": 0.14, "operators": [{"name": "Netjets"}]}, {"destination": {"icao": "KFOK", "iata": "FOK", "name": "Westhampton Beach Francis S Gabreski", "shortName": "Francis S Gabreski", "municipalityName": "Westhampton Beach", "location": {"lat": 40.8437, "lon": -72.6318}, "countryCode": "US"}, "averageDailyFlights": 0.14, "operators": [{"name": "A2R"}]}]}