{"routes": [{"destination": {"icao": "ENGM", "iata": "OSL", "name": "Oslo Gardermoen", "shortName": "Gardermoen", "municipalityName": "Oslo", "location": {"lat": 60.1939, "lon": 11.100399}, "countryCode": "NO"}, "averageDailyFlights": 10.29, "operators": [{"name": "Norwegian Air Shuttle", "iata": "DY", "icao": "NOZ"}, {"name": "SAS", "iata": "SK", "icao": "SAS"}]}, {"destination": {"icao": "ENLK", "iata": "LKN", "name": "Leknes ", "shortName": "Leknes", "municipalityName": "Leknes", "location": {"lat": 68.1525, "lon": 13.609399}, "countryCode": "NO"}, "averageDailyFlights": 6.0, "operators": [{"name": "Wideroe", "iata": "WF", "icao": "WIF"}]}, {"destination": {"icao": "ENTC", "iata": "TOS", "name": "Troms\u00f8 ", "shortName": "Troms\u00f8", "municipalityName": "Troms\u00f8", "location": {"lat": 69.6833, "lon": 18.9189}, "countryCode": "NO"}, "averageDailyFlights": 5.43, "operators": [{"name": "SAS", "iata": "SK", "icao": "SAS"}, {"name": "Wideroe", "iata": "WF", "icao": "WIF"}]}, {"destination": {"icao": "ENVA", "iata": "TRD", "name": "Trondheim V\u00e6rnes", "shortName": "V\u00e6rnes", "municipalityName": "Trondheim", "location": {"lat": 63.4578, "lon": 10.923999}, "countryCode": "NO"}, "averageDailyFlights": 5.43, "operators": [{"name": "SAS", "iata": "SK", "icao": "SAS"}, {"name": "Wideroe", "iata": "WF", "icao": "WIF"}, {"name": "LTR"}]}, {"destination": {"icao": "ENSK", "iata": "SKN", "name": "Hadsel Stokmarknes Skagen", "shortName": "Stokmarknes Skagen", "municipalityName": "Hadsel", "location": {"lat": 68.57883, "lon": 15.033416}, "countryCode": "NO"}, "averageDailyFlights": 5.0, "operators": [{"name": "Wideroe", "iata": "WF", "icao": "WIF"}]}, {"destination": {"icao": "ENSH", "iata": "SVJ", "name": "Svolv\u00e6r Helle", "shortName": "Helle", "municipalityName": "Svolv\u00e6r", "location": {"lat": 68.2433, "lon": 14.669199}, "countryCode": "NO"}, "averageDailyFlights": 5.0, "operators": [{"name": "Wideroe", "iata": "WF", "icao": "WIF"}]}, {"destination": {"icao": "ENEV", "iata": "EVE", "name": "Evenes ", "shortName": "Evenes", "municipalityName": "Evenes", "location": {"lat": 68.4913, "lon": 16.6781}, "countryCode": "NO"}, "averageDailyFlights": 2.86, "operators": [{"name": "Wideroe", "iata": "WF", "icao": "WIF"}]}, {"destination": {"icao": "ENRA", "iata": "MQN", "name": "Mo i Rana R\u00f8ssvoll", "shortName": "R\u00f8ssvoll", "municipalityName": "Mo i Rana", "location": {"lat": 66.3639, "lon": 14.3014}, "countryCode": "NO"}, "averageDailyFlights": 2.86, "operators": [{"name": "Wideroe", "iata": "WF", "icao": "WIF"}]}, {"destination": {"icao": "ENBR", "iata": "BGO", "name": "Bergen Flesland", "shortName": "Flesland", "municipalityName": "Bergen", "location": {"lat": 60.2934, "lon": 5.21814}, "countryCode": "NO"}, "averageDailyFlights": 2.43, "operators": [{"name": "Wideroe", "iata": "WF", "icao": "WIF"}]}, {"destination": {"icao": "ENBN", "iata": "BNN", "name": "Br\u00f8nn\u00f8y sund", "shortName": "sund", "municipalityName": "Br\u00f8nn\u00f8y", "location": {"lat": 65.4611, "lon": 12.217499}, "countryCode": "NO"}, "averageDailyFlights": 2.14, "operators": [{"name": "Wideroe", "iata": "WF", "icao": "WIF"}]}, {"destination": {"icao": "ENST", "iata": "SSJ", "name": "Alstahaug Stokka", "shortName": "Stokka", "municipalityName": "Alstahaug", "location": {"lat": 65.9568, "lon": 12.468899}, "countryCode": "NO"}, "averageDailyFlights": 1.86, "operators": [{"name": "Wideroe", "iata": "WF", "icao": "WIF"}]}, {"destination": {"icao": "EFHK", "iata": "HEL", "name": "Helsinki Vantaa", "shortName": "Vantaa", "municipalityName": "Helsinki", "location": {"lat": 60.3172, "lon": 24.9633}, "countryCode": "FI"}, "averageDailyFlights": 0.43, "operators": [{"name": "Finnair", "iata": "AY", "icao": "FIN"}]}, {"destination": {"icao": "LGSA", "iata": "CHQ", "name": "Souda Chania", "shortName": "Chania", "municipalityName": "Souda", "location": {"lat": 35.5317, "lon": 24.1497}, "countryCode": "GR"}, "averageDailyFlights": 0.29, "operators": [{"name": "SAS", "iata": "SK", "icao": "SAS"}, {"name": "Aegean Airlines", "iata": "A3", "icao": "AEE"}]}, {"destination": {"icao": "ENAN", "iata": "ANX", "name": "Andenes And\u00f8ya", "shortName": "And\u00f8ya", "municipalityName": "Andenes", "location": {"lat": 69.2925, "lon": 16.1442}, "countryCode": "NO"}, "averageDailyFlights": 0.14, "operators": [{"name": "Wideroe", "iata": "WF", "icao": "WIF"}]}, {"destination": {"icao": "ENML", "iata": "MOL", "name": "\u00c5r\u00f8 Molde", "shortName": "Molde", "municipalityName": "\u00c5r\u00f8", "location": {"lat": 62.7447, "lon": 7.262499}, "countryCode": "NO"}, "averageDailyFlights": 0.14, "operators": [{"name": "Wideroe", "iata": "WF", "icao": "WIF"}]}]}