{"routes": [{"destination": {"icao": "OEJN", "iata": "JED", "name": "Jeddah King Abdulaziz", "shortName": "King Abdulaziz", "municipalityName": "Jeddah", "location": {"lat": 21.6796, "lon": 39.1565}, "countryCode": "SA"}, "averageDailyFlights": 23.87, "operators": [{"name": "Saudi Arabian Airlines", "iata": "SV", "icao": "SVA"}, {"name": "Air Cairo", "iata": "SM", "icao": "MSC"}, {"name": "flynas", "iata": "XY", "icao": "KNE"}, {"name": "Air Arabia Egypt", "iata": "E5", "icao": "RBG"}, {"name": "flyadeal", "iata": "F3", "icao": "FAD"}, {"name": "Nile Air", "iata": "NP", "icao": "NIA"}, {"name": "EgyptAir", "iata": "MS", "icao": "MSR"}, {"name": "FlyEgypt", "iata": "FT", "icao": "FEG"}, {"name": "Nesma Airlines", "iata": "NA", "icao": "NSS"}]}, {"destination": {"icao": "OERK", "iata": "RUH", "name": "Riyadh King Khaled", "shortName": "King Khaled", "municipalityName": "Riyadh", "location": {"lat": 24.9576, "lon": 46.6988}, "countryCode": "SA"}, "averageDailyFlights": 22.36, "operators": [{"name": "flyadeal", "iata": "F3", "icao": "FAD"}, {"name": "Saudi Arabian Airlines", "iata": "SV", "icao": "SVA"}, {"name": "Nile Air", "iata": "NP", "icao": "NIA"}, {"name": "EgyptAir", "iata": "MS", "icao": "MSR"}, {"name": "flynas", "iata": "XY", "icao": "KNE"}, {"name": "Nesma Airlines", "iata": "NA", "icao": "NSS"}, {"name": "Air Cairo", "iata": "SM", "icao": "MSC"}, {"name": "Air Arabia Egypt", "iata": "E5", "icao": "RBG"}, {"name": "FlyEgypt", "iata": "FT", "icao": "FEG"}]}, {"destination": {"icao": "HESN", "iata": "ASW", "name": "Aswan ", "shortName": "Aswan", "municipalityName": "Aswan", "location": {"lat": 23.9644, "lon": 32.82}, "countryCode": "EG"}, "averageDailyFlights": 9.86, "operators": [{"name": "EgyptAir", "iata": "MS", "icao": "MSR"}, {"name": "AlMasria", "iata": "UJ", "icao": "LMU"}, {"name": "Nile Air", "iata": "NP", "icao": "NIA"}, {"name": "Starlink Aviation"}]}, {"destination": {"icao": "HELX", "iata": "LXR", "name": "Luxor ", "shortName": "Luxor", "municipalityName": "Luxor", "location": {"lat": 25.671, "lon": 32.7066}, "countryCode": "EG"}, "averageDailyFlights": 9.57, "operators": [{"name": "EgyptAir", "iata": "MS", "icao": "MSR"}]}, {"destination": {"icao": "OEDF", "iata": "DMM", "name": "Ad Dammam King Fahd", "shortName": "King Fahd", "municipalityName": "Ad Dammam", "location": {"lat": 26.4712, "lon": 49.7979}, "countryCode": "SA"}, "averageDailyFlights": 9.43, "operators": [{"name": "EgyptAir", "iata": "MS", "icao": "MSR"}, {"name": "Air Arabia Egypt", "iata": "E5", "icao": "RBG"}, {"name": "Air Cairo", "iata": "SM", "icao": "MSC"}, {"name": "Nile Air", "iata": "NP", "icao": "NIA"}, {"name": "flynas", "iata": "XY", "icao": "KNE"}, {"name": "flyadeal", "iata": "F3", "icao": "FAD"}]}, {"destination": {"icao": "OMDB", "iata": "DXB", "name": "Dubai ", "shortName": "Dubai", "municipalityName": "Dubai", "location": {"lat": 25.252798, "lon": 55.3644}, "countryCode": "AE"}, "averageDailyFlights": 8.57, "operators": [{"name": "Emirates", "iata": "EK", "icao": "UAE"}, {"name": "EgyptAir", "iata": "MS", "icao": "MSR"}]}, {"destination": {"icao": "OKBK", "iata": "KWI", "name": "Kuwait City Kuwait", "shortName": "Kuwait", "municipalityName": "Kuwait City", "location": {"lat": 29.2266, "lon": 47.9689}, "countryCode": "KW"}, "averageDailyFlights": 7.81, "operators": [{"name": "Jazeera Airways", "iata": "J9", "icao": "JZR"}, {"name": "Nile Air", "iata": "NP", "icao": "NIA"}, {"name": "Air Cairo", "iata": "SM", "icao": "MSC"}, {"name": "Emirates", "iata": "EK", "icao": "UAE"}, {"name": "EgyptAir", "iata": "MS", "icao": "MSR"}, {"name": "Kuwait Airways", "iata": "KU", "icao": "KAC"}, {"name": "AlMasria", "iata": "UJ", "icao": "LMU"}]}, {"destination": {"icao": "LGAV", "iata": "ATH", "name": "Athens Eleftherios Venizelos", "shortName": "Eleftherios Venizelos", "municipalityName": "Athens", "location": {"lat": 37.9364, "lon": 23.944498}, "countryCode": "GR"}, "averageDailyFlights": 5.86, "operators": [{"name": "Aegean Airlines", "iata": "A3", "icao": "AEE"}, {"name": "EgyptAir", "iata": "MS", "icao": "MSR"}]}, {"destination": {"icao": "OEMA", "iata": "MED", "name": "Medina Prince Mohammad Bin Abdulaziz", "shortName": "Prince Mohammad Bin Abdulaziz", "municipalityName": "Medina", "location": {"lat": 24.5534, "lon": 39.7051}, "countryCode": "SA"}, "averageDailyFlights": 5.79, "operators": [{"name": "Saudi Arabian Airlines", "iata": "SV", "icao": "SVA"}, {"name": "flynas", "iata": "XY", "icao": "KNE"}, {"name": "EgyptAir", "iata": "MS", "icao": "MSR"}]}, {"destination": {"icao": "OMAA", "iata": "AUH", "name": "Abu Dhabi Island and Internal Islands City Abu Dhabi", "shortName": "Abu Dhabi", "municipalityName": "Abu Dhabi Island and Internal Islands City", "location": {"lat": 24.433, "lon": 54.6511}, "countryCode": "AE"}, "averageDailyFlights": 5.18, "operators": [{"name": "Air Arabia Abu Dhabi", "iata": "3L", "icao": "ADY"}, {"name": "EgyptAir", "iata": "MS", "icao": "MSR"}, {"name": "Etihad Airways"}]}, {"destination": {"icao": "OMSJ", "iata": "SHJ", "name": "Sharjah ", "shortName": "Sharjah", "municipalityName": "Sharjah", "location": {"lat": 25.3286, "lon": 55.5172}, "countryCode": "AE"}, "averageDailyFlights": 5.14, "operators": [{"name": "Air Arabia", "iata": "G9", "icao": "ABY"}, {"name": "Nile Air", "iata": "NP", "icao": "NIA"}, {"name": "EgyptAir", "iata": "MS", "icao": "MSR"}, {"name": "FlyEgypt", "iata": "FT", "icao": "FEG"}]}, {"destination": {"icao": "EGLL", "iata": "LHR", "name": "London Heathrow", "shortName": "Heathrow", "municipalityName": "London", "location": {"lat": 51.4706, "lon": -0.461941}, "countryCode": "GB"}, "averageDailyFlights": 4.43, "operators": [{"name": "British Airways", "iata": "BA", "icao": "BAW"}, {"name": "EgyptAir", "iata": "MS", "icao": "MSR"}]}, {"destination": {"icao": "OBBI", "iata": "BAH", "name": "Manama Bahrain", "shortName": "Bahrain", "municipalityName": "Manama", "location": {"lat": 26.2708, "lon": 50.6336}, "countryCode": "BH"}, "averageDailyFlights": 4.0, "operators": [{"name": "Air Arabia Egypt", "iata": "E5", "icao": "RBG"}, {"name": "Gulf Air", "iata": "GF", "icao": "GFA"}, {"name": "EgyptAir", "iata": "MS", "icao": "MSR"}]}, {"destination": {"icao": "GMMN", "iata": "CMN", "name": "Casablanca Mohammed V", "shortName": "Mohammed V", "municipalityName": "Casablanca", "location": {"lat": 33.3675, "lon": -7.58997}, "countryCode": "MA"}, "averageDailyFlights": 3.57, "operators": [{"name": "Royal Air Maroc", "iata": "AT", "icao": "RAM"}, {"name": "EgyptAir", "iata": "MS", "icao": "MSR"}]}, {"destination": {"icao": "LIMC", "iata": "MXP", "name": "Milan Malpensa", "shortName": "Malpensa", "municipalityName": "Milan", "location": {"lat": 45.6306, "lon": 8.72811}, "countryCode": "IT"}, "averageDailyFlights": 3.57, "operators": [{"name": "EgyptAir", "iata": "MS", "icao": "MSR"}, {"name": "Air Cairo", "iata": "SM", "icao": "MSC"}, {"name": "Neos", "iata": "NO", "icao": "NOS"}]}, {"destination": {"icao": "OTHH", "iata": "DOH", "name": "Doha Hamad", "shortName": "Hamad", "municipalityName": "Doha", "location": {"lat": 25.273056, "lon": 51.608055}, "countryCode": "QA"}, "averageDailyFlights": 3.21, "operators": [{"name": "EgyptAir", "iata": "MS", "icao": "MSR"}, {"name": "Qatar Airways", "iata": "QR", "icao": "QTR"}]}, {"destination": {"name": "Moscow"}, "averageDailyFlights": 3.14, "operators": [{"name": "EgyptAir", "iata": "MS", "icao": "MSR"}, {"name": "Aeroflot", "iata": "SU", "icao": "AFL"}]}, {"destination": {"icao": "OLBA", "iata": "BEY", "name": "Beirut Rafic Hariri", "shortName": "Rafic Hariri", "municipalityName": "Beirut", "location": {"lat": 33.8209, "lon": 35.4884}, "countryCode": "LB"}, "averageDailyFlights": 3.02, "operators": [{"name": "Middle East Airlines", "iata": "ME", "icao": "MEA"}, {"name": "EgyptAir", "iata": "MS", "icao": "MSR"}]}, {"destination": {"icao": "LOWW", "iata": "VIE", "name": "Vienna Schwechat", "shortName": "Schwechat", "municipalityName": "Vienna", "location": {"lat": 48.1103, "lon": 16.5697}, "countryCode": "AT"}, "averageDailyFlights": 2.57, "operators": [{"name": "EgyptAir", "iata": "MS", "icao": "MSR"}, {"name": "Austrian", "iata": "OS", "icao": "AUA"}]}, {"destination": {"icao": "HAAB", "iata": "ADD", "name": "Addis Ababa Bole", "shortName": "Bole", "municipalityName": "Addis Ababa", "location": {"lat": 8.97789, "lon": 38.7993}, "countryCode": "ET"}, "averageDailyFlights": 2.43, "operators": [{"name": "EgyptAir", "iata": "MS", "icao": "MSR"}, {"name": "Ethiopian Airlines", "iata": "ET", "icao": "ETH"}]}, {"destination": {"icao": "LIRF", "iata": "FCO", "name": "Rome Leonardo da Vinci\u2013Fiumicino", "shortName": "Leonardo da Vinci\u2013Fiumicino", "municipalityName": "Rome", "location": {"lat": 41.8045, "lon": 12.2508}, "countryCode": "IT"}, "averageDailyFlights": 2.43, "operators": [{"name": "EgyptAir", "iata": "MS", "icao": "MSR"}, {"name": "Air Cairo", "iata": "SM", "icao": "MSC"}, {"name": "ITA Airways", "iata": "AZ", "icao": "ITY"}]}, {"destination": {"icao": "EDDF", "iata": "FRA", "name": "Frankfurt-am-Main ", "shortName": "Frankfurt-am-Main", "municipalityName": "Frankfurt-am-Main", "location": {"lat": 50.0264, "lon": 8.543129}, "countryCode": "DE"}, "averageDailyFlights": 2.16, "operators": [{"name": "Lufthansa", "iata": "LH", "icao": "DLH"}, {"name": "EgyptAir", "iata": "MS", "icao": "MSR"}]}, {"destination": {"icao": "ORBI", "iata": "BGW", "name": "Baghdad ", "shortName": "Baghdad", "municipalityName": "Baghdad", "location": {"lat": 33.2625, "lon": 44.2346}, "countryCode": "IQ"}, "averageDailyFlights": 2.0, "operators": [{"name": "EgyptAir", "iata": "MS", "icao": "MSR"}, {"name": "I A W", "iata": "IA", "icao": "IAW"}, {"name": "Fly Baghdad", "iata": "IF", "icao": "FBA"}]}, {"destination": {"icao": "LTFJ", "iata": "SAW", "name": "Istanbul Sabiha G\u00f6k\u00e7en", "shortName": "Sabiha G\u00f6k\u00e7en", "municipalityName": "Istanbul", "location": {"lat": 40.8986, "lon": 29.3092}, "countryCode": "TR"}, "averageDailyFlights": 1.96, "operators": [{"name": "Nile Air", "iata": "NP", "icao": "NIA"}, {"name": "Turkish Airlines", "iata": "TK", "icao": "THY"}, {"name": "EgyptAir", "iata": "MS", "icao": "MSR"}]}, {"destination": {"icao": "OOMS", "iata": "MCT", "name": "Muscat ", "shortName": "Muscat", "municipalityName": "Muscat", "location": {"lat": 23.5933, "lon": 58.2844}, "countryCode": "OM"}, "averageDailyFlights": 1.9, "operators": [{"name": "EgyptAir", "iata": "MS", "icao": "MSR"}, {"name": "Air Arabia Egypt", "iata": "E5", "icao": "RBG"}, {"name": "Oman Air", "iata": "WY", "icao": "OMA"}]}, {"destination": {"icao": "OJAI", "iata": "AMM", "name": "Amman Queen Alia", "shortName": "Queen Alia", "municipalityName": "Amman", "location": {"lat": 31.7226, "lon": 35.9932}, "countryCode": "JO"}, "averageDailyFlights": 1.86, "operators": [{"name": "Jordan Aviation Airlines", "iata": "R5", "icao": "JAV"}, {"name": "Royal Jordanian", "iata": "RJ", "icao": "RJA"}, {"name": "EgyptAir", "iata": "MS", "icao": "MSR"}]}, {"destination": {"icao": "OEAB", "iata": "AHB", "name": "Abha Regional", "shortName": "Regional", "municipalityName": "Abha", "location": {"lat": 18.2404, "lon": 42.6566}, "countryCode": "SA"}, "averageDailyFlights": 1.71, "operators": [{"name": "Nile Air", "iata": "NP", "icao": "NIA"}, {"name": "Air Arabia Egypt", "iata": "E5", "icao": "RBG"}, {"name": "Air Cairo", "iata": "SM", "icao": "MSC"}]}, {"destination": {"icao": "LEMD", "iata": "MAD", "name": "Madrid Adolfo Su\u00e1rez \u2013Barajas", "shortName": "Adolfo Su\u00e1rez \u2013Barajas", "municipalityName": "Madrid", "location": {"lat": 40.4936, "lon": -3.56676}, "countryCode": "ES"}, "averageDailyFlights": 1.71, "operators": [{"name": "EgyptAir", "iata": "MS", "icao": "MSR"}, {"name": "Nile Air", "iata": "NP", "icao": "NIA"}]}, {"destination": {"icao": "DTTA", "iata": "TUN", "name": "Tunis Carthage", "shortName": "Carthage", "municipalityName": "Tunis", "location": {"lat": 36.851, "lon": 10.227199}, "countryCode": "TN"}, "averageDailyFlights": 1.71, "operators": [{"name": "Tunisair", "iata": "TU", "icao": "TAR"}, {"name": "EgyptAir", "iata": "MS", "icao": "MSR"}]}, {"destination": {"icao": "LCLK", "iata": "LCA", "name": "Larnarca Larnaca", "shortName": "Larnaca", "municipalityName": "Larnarca", "location": {"lat": 34.8751, "lon": 33.6249}, "countryCode": "CY"}, "averageDailyFlights": 1.57, "operators": [{"name": "Cyprus Airways", "iata": "CY"}, {"name": "EgyptAir", "iata": "MS", "icao": "MSR"}]}, {"destination": {"icao": "LEBL", "iata": "BCN", "name": "Barcelona ", "shortName": "Barcelona", "municipalityName": "Barcelona", "location": {"lat": 41.2971, "lon": 2.078459}, "countryCode": "ES"}, "averageDailyFlights": 1.43, "operators": [{"name": "EgyptAir", "iata": "MS", "icao": "MSR"}, {"name": "Vueling", "iata": "VY", "icao": "VLG"}]}, {"destination": {"icao": "LIME", "iata": "BGY", "name": "Bergamo Orio al Serio", "shortName": "Orio al Serio", "municipalityName": "Bergamo", "location": {"lat": 45.6739, "lon": 9.70417}, "countryCode": "IT"}, "averageDailyFlights": 1.43, "operators": [{"name": "Air Arabia Egypt", "iata": "E5", "icao": "RBG"}, {"name": "AlMasria", "iata": "UJ", "icao": "LMU"}]}, {"destination": {"icao": "LLBG", "iata": "TLV", "name": "Tel Aviv Yafo Ben Gurion", "shortName": "Ben Gurion", "municipalityName": "Tel Aviv Yafo", "location": {"lat": 32.0114, "lon": 34.8867}, "countryCode": "IL"}, "averageDailyFlights": 1.43, "operators": [{"name": "EgyptAir", "iata": "MS", "icao": "MSR"}]}, {"destination": {"icao": "EDDM", "iata": "MUC", "name": "Munich ", "shortName": "Munich", "municipalityName": "Munich", "location": {"lat": 48.3538, "lon": 11.7861}, "countryCode": "DE"}, "averageDailyFlights": 1.3, "operators": [{"name": "Lufthansa", "iata": "LH", "icao": "DLH"}, {"name": "EgyptAir", "iata": "MS", "icao": "MSR"}]}, {"destination": {"icao": "OESK", "iata": "AJF", "name": "Al-Jawf Domestic", "shortName": "Domestic", "municipalityName": "Al-Jawf", "location": {"lat": 29.7851, "lon": 40.1}, "countryCode": "SA"}, "averageDailyFlights": 1.29, "operators": [{"name": "Nile Air", "iata": "NP", "icao": "NIA"}, {"name": "Air Arabia Egypt", "iata": "E5", "icao": "RBG"}]}, {"destination": {"icao": "LFPO", "iata": "ORY", "name": "Paris -Orly", "shortName": "-Orly", "municipalityName": "Paris", "location": {"lat": 48.7253, "lon": 2.35944}, "countryCode": "FR"}, "averageDailyFlights": 1.24, "operators": [{"name": "Transavia France", "iata": "TO", "icao": "TVF"}, {"name": "Vueling", "iata": "VY", "icao": "VLG"}, {"name": "EgyptAir", "iata": "MS", "icao": "MSR"}]}, {"destination": {"icao": "HESH", "iata": "SSH", "name": "Sharm el Sheikh ", "shortName": "Sharm el Sheikh", "municipalityName": "Sharm el Sheikh", "location": {"lat": 27.9773, "lon": 34.395}, "countryCode": "EG"}, "averageDailyFlights": 1.18, "operators": [{"name": "Nile Air", "iata": "NP", "icao": "NIA"}, {"name": "Air Cairo", "iata": "SM", "icao": "MSC"}, {"name": "EgyptAir", "iata": "MS", "icao": "MSR"}]}, {"destination": {"icao": "HLLB", "iata": "BEN", "name": "Benghazi Benina", "shortName": "Benina", "municipalityName": "Benghazi", "location": {"lat": 32.0968, "lon": 20.2695}, "countryCode": "LY"}, "averageDailyFlights": 1.16, "operators": [{"name": "EgyptAir", "iata": "MS", "icao": "MSR"}, {"name": "Afriqiyah Airways", "iata": "8U", "icao": "AAW"}]}, {"destination": {"icao": "EDDB", "iata": "BER", "name": "Berlin Brandenburg", "shortName": "Brandenburg", "municipalityName": "Berlin", "location": {"lat": 52.35139, "lon": 13.493889}, "countryCode": "DE"}, "averageDailyFlights": 1.14, "operators": [{"name": "EgyptAir", "iata": "MS", "icao": "MSR"}]}, {"destination": {"icao": "HKJK", "iata": "NBO", "name": "Nairobi Jomo Kenyatta", "shortName": "Jomo Kenyatta", "municipalityName": "Nairobi", "location": {"lat": -1.319239, "lon": 36.9278}, "countryCode": "KE"}, "averageDailyFlights": 1.14, "operators": [{"name": "EgyptAir", "iata": "MS", "icao": "MSR"}]}, {"destination": {"icao": "LFPG", "iata": "CDG", "name": "Paris Charles de Gaulle", "shortName": "Charles de Gaulle", "municipalityName": "Paris", "location": {"lat": 49.0128, "lon": 2.549999}, "countryCode": "FR"}, "averageDailyFlights": 1.14, "operators": [{"name": "Air France", "iata": "AF", "icao": "AFR"}]}, {"destination": {"icao": "HLLM", "iata": "MJI", "name": "Tripoli Mitiga", "shortName": "Mitiga", "municipalityName": "Tripoli", "location": {"lat": 32.8941, "lon": 13.276}, "countryCode": "LY"}, "averageDailyFlights": 1.14, "operators": [{"name": "EgyptAir", "iata": "MS", "icao": "MSR"}]}, {"destination": {"name": "Amsterdam"}, "averageDailyFlights": 1.14, "operators": [{"name": "EgyptAir", "iata": "MS", "icao": "MSR"}]}, {"destination": {"icao": "DNMM", "iata": "LOS", "name": "Lagos Murtala Muhammed", "shortName": "Murtala Muhammed", "municipalityName": "Lagos", "location": {"lat": 6.57737, "lon": 3.32116}, "countryCode": "NG"}, "averageDailyFlights": 1.0, "operators": [{"name": "EgyptAir", "iata": "MS", "icao": "MSR"}]}, {"destination": {"icao": "HEGN", "iata": "HRG", "name": "Hurghada ", "shortName": "Hurghada", "municipalityName": "Hurghada", "location": {"lat": 27.1783, "lon": 33.7994}, "countryCode": "EG"}, "averageDailyFlights": 0.98, "operators": [{"name": "Air Cairo", "iata": "SM", "icao": "MSC"}, {"name": "Nesma Airlines", "iata": "NA", "icao": "NSS"}, {"name": "EgyptAir", "iata": "MS", "icao": "MSR"}]}, {"destination": {"icao": "EKCH", "iata": "CPH", "name": "Copenhagen Kastrup", "shortName": "Kastrup", "municipalityName": "Copenhagen", "location": {"lat": 55.6179, "lon": 12.656}, "countryCode": "DK"}, "averageDailyFlights": 0.86, "operators": [{"name": "EgyptAir", "iata": "MS", "icao": "MSR"}]}, {"destination": {"icao": "EDDL", "iata": "DUS", "name": "Duesseldorf D\u00fcsseldorf", "shortName": "D\u00fcsseldorf", "municipalityName": "Duesseldorf", "location": {"lat": 51.2895, "lon": 6.766779}, "countryCode": "DE"}, "averageDailyFlights": 0.86, "operators": [{"name": "EgyptAir", "iata": "MS", "icao": "MSR"}]}, {"destination": {"icao": "ZGGG", "iata": "CAN", "name": "Guangzhou Baiyun", "shortName": "Baiyun", "municipalityName": "Guangzhou", "location": {"lat": 23.3924, "lon": 113.299}, "countryCode": "CN"}, "averageDailyFlights": 0.86, "operators": [{"name": "EgyptAir", "iata": "MS", "icao": "MSR"}]}, {"destination": {"icao": "OEGN", "iata": "GIZ", "name": "Jazan Jizan Regional", "shortName": "Jizan Regional", "municipalityName": "Jazan", "location": {"lat": 16.9011, "lon": 42.5858}, "countryCode": "SA"}, "averageDailyFlights": 0.86, "operators": [{"name": "Nile Air", "iata": "NP", "icao": "NIA"}, {"name": "Air Arabia Egypt", "iata": "E5", "icao": "RBG"}]}, {"destination": {"icao": "HSSS", "iata": "KRT", "name": "Khartoum ", "shortName": "Khartoum", "municipalityName": "Khartoum", "location": {"lat": 15.5895, "lon": 32.5532}, "countryCode": "SD"}, "averageDailyFlights": 0.86, "operators": [{"name": "EgyptAir", "iata": "MS", "icao": "MSR"}]}, {"destination": {"icao": "OMRK", "iata": "RKT", "name": "Ras Al Khaimah ", "shortName": "Ras Al Khaimah", "municipalityName": "Ras Al Khaimah", "location": {"lat": 25.6135, "lon": 55.9388}, "countryCode": "AE"}, "averageDailyFlights": 0.86, "operators": [{"name": "Air Arabia", "iata": "G9", "icao": "ABY"}]}, {"destination": {"name": "Mitiga"}, "averageDailyFlights": 0.86, "operators": [{"name": "EgyptAir", "iata": "MS", "icao": "MSR"}, {"name": "Afriqiyah Airways", "iata": "8U", "icao": "AAW"}]}, {"destination": {"name": "Tabuk"}, "averageDailyFlights": 0.86, "operators": [{"name": "Nesma Airlines", "iata": "NA", "icao": "NSS"}]}, {"destination": {"icao": "DAAG", "iata": "ALG", "name": "Algiers Houari Boumediene", "shortName": "Houari Boumediene", "municipalityName": "Algiers", "location": {"lat": 36.691, "lon": 3.215409}, "countryCode": "DZ"}, "averageDailyFlights": 0.78, "operators": [{"name": "Air Algerie", "iata": "AH", "icao": "DAH"}, {"name": "EgyptAir", "iata": "MS", "icao": "MSR"}]}, {"destination": {"icao": "DGAA", "iata": "ACC", "name": "Accra Kotoka", "shortName": "Kotoka", "municipalityName": "Accra", "location": {"lat": 5.605189, "lon": -0.166786}, "countryCode": "GH"}, "averageDailyFlights": 0.71, "operators": [{"name": "EgyptAir", "iata": "MS", "icao": "MSR"}]}, {"destination": {"icao": "ORER", "iata": "EBL", "name": "Arbil Erbil", "shortName": "Erbil", "municipalityName": "Arbil", "location": {"lat": 36.2376, "lon": 43.9632}, "countryCode": "IQ"}, "averageDailyFlights": 0.71, "operators": [{"name": "EgyptAir", "iata": "MS", "icao": "MSR"}, {"name": "I A W", "iata": "IA", "icao": "IAW"}]}, {"destination": {"icao": "LROP", "iata": "OTP", "name": "Bucharest Henri Coand\u0103", "shortName": "Henri Coand\u0103", "municipalityName": "Bucharest", "location": {"lat": 44.5722, "lon": 26.1022}, "countryCode": "RO"}, "averageDailyFlights": 0.71, "operators": [{"name": "TAROM", "iata": "RO", "icao": "ROT"}]}, {"destination": {"icao": "EIDW", "iata": "DUB", "name": "Dublin ", "shortName": "Dublin", "municipalityName": "Dublin", "location": {"lat": 53.4213, "lon": -6.27007}, "countryCode": "IE"}, "averageDailyFlights": 0.71, "operators": [{"name": "EgyptAir", "iata": "MS", "icao": "MSR"}]}, {"destination": {"icao": "ZSHC", "iata": "HGH", "name": "Hangzhou Xiaoshan", "shortName": "Xiaoshan", "municipalityName": "Hangzhou", "location": {"lat": 30.2295, "lon": 120.434}, "countryCode": "CN"}, "averageDailyFlights": 0.71, "operators": [{"name": "EgyptAir", "iata": "MS", "icao": "MSR"}]}, {"destination": {"icao": "FAOR", "iata": "JNB", "name": "Jo'anna OR Tambo", "shortName": "OR Tambo", "municipalityName": "Jo'anna", "location": {"lat": -26.1392, "lon": 28.246}, "countryCode": "ZA"}, "averageDailyFlights": 0.71, "operators": [{"name": "EgyptAir", "iata": "MS", "icao": "MSR"}]}, {"destination": {"icao": "VABB", "iata": "BOM", "name": "Mumbai Chhatrapati Shivaji", "shortName": "Chhatrapati Shivaji", "municipalityName": "Mumbai", "location": {"lat": 19.0887, "lon": 72.8679}, "countryCode": "IN"}, "averageDailyFlights": 0.71, "operators": [{"name": "EgyptAir", "iata": "MS", "icao": "MSR"}]}, {"destination": {"name": "Beijing"}, "averageDailyFlights": 0.71, "operators": [{"name": "Sichuan Airlines", "iata": "3U", "icao": "CSC"}, {"name": "EgyptAir", "iata": "MS", "icao": "MSR"}]}, {"destination": {"name": "Taif"}, "averageDailyFlights": 0.71, "operators": [{"name": "Nesma Airlines", "iata": "NA", "icao": "NSS"}]}, {"destination": {"icao": "DNAA", "iata": "ABV", "name": "Abuja Nnamdi Azikiwe", "shortName": "Nnamdi Azikiwe", "municipalityName": "Abuja", "location": {"lat": 9.00679, "lon": 7.263169}, "countryCode": "NG"}, "averageDailyFlights": 0.57, "operators": [{"name": "EgyptAir", "iata": "MS", "icao": "MSR"}]}, {"destination": {"icao": "OMAL", "iata": "AAN", "name": "Al Ain City Al Ain", "shortName": "Al Ain", "municipalityName": "Al Ain City", "location": {"lat": 24.2617, "lon": 55.6092}, "countryCode": "AE"}, "averageDailyFlights": 0.57, "operators": [{"name": "Nile Air", "iata": "NP", "icao": "NIA"}]}, {"destination": {"icao": "OJAQ", "iata": "AQJ", "name": "Aqaba King Hussein", "shortName": "King Hussein", "municipalityName": "Aqaba", "location": {"lat": 29.6116, "lon": 35.0181}, "countryCode": "JO"}, "averageDailyFlights": 0.57, "operators": [{"name": "Petroleum Air Services", "iata": "UF", "icao": "PER"}, {"name": "Air Cairo", "iata": "SM", "icao": "MSC"}]}, {"destination": {"icao": "HEAT", "iata": "ATZ", "name": "Assiut ", "shortName": "Assiut", "municipalityName": "Assiut", "location": {"lat": 27.0465, "lon": 31.012}, "countryCode": "EG"}, "averageDailyFlights": 0.57, "operators": [{"name": "EgyptAir", "iata": "MS", "icao": "MSR"}, {"name": "Petroleum Air Services", "iata": "UF", "icao": "PER"}]}, {"destination": {"icao": "KIAD", "iata": "IAD", "name": "District of Columbia Washington Dulles", "shortName": "Washington Dulles", "municipalityName": "District of Columbia", "location": {"lat": 38.9445, "lon": -77.4558}, "countryCode": "US"}, "averageDailyFlights": 0.57, "operators": [{"name": "EgyptAir", "iata": "MS", "icao": "MSR"}]}, {"destination": {"icao": "FKKD", "iata": "DLA", "name": "Douala ", "shortName": "Douala", "municipalityName": "Douala", "location": {"lat": 4.00608, "lon": 9.719479}, "countryCode": "CM"}, "averageDailyFlights": 0.57, "operators": [{"name": "EgyptAir", "iata": "MS", "icao": "MSR"}]}, {"destination": {"icao": "CYUL", "iata": "YUL", "name": "Montreal Trudeau", "shortName": "Trudeau", "municipalityName": "Montreal", "location": {"lat": 45.4706, "lon": -73.7408}, "countryCode": "CA"}, "averageDailyFlights": 0.57, "operators": [{"name": "Air Canada", "iata": "AC", "icao": "ACA"}]}, {"destination": {"icao": "FTTJ", "iata": "NDJ", "name": "N'Djamena ", "shortName": "N'Djamena", "municipalityName": "N'Djamena", "location": {"lat": 12.1337, "lon": 15.034}, "countryCode": "TD"}, "averageDailyFlights": 0.57, "operators": [{"name": "EgyptAir", "iata": "MS", "icao": "MSR"}]}, {"destination": {"icao": "OEPA", "iata": "AQI", "name": "Al Qaysumah Qaisumah Domestic", "shortName": "Qaisumah Domestic", "municipalityName": "Al Qaysumah", "location": {"lat": 28.3352, "lon": 46.1251}, "countryCode": "SA"}, "averageDailyFlights": 0.43, "operators": [{"name": "Nile Air", "iata": "NP", "icao": "NIA"}]}, {"destination": {"icao": "LYBE", "iata": "BEG", "name": "Belgrade Nikola Tesla", "shortName": "Nikola Tesla", "municipalityName": "Belgrade", "location": {"lat": 44.8184, "lon": 20.3091}, "countryCode": "RS"}, "averageDailyFlights": 0.43, "operators": [{"name": "JetSMART", "iata": "JA", "icao": "JAT"}]}, {"destination": {"icao": "HTDA", "iata": "DAR", "name": "Dar es Salaam Julius Nyerere", "shortName": "Julius Nyerere", "municipalityName": "Dar es Salaam", "location": {"lat": -6.878109, "lon": 39.2026}, "countryCode": "TZ"}, "averageDailyFlights": 0.43, "operators": [{"name": "EgyptAir", "iata": "MS", "icao": "MSR"}]}, {"destination": {"icao": "HSSJ", "iata": "JUB", "name": "Juba ", "shortName": "Juba", "municipalityName": "Juba", "location": {"lat": 4.87201, "lon": 31.6011}, "countryCode": "SS"}, "averageDailyFlights": 0.43, "operators": [{"name": "EgyptAir", "iata": "MS", "icao": "MSR"}]}, {"destination": {"icao": "HUEN", "iata": "EBB", "name": "Kampala Entebbe", "shortName": "Entebbe", "municipalityName": "Kampala", "location": {"lat": 0.042385, "lon": 32.4435}, "countryCode": "UG"}, "averageDailyFlights": 0.43, "operators": [{"name": "EgyptAir", "iata": "MS", "icao": "MSR"}]}, {"destination": {"icao": "HRYR", "iata": "KGL", "name": "Kigali ", "shortName": "Kigali", "municipalityName": "Kigali", "location": {"lat": -1.968629, "lon": 30.1395}, "countryCode": "RW"}, "averageDailyFlights": 0.43, "operators": [{"name": "EgyptAir", "iata": "MS", "icao": "MSR"}]}, {"destination": {"icao": "LFML", "iata": "MRS", "name": "Marseille Provence", "shortName": "Provence", "municipalityName": "Marseille", "location": {"lat": 43.43927, "lon": 5.221424}, "countryCode": "FR"}, "averageDailyFlights": 0.43, "operators": [{"name": "Air Arabia Egypt", "iata": "E5", "icao": "RBG"}]}, {"destination": {"icao": "ESSA", "iata": "ARN", "name": "Stockholm -Arlanda", "shortName": "-Arlanda", "municipalityName": "Stockholm", "location": {"lat": 59.6519, "lon": 17.9186}, "countryCode": "SE"}, "averageDailyFlights": 0.43, "operators": [{"name": "Nile Air", "iata": "NP", "icao": "NIA"}]}, {"destination": {"name": "Geneva"}, "averageDailyFlights": 0.43, "operators": [{"name": "EgyptAir", "iata": "MS", "icao": "MSR"}]}, {"destination": {"name": "New York"}, "averageDailyFlights": 0.43, "operators": [{"name": "EgyptAir", "iata": "MS", "icao": "MSR"}]}, {"destination": {"icao": "ORMM", "iata": "BSR", "name": "Basrah ", "shortName": "Basrah", "municipalityName": "Basrah", "location": {"lat": 30.5491, "lon": 47.6621}, "countryCode": "IQ"}, "averageDailyFlights": 0.29, "operators": [{"name": "I A W", "iata": "IA", "icao": "IAW"}]}, {"destination": {"icao": "VGHS", "iata": "DAC", "name": "Dhaka Hazrat Shahjalal", "shortName": "Hazrat Shahjalal", "municipalityName": "Dhaka", "location": {"lat": 23.843348, "lon": 90.39778}, "countryCode": "BD"}, "averageDailyFlights": 0.29, "operators": [{"name": "EgyptAir", "iata": "MS", "icao": "MSR"}]}, {"destination": {"icao": "HEMA", "iata": "RMF", "name": "Marsa Alam ", "shortName": "Marsa Alam", "municipalityName": "Marsa Alam", "location": {"lat": 25.5571, "lon": 34.5837}, "countryCode": "EG"}, "averageDailyFlights": 0.29, "operators": [{"name": "EgyptAir", "iata": "MS", "icao": "MSR"}]}, {"destination": {"icao": "KEWR", "iata": "EWR", "name": "Newark Liberty", "shortName": "Liberty", "municipalityName": "Newark", "location": {"lat": 40.6925, "lon": -74.1687}, "countryCode": "US"}, "averageDailyFlights": 0.29, "operators": [{"name": "EgyptAir", "iata": "MS", "icao": "MSR"}]}, {"destination": {"icao": "ORSU", "iata": "ISU", "name": "Sulaymaniyah ", "shortName": "Sulaymaniyah", "municipalityName": "Sulaymaniyah", "location": {"lat": 35.56175, "lon": 45.31674}, "countryCode": "IQ"}, "averageDailyFlights": 0.29, "operators": [{"name": "I A W", "iata": "IA", "icao": "IAW"}]}, {"destination": {"name": "Brussels"}, "averageDailyFlights": 0.29, "operators": [{"name": "EgyptAir", "iata": "MS", "icao": "MSR"}]}, {"destination": {"name": "King Fakhd"}, "averageDailyFlights": 0.29, "operators": [{"name": "EgyptAir", "iata": "MS", "icao": "MSR"}]}, {"destination": {"name": "Toronto"}, "averageDailyFlights": 0.29, "operators": [{"name": "EgyptAir", "iata": "MS", "icao": "MSR"}]}, {"destination": {"name": "Warsaw"}, "averageDailyFlights": 0.29, "operators": [{"name": "LOT - Polish Airlines", "iata": "LO", "icao": "LOT"}]}, {"destination": {"name": "Zurich"}, "averageDailyFlights": 0.29, "operators": [{"name": "SWISS", "iata": "LX", "icao": "SWR"}]}, {"destination": {"icao": "LEBB", "iata": "BIO", "name": "Bilbao ", "shortName": "Bilbao", "municipalityName": "Bilbao", "location": {"lat": 43.3011, "lon": -2.910609}, "countryCode": "ES"}, "averageDailyFlights": 0.14, "operators": [{"name": "Air Cairo", "iata": "SM", "icao": "MSC"}]}, {"destination": {"icao": "HDAM", "iata": "JIB", "name": "Djibouti City Djibouti-Ambouli", "shortName": "Djibouti-Ambouli", "municipalityName": "Djibouti City", "location": {"lat": 11.5473, "lon": 43.1595}, "countryCode": "DJ"}, "averageDailyFlights": 0.14, "operators": [{"name": "AlMasria", "iata": "UJ", "icao": "LMU"}]}, {"destination": {"icao": "LTBJ", "iata": "ADB", "name": "\u0130zmir Adnan Menderes", "shortName": "Adnan Menderes", "municipalityName": "\u0130zmir", "location": {"lat": 38.2924, "lon": 27.157}, "countryCode": "TR"}, "averageDailyFlights": 0.14, "operators": [{"name": "Corendon Air", "iata": "XC", "icao": "CAI"}]}, {"destination": {"icao": "LEMG", "iata": "AGP", "name": "M\u00e1laga ", "shortName": "M\u00e1laga", "municipalityName": "M\u00e1laga", "location": {"lat": 36.6749, "lon": -4.49911}, "countryCode": "ES"}, "averageDailyFlights": 0.14, "operators": [{"name": "Air Cairo", "iata": "SM", "icao": "MSC"}]}, {"destination": {"icao": "HLMS", "iata": "MRA", "name": "Misratah ", "shortName": "Misratah", "municipalityName": "Misratah", "location": {"lat": 32.325, "lon": 15.060999}, "countryCode": "LY"}, "averageDailyFlights": 0.14, "operators": [{"name": "Afriqiyah Airways", "iata": "8U", "icao": "AAW"}]}, {"destination": {"icao": "UTTT", "iata": "TAS", "localCode": "\u0422\u0410\u0421", "name": "Tashkent ", "shortName": "Tashkent", "municipalityName": "Tashkent", "location": {"lat": 41.2579, "lon": 69.2812}, "countryCode": "UZ"}, "averageDailyFlights": 0.14, "operators": [{"name": "FlyEgypt", "iata": "FT", "icao": "FEG"}]}, {"destination": {"icao": "LEVC", "iata": "VLC", "name": "Valencia ", "shortName": "Valencia", "municipalityName": "Valencia", "location": {"lat": 39.4893, "lon": -0.481624}, "countryCode": "ES"}, "averageDailyFlights": 0.14, "operators": [{"name": "Air Cairo", "iata": "SM", "icao": "MSC"}]}, {"destination": {"name": "Asmara"}, "averageDailyFlights": 0.14, "operators": [{"name": "EgyptAir", "iata": "MS", "icao": "MSR"}]}, {"destination": {"name": "Catania"}, "averageDailyFlights": 0.14, "operators": [{"name": "Air Cairo", "iata": "SM", "icao": "MSC"}]}, {"destination": {"name": "Kano"}, "averageDailyFlights": 0.14, "operators": [{"name": "EgyptAir", "iata": "MS", "icao": "MSR"}]}, {"destination": {"name": "Kinshasa"}, "averageDailyFlights": 0.14, "operators": [{"name": "EgyptAir", "iata": "MS", "icao": "MSR"}]}, {"destination": {"name": "Mizerata"}, "averageDailyFlights": 0.14, "operators": [{"name": "Afriqiyah Airways", "iata": "8U", "icao": "AAW"}]}, {"destination": {"name": "Zaragoza"}, "averageDailyFlights": 0.14, "operators": [{"name": "Starlink Aviation"}]}]}