{"routes": [{"destination": {"icao": "HTDA", "iata": "DAR", "name": "Dar es Salaam Julius Nyerere", "shortName": "Julius Nyerere", "municipalityName": "Dar es Salaam", "location": {"lat": -6.878109, "lon": 39.2026}, "countryCode": "TZ"}, "averageDailyFlights": 32.0, "operators": [{"name": "Oman Air", "iata": "WY", "icao": "OMA"}, {"name": "Air Tanzania", "iata": "TC", "icao": "ATC"}, {"name": "Charterlines", "iata": "CQ"}, {"name": "Auric Air", "iata": "UI", "icao": "AUK"}, {"name": "Precision Air", "iata": "PW", "icao": "PRF"}, {"name": "FlexFlight", "iata": "W2", "icao": "FXT"}, {"name": "Regional Air", "iata": "8N", "icao": "REG"}, {"name": "Uganda Airlines", "iata": "UR"}, {"name": "Turkish Airlines", "iata": "TK", "icao": "THY"}, {"name": "KLM", "iata": "KL", "icao": "KLM"}, {"name": "Air France", "iata": "AF", "icao": "AFR"}]}, {"destination": {"icao": "HTAR", "iata": "ARK", "name": "Arusha ", "shortName": "Arusha", "municipalityName": "Arusha", "location": {"lat": -3.367789, "lon": 36.6333}, "countryCode": "TZ"}, "averageDailyFlights": 11.43, "operators": [{"name": "A.P.G. Distribution System"}, {"name": "Regional Air", "iata": "8N", "icao": "REG"}, {"name": "Charterlines", "iata": "CQ"}, {"name": "Auric Air", "iata": "UI", "icao": "AUK"}, {"name": "FlexFlight", "iata": "W2", "icao": "FXT"}, {"name": "Air Tanzania", "iata": "TC", "icao": "ATC"}, {"name": "Precision Air", "iata": "PW", "icao": "PRF"}]}, {"destination": {"icao": "HTPE", "iata": "PMA", "name": "Chake Pemba", "shortName": "Pemba", "municipalityName": "Chake", "location": {"lat": -5.257259, "lon": 39.8114}, "countryCode": "TZ"}, "averageDailyFlights": 6.86, "operators": [{"name": "FlexFlight", "iata": "W2", "icao": "FXT"}, {"name": "Auric Air", "iata": "UI", "icao": "AUK"}, {"name": "A.P.G. Distribution System"}]}, {"destination": {"icao": "HKJK", "iata": "NBO", "name": "Nairobi Jomo Kenyatta", "shortName": "Jomo Kenyatta", "municipalityName": "Nairobi", "location": {"lat": -1.319239, "lon": 36.9278}, "countryCode": "KE"}, "averageDailyFlights": 6.86, "operators": [{"name": "Kenya Airways", "iata": "KQ", "icao": "KQA"}, {"name": "Precision Air", "iata": "PW", "icao": "PRF"}, {"name": "FlexFlight", "iata": "W2", "icao": "FXT"}]}, {"destination": {"icao": "OMDB", "iata": "DXB", "name": "Dubai ", "shortName": "Dubai", "municipalityName": "Dubai", "location": {"lat": 25.252798, "lon": 55.3644}, "countryCode": "AE"}, "averageDailyFlights": 3.43, "operators": [{"name": "flydubai", "iata": "FZ", "icao": "FDB"}]}, {"destination": {"icao": "HKMO", "iata": "MBA", "name": "Mombasa Moi", "shortName": "Moi", "municipalityName": "Mombasa", "location": {"lat": -4.03483, "lon": 39.5942}, "countryCode": "KE"}, "averageDailyFlights": 2.71, "operators": [{"name": "Safarilink", "iata": "F2", "icao": "XLK"}, {"name": "FlexFlight", "iata": "W2", "icao": "FXT"}, {"name": "Flight Alaska"}, {"name": "Neos", "iata": "NO", "icao": "NOS"}]}, {"destination": {"icao": "HTTG", "iata": "TGT", "name": "Tanga ", "shortName": "Tanga", "municipalityName": "Tanga", "location": {"lat": -5.09236, "lon": 39.0712}, "countryCode": "TZ"}, "averageDailyFlights": 2.29, "operators": [{"name": "FlexFlight", "iata": "W2", "icao": "FXT"}, {"name": "Auric Air", "iata": "UI", "icao": "AUK"}]}, {"destination": {"icao": "HAAB", "iata": "ADD", "name": "Addis Ababa Bole", "shortName": "Bole", "municipalityName": "Addis Ababa", "location": {"lat": 8.97789, "lon": 38.7993}, "countryCode": "ET"}, "averageDailyFlights": 1.14, "operators": [{"name": "Ethiopian Airlines", "iata": "ET", "icao": "ETH"}]}, {"destination": {"icao": "OTHH", "iata": "DOH", "name": "Doha Hamad", "shortName": "Hamad", "municipalityName": "Doha", "location": {"lat": 25.273056, "lon": 51.608055}, "countryCode": "QA"}, "averageDailyFlights": 1.14, "operators": [{"name": "Qatar Airways", "iata": "QR", "icao": "QTR"}]}, {"destination": {"icao": "OOMS", "iata": "MCT", "name": "Muscat ", "shortName": "Muscat", "municipalityName": "Muscat", "location": {"lat": 23.5933, "lon": 58.2844}, "countryCode": "OM"}, "averageDailyFlights": 1.14, "operators": [{"name": "Oman Air", "iata": "WY", "icao": "OMA"}]}, {"destination": {"icao": "HTSN", "iata": "SEU", "name": "Seronera ", "shortName": "Seronera", "municipalityName": "Seronera", "location": {"lat": -2.45806, "lon": 34.8225}, "countryCode": "TZ"}, "averageDailyFlights": 1.14, "operators": [{"name": "A.P.G. Distribution System"}]}, {"destination": {"icao": "LTFM", "iata": "IST", "name": "Istanbul ", "shortName": "Istanbul", "municipalityName": "Istanbul", "location": {"lat": 41.275276, "lon": 28.751944}, "countryCode": "TR"}, "averageDailyFlights": 0.71, "operators": [{"name": "Turkish Airlines", "iata": "TK", "icao": "THY"}]}, {"destination": {"icao": "EDDF", "iata": "FRA", "name": "Frankfurt-am-Main ", "shortName": "Frankfurt-am-Main", "municipalityName": "Frankfurt-am-Main", "location": {"lat": 50.0264, "lon": 8.543129}, "countryCode": "DE"}, "averageDailyFlights": 0.43, "operators": [{"name": "Condor", "iata": "DE", "icao": "CFG"}]}, {"destination": {"icao": "FAOR", "iata": "JNB", "name": "Jo'anna OR Tambo", "shortName": "OR Tambo", "municipalityName": "Jo'anna", "location": {"lat": -26.1392, "lon": 28.246}, "countryCode": "ZA"}, "averageDailyFlights": 0.29, "operators": [{"name": "Safair", "iata": "FA", "icao": "SFR"}]}, {"destination": {"icao": "LSZH", "iata": "ZRH", "name": "Zurich Kloten", "shortName": "Kloten", "municipalityName": "Zurich", "location": {"lat": 47.4647, "lon": 8.549169}, "countryCode": "CH"}, "averageDailyFlights": 0.29, "operators": [{"name": "Edelweiss Air", "iata": "WK", "icao": "EDW"}]}, {"destination": {"icao": "LLBG", "iata": "TLV", "name": "Tel Aviv Yafo Ben Gurion", "shortName": "Ben Gurion", "municipalityName": "Tel Aviv Yafo", "location": {"lat": 32.0114, "lon": 34.8867}, "countryCode": "IL"}, "averageDailyFlights": 0.14, "operators": [{"name": "Israir Airlines", "iata": "6H", "icao": "ISR"}]}]}