{"routes": [{"destination": {"icao": "KCLT", "iata": "CLT", "name": "Charlotte Douglas", "shortName": "Douglas", "municipalityName": "Charlotte", "location": {"lat": 35.214, "lon": -80.9431}, "countryCode": "US"}, "averageDailyFlights": 6.43, "operators": [{"name": "American Airlines", "iata": "AA", "icao": "AAL"}, {"name": "Envoy Air", "iata": "MQ", "icao": "ENY"}, {"name": "WSP"}]}, {"destination": {"icao": "KATL", "iata": "ATL", "name": "Atlanta Hartsfield Jackson", "shortName": "Hartsfield Jackson", "municipalityName": "Atlanta", "location": {"lat": 33.6367, "lon": -84.4281}, "countryCode": "US"}, "averageDailyFlights": 6.0, "operators": [{"name": "Delta Air Lines", "iata": "DL", "icao": "DAL"}, {"name": "NJM"}]}, {"destination": {"icao": "KDFW", "iata": "DFW", "name": "Dallas-Fort Worth ", "shortName": "Dallas-Fort Worth", "municipalityName": "Dallas-Fort Worth", "location": {"lat": 32.8968, "lon": -97.038}, "countryCode": "US"}, "averageDailyFlights": 1.14, "operators": [{"name": "Envoy Air", "iata": "MQ", "icao": "ENY"}]}, {"destination": {"icao": "KDCA", "iata": "DCA", "name": "District of Columbia Ronald Reagan Washington National", "shortName": "Ronald Reagan Washington National", "municipalityName": "District of Columbia", "location": {"lat": 38.8521, "lon": -77.0377}, "countryCode": "US"}, "averageDailyFlights": 0.86, "operators": [{"name": "American Airlines", "iata": "AA", "icao": "AAL"}]}, {"destination": {"icao": "KUZA", "iata": "RKH", "name": "Rock Hill - York County", "shortName": "- York County", "municipalityName": "Rock Hill", "location": {"lat": 34.9878, "lon": -81.0572}, "countryCode": "US"}, "averageDailyFlights": 0.86, "operators": [{"name": "JCM"}, {"name": "OLV"}, {"name": "NetJets Aviation", "iata": "1I", "icao": "EJA"}, {"name": "CTE"}, {"name": "LKF"}]}, {"destination": {"icao": "KCHS", "iata": "CHS", "name": "Charleston Air Force Base-", "shortName": "Air Force Base-", "municipalityName": "Charleston", "location": {"lat": 32.8986, "lon": -80.0405}, "countryCode": "US"}, "averageDailyFlights": 0.57, "operators": [{"name": "YEL"}, {"name": "NJM"}]}, {"destination": {"icao": "KPIE", "iata": "PIE", "name": "St Petersburg-Clearwater St Petersburg Clearwater", "shortName": "St Petersburg Clearwater", "municipalityName": "St Petersburg-Clearwater", "location": {"lat": 27.9102, "lon": -82.6874}, "countryCode": "US"}, "averageDailyFlights": 0.43, "operators": [{"name": "TMB"}]}, {"destination": {"icao": "KSVH", "iata": "SVH", "name": "Statesville Regional", "shortName": "Regional", "municipalityName": "Statesville", "location": {"lat": 35.7653, "lon": -80.9539}, "countryCode": "US"}, "averageDailyFlights": 0.43, "operators": [{"name": "FTN"}]}, {"destination": {"icao": "KLUK", "iata": "LUK", "name": "Cincinnati Municipal  Lunken Field", "shortName": "Municipal  Lunken Field", "municipalityName": "Cincinnati", "location": {"lat": 39.1033, "lon": -84.4186}, "countryCode": "US"}, "averageDailyFlights": 0.29, "operators": [{"name": "NetJets Aviation", "iata": "1I", "icao": "EJA"}, {"name": "EDG"}]}, {"destination": {"icao": "KELM", "iata": "ELM", "name": "Elmira/Corning Elmira Corning Regional", "shortName": "Elmira Corning Regional", "municipalityName": "Elmira/Corning", "location": {"lat": 42.1599, "lon": -76.8916}, "countryCode": "US"}, "averageDailyFlights": 0.29, "operators": [{"name": "STY"}]}, {"destination": {"icao": "KHXD", "iata": "HHH", "name": "Hilton Head ", "shortName": "Hilton Head", "municipalityName": "Hilton Head", "location": {"lat": 32.2244, "lon": -80.6975}, "countryCode": "US"}, "averageDailyFlights": 0.29, "operators": [{"name": "GAJ"}]}, {"destination": {"icao": "KCRG", "iata": "CRG", "name": "Jacksonville Executive at Craig", "shortName": "Executive at Craig", "municipalityName": "Jacksonville", "location": {"lat": 30.3363, "lon": -81.5144}, "countryCode": "US"}, "averageDailyFlights": 0.29, "operators": [{"name": "CXK"}]}, {"destination": {"icao": "KMCN", "iata": "MCN", "name": "Macon Middle Georgia Regional", "shortName": "Middle Georgia Regional", "municipalityName": "Macon", "location": {"lat": 32.6928, "lon": -83.6492}, "countryCode": "US"}, "averageDailyFlights": 0.29, "operators": [{"name": "Sun Country Airlines", "iata": "SY", "icao": "SCX"}]}, {"destination": {"icao": "KBNA", "iata": "BNA", "name": "Nashville ", "shortName": "Nashville", "municipalityName": "Nashville", "location": {"lat": 36.1245, "lon": -86.6782}, "countryCode": "US"}, "averageDailyFlights": 0.29, "operators": [{"name": "JRT"}]}, {"destination": {"icao": "KMCO", "iata": "MCO", "name": "Orlando ", "shortName": "Orlando", "municipalityName": "Orlando", "location": {"lat": 28.4294, "lon": -81.309}, "countryCode": "US"}, "averageDailyFlights": 0.29, "operators": [{"name": "FTH"}]}, {"destination": {"icao": "KTPA", "iata": "TPA", "name": "Tampa ", "shortName": "Tampa", "municipalityName": "Tampa", "location": {"lat": 27.9755, "lon": -82.5332}, "countryCode": "US"}, "averageDailyFlights": 0.29, "operators": [{"name": "RVJ"}]}, {"destination": {"icao": "KPBI", "iata": "PBI", "name": "West Palm Beach Palm Beach", "shortName": "Palm Beach", "municipalityName": "West Palm Beach", "location": {"lat": 26.6832, "lon": -80.0956}, "countryCode": "US"}, "averageDailyFlights": 0.29, "operators": [{"name": "NetJets Aviation", "iata": "1I", "icao": "EJA"}, {"name": "DPJ"}]}, {"destination": {"icao": "KALX", "iata": "ALX", "name": "Alexander City Thomas C Russell Field", "shortName": "Thomas C Russell Field", "municipalityName": "Alexander City", "location": {"lat": 32.9147, "lon": -85.963}, "countryCode": "US"}, "averageDailyFlights": 0.14, "operators": [{"name": "NetJets Aviation", "iata": "1I", "icao": "EJA"}]}, {"destination": {"icao": "KPDK", "iata": "PDK", "name": "Atlanta DeKalb Peachtree", "shortName": "DeKalb Peachtree", "municipalityName": "Atlanta", "location": {"lat": 33.8756, "lon": -84.302}, "countryCode": "US"}, "averageDailyFlights": 0.14, "operators": [{"name": "XSR"}]}, {"destination": {"icao": "KBTR", "iata": "BTR", "name": "Baton Rouge Ryan Field", "shortName": "Ryan Field", "municipalityName": "Baton Rouge", "location": {"lat": 30.5332, "lon": -91.1496}, "countryCode": "US"}, "averageDailyFlights": 0.14, "operators": [{"name": "FTH"}]}, {"destination": {"icao": "KBVY", "iata": "BVY", "name": "Beverly Municipal", "shortName": "Municipal", "municipalityName": "Beverly", "location": {"lat": 42.5842, "lon": -70.9165}, "countryCode": "US"}, "averageDailyFlights": 0.14, "operators": [{"name": "FTH"}]}, {"destination": {"icao": "KDTS", "iata": "DSI", "name": "Destin Fort Walton Beach", "shortName": "Fort Walton Beach", "municipalityName": "Destin", "location": {"lat": 30.4001, "lon": -86.4715}, "countryCode": "US"}, "averageDailyFlights": 0.14, "operators": [{"name": "DPJ"}]}, {"destination": {"icao": "KIAD", "iata": "IAD", "name": "District of Columbia Washington Dulles", "shortName": "Washington Dulles", "municipalityName": "District of Columbia", "location": {"lat": 38.9445, "lon": -77.4558}, "countryCode": "US"}, "averageDailyFlights": 0.14, "operators": [{"name": "NetJets Aviation", "iata": "1I", "icao": "EJA"}]}, {"destination": {"icao": "KGMU", "iata": "GMU", "name": "Greenville Downtown", "shortName": "Downtown", "municipalityName": "Greenville", "location": {"lat": 34.8479, "lon": -82.35}, "countryCode": "US"}, "averageDailyFlights": 0.14, "operators": [{"name": "EMD"}]}, {"destination": {"icao": "KIAH", "iata": "IAH", "name": "Houston George Bush", "shortName": "George Bush", "municipalityName": "Houston", "location": {"lat": 29.9844, "lon": -95.3414}, "countryCode": "US"}, "averageDailyFlights": 0.14, "operators": [{"name": "FTH"}]}, {"destination": {"icao": "KAIZ", "iata": "AIZ", "name": "Kaiser Lake Ozark Lee C Fine Memorial", "shortName": "Lee C Fine Memorial", "municipalityName": "Kaiser Lake Ozark", "location": {"lat": 38.096, "lon": -92.5495}, "countryCode": "US"}, "averageDailyFlights": 0.14, "operators": [{"name": "XSR"}]}, {"destination": {"icao": "KLEX", "iata": "LEX", "name": "Lexington Blue Grass", "shortName": "Blue Grass", "municipalityName": "Lexington", "location": {"lat": 38.0365, "lon": -84.6059}, "countryCode": "US"}, "averageDailyFlights": 0.14, "operators": [{"name": "FTN"}]}, {"destination": {"icao": "KMVY", "iata": "MVY", "name": "Martha's Vineyard ", "shortName": "Martha's Vineyard", "municipalityName": "Martha's Vineyard", "location": {"lat": 41.3931, "lon": -70.6143}, "countryCode": "US"}, "averageDailyFlights": 0.14, "operators": [{"name": "JAS"}]}, {"destination": {"icao": "KAPF", "iata": "APF", "name": "Naples Municipal", "shortName": "Municipal", "municipalityName": "Naples", "location": {"lat": 26.1526, "lon": -81.7753}, "countryCode": "US"}, "averageDailyFlights": 0.14, "operators": [{"name": "WSP"}]}, {"destination": {"icao": "KOCF", "iata": "OCF", "name": "Ocala - Jim Taylor Field", "shortName": "- Jim Taylor Field", "municipalityName": "Ocala", "location": {"lat": 29.1726, "lon": -82.2242}, "countryCode": "US"}, "averageDailyFlights": 0.14, "operators": [{"name": "NetJets Aviation", "iata": "1I", "icao": "EJA"}]}, {"destination": {"icao": "KECP", "iata": "ECP", "name": "Panama City Beach Northwest Florida Beaches", "shortName": "Northwest Florida Beaches", "municipalityName": "Panama City Beach", "location": {"lat": 30.3417, "lon": -85.7973}, "countryCode": "US"}, "averageDailyFlights": 0.14, "operators": [{"name": "GAJ"}]}, {"destination": {"icao": "KAGC", "iata": "AGC", "name": "Pittsburgh Allegheny County", "shortName": "Allegheny County", "municipalityName": "Pittsburgh", "location": {"lat": 40.3544, "lon": -79.9302}, "countryCode": "US"}, "averageDailyFlights": 0.14, "operators": [{"name": "LXJ"}]}, {"destination": {"icao": "KTLH", "iata": "TLH", "name": "Tallahassee Regional", "shortName": "Regional", "municipalityName": "Tallahassee", "location": {"lat": 30.3965, "lon": -84.3503}, "countryCode": "US"}, "averageDailyFlights": 0.14, "operators": [{"name": "NetJets Aviation", "iata": "1I", "icao": "EJA"}]}, {"destination": {"icao": "KVRB", "iata": "VRB", "name": "Vero Beach Municipal", "shortName": "Municipal", "municipalityName": "Vero Beach", "location": {"lat": 27.6556, "lon": -80.4179}, "countryCode": "US"}, "averageDailyFlights": 0.14, "operators": [{"name": "MVP"}]}, {"destination": {"icao": "KILM", "iata": "ILM", "name": "Wilmington ", "shortName": "Wilmington", "municipalityName": "Wilmington", "location": {"lat": 34.2706, "lon": -77.9026}, "countryCode": "US"}, "averageDailyFlights": 0.14, "operators": [{"name": "TFF"}]}]}