{"routes": [{"destination": {"icao": "KAPA", "iata": "APA", "name": "Denver Centennial", "shortName": "Centennial", "municipalityName": "Denver", "location": {"lat": 39.5701, "lon": -104.849}, "countryCode": "US"}, "averageDailyFlights": 0.93, "operators": [{"name": "SIH"}, {"name": "Libyan Airlines", "iata": "LN", "icao": "LAA"}, {"name": "Denver Air Connection", "iata": "KG", "icao": "LYM"}]}, {"destination": {"icao": "KBFF", "iata": "BFF", "name": "Scottsbluff William B. Heilig", "shortName": "William B. Heilig", "municipalityName": "Scottsbluff", "location": {"lat": 41.874, "lon": -103.596}, "countryCode": "US"}, "averageDailyFlights": 0.29, "operators": [{"name": "Denver Air Connection", "iata": "KG", "icao": "LYM"}]}, {"destination": {"icao": "KHDN", "iata": "HDN", "name": "Hayden Yampa Valley", "shortName": "Yampa Valley", "municipalityName": "Hayden", "location": {"lat": 40.4812, "lon": -107.218}, "countryCode": "US"}, "averageDailyFlights": 0.14, "operators": [{"name": "SIH"}]}, {"destination": {"icao": "KLXN", "iata": "LXN", "name": "Lexington Jim Kelly Field", "shortName": "Jim Kelly Field", "municipalityName": "Lexington", "location": {"lat": 40.791, "lon": -99.7773}, "countryCode": "US"}, "averageDailyFlights": 0.14, "operators": [{"name": "SIH"}]}, {"destination": {"icao": "KATY", "iata": "ATY", "name": "Watertown Regional", "shortName": "Regional", "municipalityName": "Watertown", "location": {"lat": 44.914, "lon": -97.1547}, "countryCode": "US"}, "averageDailyFlights": 0.14, "operators": [{"name": "CXK"}]}]}