{"routes": [{"destination": {"icao": "KSDY", "iata": "SDY", "name": "Sidney Richland Municipal", "shortName": "Richland Municipal", "municipalityName": "Sidney", "location": {"lat": 47.7069, "lon": -104.193}, "countryCode": "US"}, "averageDailyFlights": 4.0, "operators": [{"name": "Cape Air", "iata": "9K", "icao": "KAP"}]}, {"destination": {"icao": "KDEN", "iata": "DEN", "name": "Denver ", "shortName": "Denver", "municipalityName": "Denver", "location": {"lat": 39.8617, "lon": -104.673}, "countryCode": "US"}, "averageDailyFlights": 3.43, "operators": [{"name": "Delta Air Lines", "iata": "DL", "icao": "DAL"}, {"name": "United Airlines", "iata": "UA", "icao": "UAL"}]}, {"destination": {"icao": "KOLF", "iata": "OLF", "name": "Wolf Point L M Clayton", "shortName": "L M Clayton", "municipalityName": "Wolf Point", "location": {"lat": 48.0945, "lon": -105.575}, "countryCode": "US"}, "averageDailyFlights": 3.29, "operators": [{"name": "RCA"}, {"name": "Cape Air", "iata": "9K", "icao": "KAP"}, {"name": "Alpine Air Express", "iata": "5A", "icao": "AIP"}]}, {"destination": {"icao": "KSLC", "iata": "SLC", "name": "Salt Lake City ", "shortName": "Salt Lake City", "municipalityName": "Salt Lake City", "location": {"lat": 40.7884, "lon": -111.978}, "countryCode": "US"}, "averageDailyFlights": 3.0, "operators": [{"name": "Delta Air Lines", "iata": "DL", "icao": "DAL"}]}, {"destination": {"icao": "KBTM", "iata": "BTM", "name": "Butte Bert Mooney", "shortName": "Bert Mooney", "municipalityName": "Butte", "location": {"lat": 45.9548, "lon": -112.497}, "countryCode": "US"}, "averageDailyFlights": 2.57, "operators": [{"name": "Alpine Air Express", "iata": "5A", "icao": "AIP"}, {"name": "TTE"}]}, {"destination": {"icao": "KDFW", "iata": "DFW", "name": "Dallas-Fort Worth ", "shortName": "Dallas-Fort Worth", "municipalityName": "Dallas-Fort Worth", "location": {"lat": 32.8968, "lon": -97.038}, "countryCode": "US"}, "averageDailyFlights": 2.45, "operators": [{"name": "Envoy Air", "iata": "MQ", "icao": "ENY"}, {"name": "American Airlines", "iata": "AA", "icao": "AAL"}]}, {"destination": {"icao": "KHVR", "iata": "HVR", "name": "Havre City County", "shortName": "City County", "municipalityName": "Havre", "location": {"lat": 48.543, "lon": -109.762}, "countryCode": "US"}, "averageDailyFlights": 2.43, "operators": [{"name": "RCA"}, {"name": "Cape Air", "iata": "9K", "icao": "KAP"}]}, {"destination": {"icao": "KSEA", "iata": "SEA", "name": "Seattle Tacoma", "shortName": "Tacoma", "municipalityName": "Seattle", "location": {"lat": 47.449, "lon": -122.309}, "countryCode": "US"}, "averageDailyFlights": 2.43, "operators": [{"name": "Alaska Airlines", "iata": "AS", "icao": "ASA"}]}, {"destination": {"icao": "KGGW", "iata": "GGW", "name": "Glasgow Wokal Field", "shortName": "Wokal Field", "municipalityName": "Glasgow", "location": {"lat": 48.2125, "lon": -106.615}, "countryCode": "US"}, "averageDailyFlights": 2.29, "operators": [{"name": "Alpine Air Express", "iata": "5A", "icao": "AIP"}, {"name": "Cape Air", "iata": "9K", "icao": "KAP"}, {"name": "Portugalia Airlines", "iata": "NI", "icao": "PGA"}]}, {"destination": {"icao": "KGTF", "iata": "GTF", "name": "Great Falls ", "shortName": "Great Falls", "municipalityName": "Great Falls", "location": {"lat": 47.482, "lon": -111.371}, "countryCode": "US"}, "averageDailyFlights": 2.29, "operators": [{"name": "Libyan Airlines", "iata": "LN", "icao": "LAA"}, {"name": "Alpine Air Express", "iata": "5A", "icao": "AIP"}]}, {"destination": {"icao": "KMSO", "iata": "MSO", "name": "Missoula ", "shortName": "Missoula", "municipalityName": "Missoula", "location": {"lat": 46.9163, "lon": -114.091}, "countryCode": "US"}, "averageDailyFlights": 2.14, "operators": [{"name": "Alpine Air Express", "iata": "5A", "icao": "AIP"}]}, {"destination": {"icao": "KGDV", "iata": "GDV", "name": "Glendive Dawson Community", "shortName": "Dawson Community", "municipalityName": "Glendive", "location": {"lat": 47.1387, "lon": -104.807}, "countryCode": "US"}, "averageDailyFlights": 1.86, "operators": [{"name": "Cape Air", "iata": "9K", "icao": "KAP"}, {"name": "Alpine Air Express", "iata": "5A", "icao": "AIP"}]}, {"destination": {"icao": "KGPI", "iata": "FCA", "name": "Kalispell Glacier Park", "shortName": "Glacier Park", "municipalityName": "Kalispell", "location": {"lat": 48.3105, "lon": -114.256}, "countryCode": "US"}, "averageDailyFlights": 1.43, "operators": [{"name": "Alpine Air Express", "iata": "5A", "icao": "AIP"}, {"name": "TMB"}, {"name": "LXJ"}]}, {"destination": {"icao": "KMLS", "iata": "MLS", "name": "Miles City Frank Wiley Field", "shortName": "Frank Wiley Field", "municipalityName": "Miles City", "location": {"lat": 46.428, "lon": -105.886}, "countryCode": "US"}, "averageDailyFlights": 1.43, "operators": [{"name": "Alpine Air Express", "iata": "5A", "icao": "AIP"}, {"name": "RCA"}, {"name": "Nordwind Airlines", "iata": "N4", "icao": "NWS"}]}, {"destination": {"icao": "KBZN", "iata": "BZN", "name": "Bozeman Gallatin Field", "shortName": "Gallatin Field", "municipalityName": "Bozeman", "location": {"lat": 45.7775, "lon": -111.153}, "countryCode": "US"}, "averageDailyFlights": 1.14, "operators": [{"name": "Alpine Air Express", "iata": "5A", "icao": "AIP"}]}, {"destination": {"icao": "KORD", "iata": "ORD", "name": "Chicago O'Hare", "shortName": "O'Hare", "municipalityName": "Chicago", "location": {"lat": 41.9786, "lon": -87.9048}, "countryCode": "US"}, "averageDailyFlights": 1.14, "operators": [{"name": "Envoy Air", "iata": "MQ", "icao": "ENY"}]}, {"destination": {"icao": "KHLN", "iata": "HLN", "name": "Helena Regional", "shortName": "Regional", "municipalityName": "Helena", "location": {"lat": 46.6068, "lon": -111.983}, "countryCode": "US"}, "averageDailyFlights": 1.14, "operators": [{"name": "Alpine Air Express", "iata": "5A", "icao": "AIP"}]}, {"destination": {"icao": "KMSP", "iata": "MSP", "name": "Minneapolis Wold-Chamberlain", "shortName": "Wold-Chamberlain", "municipalityName": "Minneapolis", "location": {"lat": 44.882, "lon": -93.2218}, "countryCode": "US"}, "averageDailyFlights": 1.14, "operators": [{"name": "Delta Air Lines", "iata": "DL", "icao": "DAL"}]}, {"destination": {"icao": "KGCC", "iata": "GCC", "name": "Gillette Campbell County", "shortName": "Campbell County", "municipalityName": "Gillette", "location": {"lat": 44.3489, "lon": -105.539}, "countryCode": "US"}, "averageDailyFlights": 1.0, "operators": [{"name": "Alpine Air Express", "iata": "5A", "icao": "AIP"}]}, {"destination": {"icao": "KCTB", "iata": "CTB", "name": "Cut Bank ", "shortName": "Cut Bank", "municipalityName": "Cut Bank", "location": {"lat": 48.6084, "lon": -112.376}, "countryCode": "US"}, "averageDailyFlights": 0.86, "operators": [{"name": "Alpine Air Express", "iata": "5A", "icao": "AIP"}]}, {"destination": {"icao": "KSHR", "iata": "SHR", "name": "Sheridan County", "shortName": "County", "municipalityName": "Sheridan", "location": {"lat": 44.7692, "lon": -106.98}, "countryCode": "US"}, "averageDailyFlights": 0.86, "operators": [{"name": "RCA"}]}, {"destination": {"icao": "KCOS", "iata": "COS", "name": "Colorado Springs City of  Municipal", "shortName": "City of  Municipal", "municipalityName": "Colorado Springs", "location": {"lat": 38.8058, "lon": -104.701}, "countryCode": "US"}, "averageDailyFlights": 0.57, "operators": [{"name": "SkyWest Airlines", "iata": "OO", "icao": "SKW"}, {"name": "OKC"}]}, {"destination": {"icao": "KLWT", "iata": "LWT", "name": "Lewistown Municipal", "shortName": "Municipal", "municipalityName": "Lewistown", "location": {"lat": 47.0493, "lon": -109.467}, "countryCode": "US"}, "averageDailyFlights": 0.57, "operators": [{"name": "Alpine Air Express", "iata": "5A", "icao": "AIP"}]}, {"destination": {"icao": "KAPA", "iata": "APA", "name": "Denver Centennial", "shortName": "Centennial", "municipalityName": "Denver", "location": {"lat": 39.5701, "lon": -104.849}, "countryCode": "US"}, "averageDailyFlights": 0.43, "operators": [{"name": "NetJets Aviation", "iata": "1I", "icao": "EJA"}, {"name": "Libyan Airlines", "iata": "LN", "icao": "LAA"}]}, {"destination": {"icao": "KLAS", "iata": "LAS", "name": "Las Vegas McCarran", "shortName": "McCarran", "municipalityName": "Las Vegas", "location": {"lat": 36.0801, "lon": -115.152}, "countryCode": "US"}, "averageDailyFlights": 0.43, "operators": [{"name": "Allegiant Air", "iata": "G4", "icao": "AAY"}]}, {"destination": {"icao": "KIWA", "iata": "AZA", "name": "Phoenix -Mesa-Gateway", "shortName": "-Mesa-Gateway", "municipalityName": "Phoenix", "location": {"lat": 33.3078, "lon": -111.655}, "countryCode": "US"}, "averageDailyFlights": 0.43, "operators": [{"name": "Allegiant Air", "iata": "G4", "icao": "AAY"}]}, {"destination": {"icao": "KBIL", "iata": "BIL", "name": "Billings Metropolitan Area Billings Logan", "shortName": "Billings Logan", "municipalityName": "Billings Metropolitan Area", "location": {"lat": 45.8077, "lon": -108.543}, "countryCode": "US"}, "averageDailyFlights": 0.29, "operators": [{"name": "Nordwind Airlines", "iata": "N4", "icao": "NWS"}]}, {"destination": {"icao": "KADS", "iata": "ADS", "name": "Dallas Addison", "shortName": "Addison", "municipalityName": "Dallas", "location": {"lat": 32.9686, "lon": -96.8364}, "countryCode": "US"}, "averageDailyFlights": 0.29, "operators": [{"name": "NetJets Aviation", "iata": "1I", "icao": "EJA"}]}, {"destination": {"icao": "KBHM", "iata": "BHM", "name": "Birmingham -Shuttlesworth", "shortName": "-Shuttlesworth", "municipalityName": "Birmingham", "location": {"lat": 33.5629, "lon": -86.7535}, "countryCode": "US"}, "averageDailyFlights": 0.14, "operators": [{"name": "NetJets Aviation", "iata": "1I", "icao": "EJA"}]}, {"destination": {"icao": "KDLN", "iata": "DLN", "name": "Dillon ", "shortName": "Dillon", "municipalityName": "Dillon", "location": {"lat": 45.2554, "lon": -112.553}, "countryCode": "US"}, "averageDailyFlights": 0.14, "operators": [{"name": "Libyan Airlines", "iata": "LN", "icao": "LAA"}]}, {"destination": {"icao": "KSUN", "iata": "SUN", "name": "Hailey Friedman Memorial", "shortName": "Friedman Memorial", "municipalityName": "Hailey", "location": {"lat": 43.5044, "lon": -114.296}, "countryCode": "US"}, "averageDailyFlights": 0.14, "operators": [{"name": "NetJets Aviation", "iata": "1I", "icao": "EJA"}]}, {"destination": {"icao": "KHYS", "iata": "HYS", "name": "Hays Regional", "shortName": "Regional", "municipalityName": "Hays", "location": {"lat": 38.8422, "lon": -99.2732}, "countryCode": "US"}, "averageDailyFlights": 0.14, "operators": [{"name": "TMB"}]}, {"destination": {"icao": "KLWS", "iata": "LWS", "name": "Lewiston Nez Perce County", "shortName": "Nez Perce County", "municipalityName": "Lewiston", "location": {"lat": 46.3745, "lon": -117.015}, "countryCode": "US"}, "averageDailyFlights": 0.14, "operators": [{"name": "Libyan Airlines", "iata": "LN", "icao": "LAA"}]}, {"destination": {"icao": "KMSN", "iata": "MSN", "name": "Madison Dane County Regional Truax Field", "shortName": "Dane County Regional Truax Field", "municipalityName": "Madison", "location": {"lat": 43.1399, "lon": -89.3375}, "countryCode": "US"}, "averageDailyFlights": 0.14, "operators": [{"name": "JSL"}]}, {"destination": {"icao": "KMFR", "iata": "MFR", "name": "Medford Rogue Valley", "shortName": "Rogue Valley", "municipalityName": "Medford", "location": {"lat": 42.3742, "lon": -122.873}, "countryCode": "US"}, "averageDailyFlights": 0.14, "operators": [{"name": "BGR"}]}, {"destination": {"icao": "KMKE", "iata": "MKE", "name": "Milwaukee General Mitchell", "shortName": "General Mitchell", "municipalityName": "Milwaukee", "location": {"lat": 42.9472, "lon": -87.8966}, "countryCode": "US"}, "averageDailyFlights": 0.14, "operators": [{"name": "Libyan Airlines", "iata": "LN", "icao": "LAA"}]}, {"destination": {"icao": "KPDX", "iata": "PDX", "name": "Portland ", "shortName": "Portland", "municipalityName": "Portland", "location": {"lat": 45.5887, "lon": -122.598}, "countryCode": "US"}, "averageDailyFlights": 0.14, "operators": [{"name": "Alaska Airlines", "iata": "AS", "icao": "ASA"}]}, {"destination": {"icao": "KSDL", "iata": "SCF", "name": "Scottsdale ", "shortName": "Scottsdale", "municipalityName": "Scottsdale", "location": {"lat": 33.6229, "lon": -111.911}, "countryCode": "US"}, "averageDailyFlights": 0.14, "operators": [{"name": "Jet Linx Aviation", "iata": "JL", "icao": "JTL"}]}, {"destination": {"icao": "KBFI", "iata": "BFI", "name": "Seattle Boeing Field King County", "shortName": "Boeing Field King County", "municipalityName": "Seattle", "location": {"lat": 47.53, "lon": -122.302}, "countryCode": "US"}, "averageDailyFlights": 0.14, "operators": [{"name": "Libyan Airlines", "iata": "LN", "icao": "LAA"}]}, {"destination": {"icao": "KSGU", "iata": "SGU", "name": "St. George St George Municipal", "shortName": "St George Municipal", "municipalityName": "St. George", "location": {"lat": 37.03639, "lon": -113.51031}, "countryCode": "US"}, "averageDailyFlights": 0.14, "operators": [{"name": "NetJets Aviation", "iata": "1I", "icao": "EJA"}]}, {"destination": {"icao": "KTUS", "iata": "TUS", "name": "Tucson ", "shortName": "Tucson", "municipalityName": "Tucson", "location": {"lat": 32.1161, "lon": -110.941}, "countryCode": "US"}, "averageDailyFlights": 0.14, "operators": [{"name": "Sierra Pacific Airlines", "iata": "SI", "icao": "SPA"}]}, {"destination": {"icao": "KWYS", "iata": "WYS", "name": "West Yellowstone Yellowstone", "shortName": "Yellowstone", "municipalityName": "West Yellowstone", "location": {"lat": 44.6884, "lon": -111.118}, "countryCode": "US"}, "averageDailyFlights": 0.14, "operators": [{"name": "JRE"}]}]}