{"routes": [{"destination": {"icao": "KCLT", "iata": "CLT", "name": "Charlotte Douglas", "shortName": "Douglas", "municipalityName": "Charlotte", "location": {"lat": 35.214, "lon": -80.9431}, "countryCode": "US"}, "averageDailyFlights": 4.86, "operators": [{"name": "American Airlines", "iata": "AA", "icao": "AAL"}]}, {"destination": {"icao": "KORD", "iata": "ORD", "name": "Chicago O'Hare", "shortName": "O'Hare", "municipalityName": "Chicago", "location": {"lat": 41.9786, "lon": -87.9048}, "countryCode": "US"}, "averageDailyFlights": 3.14, "operators": [{"name": "Delta Air Lines", "iata": "DL", "icao": "DAL"}, {"name": "United Airlines", "iata": "UA", "icao": "UAL"}]}, {"destination": {"icao": "KATL", "iata": "ATL", "name": "Atlanta Hartsfield Jackson", "shortName": "Hartsfield Jackson", "municipalityName": "Atlanta", "location": {"lat": 33.6367, "lon": -84.4281}, "countryCode": "US"}, "averageDailyFlights": 1.57, "operators": [{"name": "Delta Air Lines", "iata": "DL", "icao": "DAL"}]}, {"destination": {"icao": "KOSU", "iata": "OSU", "name": "Columbus Ohio State University", "shortName": "Ohio State University", "municipalityName": "Columbus", "location": {"lat": 40.0798, "lon": -83.073}, "countryCode": "US"}, "averageDailyFlights": 1.43, "operators": [{"name": "SKQ"}]}, {"destination": {"icao": "KDCA", "iata": "DCA", "name": "District of Columbia Ronald Reagan Washington National", "shortName": "Ronald Reagan Washington National", "municipalityName": "District of Columbia", "location": {"lat": 38.8521, "lon": -77.0377}, "countryCode": "US"}, "averageDailyFlights": 1.43, "operators": [{"name": "American Airlines", "iata": "AA", "icao": "AAL"}]}, {"destination": {"icao": "KMCO", "iata": "MCO", "name": "Orlando ", "shortName": "Orlando", "municipalityName": "Orlando", "location": {"lat": 28.4294, "lon": -81.309}, "countryCode": "US"}, "averageDailyFlights": 1.43, "operators": [{"name": "MXY"}]}, {"destination": {"icao": "KDTW", "iata": "DTW", "name": "Detroit Metropolitan Wayne County", "shortName": "Metropolitan Wayne County", "municipalityName": "Detroit", "location": {"lat": 42.2124, "lon": -83.3534}, "countryCode": "US"}, "averageDailyFlights": 1.14, "operators": [{"name": "Delta Air Lines", "iata": "DL", "icao": "DAL"}]}, {"destination": {"icao": "KHTS", "iata": "HTS", "name": "Huntington Milton J. Ferguson Field", "shortName": "Milton J. Ferguson Field", "municipalityName": "Huntington", "location": {"lat": 38.3667, "lon": -82.558}, "countryCode": "US"}, "averageDailyFlights": 0.86, "operators": [{"name": "HRD"}]}, {"destination": {"icao": "KCHS", "iata": "CHS", "name": "Charleston Air Force Base-", "shortName": "Air Force Base-", "municipalityName": "Charleston", "location": {"lat": 32.8986, "lon": -80.0405}, "countryCode": "US"}, "averageDailyFlights": 0.29, "operators": [{"name": "MXY"}]}, {"destination": {"icao": "KCMH", "iata": "CMH", "name": "Columbus Port", "shortName": "Port", "municipalityName": "Columbus", "location": {"lat": 39.998, "lon": -82.8919}, "countryCode": "US"}, "averageDailyFlights": 0.29, "operators": [{"name": "HRD"}]}, {"destination": {"icao": "KLZU", "iata": "LZU", "name": "Lawrenceville Gwinnett County Briscoe Field", "shortName": "Gwinnett County Briscoe Field", "municipalityName": "Lawrenceville", "location": {"lat": 33.9781, "lon": -83.9624}, "countryCode": "US"}, "averageDailyFlights": 0.29, "operators": [{"name": "Libyan Airlines", "iata": "LN", "icao": "LAA"}]}, {"destination": {"icao": "KPKB", "iata": "PKB", "name": "Parkersburg Mid Ohio Valley Regional", "shortName": "Mid Ohio Valley Regional", "municipalityName": "Parkersburg", "location": {"lat": 39.3451, "lon": -81.4392}, "countryCode": "US"}, "averageDailyFlights": 0.29, "operators": [{"name": "HRD"}]}, {"destination": {"icao": "KAVP", "iata": "AVP", "name": "Wilkes-Barre/Scranton Wilkes Barre Scranton", "shortName": "Wilkes Barre Scranton", "municipalityName": "Wilkes-Barre/Scranton", "location": {"lat": 41.3385, "lon": -75.7234}, "countryCode": "US"}, "averageDailyFlights": 0.29, "operators": [{"name": "LJY"}]}, {"destination": {"icao": "KDAL", "iata": "DAL", "name": "Dallas Love Field", "shortName": "Love Field", "municipalityName": "Dallas", "location": {"lat": 32.8471, "lon": -96.8518}, "countryCode": "US"}, "averageDailyFlights": 0.14, "operators": [{"name": "NetJets Aviation", "iata": "1I", "icao": "EJA"}]}, {"destination": {"icao": "KIAD", "iata": "IAD", "name": "District of Columbia Washington Dulles", "shortName": "Washington Dulles", "municipalityName": "District of Columbia", "location": {"lat": 38.9445, "lon": -77.4558}, "countryCode": "US"}, "averageDailyFlights": 0.14, "operators": [{"name": "Jet Linx Aviation", "iata": "JL", "icao": "JTL"}]}, {"destination": {"icao": "KDLH", "iata": "DLH", "name": "Duluth ", "shortName": "Duluth", "municipalityName": "Duluth", "location": {"lat": 46.8421, "lon": -92.1936}, "countryCode": "US"}, "averageDailyFlights": 0.14, "operators": [{"name": "SkyWest Airlines", "iata": "OO", "icao": "SKW"}]}, {"destination": {"icao": "KTYS", "iata": "TYS", "name": "Knoxville McGhee Tyson", "shortName": "McGhee Tyson", "municipalityName": "Knoxville", "location": {"lat": 35.811, "lon": -83.994}, "countryCode": "US"}, "averageDailyFlights": 0.14, "operators": [{"name": "NetJets Aviation", "iata": "1I", "icao": "EJA"}]}]}