{"routes": [{"destination": {"icao": "KMSP", "iata": "MSP", "name": "Minneapolis Wold-Chamberlain", "shortName": "Wold-Chamberlain", "municipalityName": "Minneapolis", "location": {"lat": 44.882, "lon": -93.2218}, "countryCode": "US"}, "averageDailyFlights": 2.43, "operators": [{"name": "Delta Air Lines", "iata": "DL", "icao": "DAL"}]}, {"destination": {"icao": "KORD", "iata": "ORD", "name": "Chicago O'Hare", "shortName": "O'Hare", "municipalityName": "Chicago", "location": {"lat": 41.9786, "lon": -87.9048}, "countryCode": "US"}, "averageDailyFlights": 2.29, "operators": [{"name": "American Airlines", "iata": "AA", "icao": "AAL"}, {"name": "Air Wisconsin", "iata": "ZW", "icao": "AWI"}]}, {"destination": {"icao": "KMKE", "iata": "MKE", "name": "Milwaukee General Mitchell", "shortName": "General Mitchell", "municipalityName": "Milwaukee", "location": {"lat": 42.9472, "lon": -87.8966}, "countryCode": "US"}, "averageDailyFlights": 1.14, "operators": [{"name": "FRG"}, {"name": "IRO"}]}, {"destination": {"icao": "KMSN", "iata": "MSN", "name": "Madison Dane County Regional Truax Field", "shortName": "Dane County Regional Truax Field", "municipalityName": "Madison", "location": {"lat": 43.1399, "lon": -89.3375}, "countryCode": "US"}, "averageDailyFlights": 0.57, "operators": [{"name": "IRO"}]}, {"destination": {"icao": "KLSE", "iata": "LSE", "name": "La Crosse Municipal", "shortName": "Municipal", "municipalityName": "La Crosse", "location": {"lat": 43.879, "lon": -91.2567}, "countryCode": "US"}, "averageDailyFlights": 0.29, "operators": [{"name": "Sun Country Airlines", "iata": "SY", "icao": "SCX"}]}, {"destination": {"icao": "KDAL", "iata": "DAL", "name": "Dallas Love Field", "shortName": "Love Field", "municipalityName": "Dallas", "location": {"lat": 32.8471, "lon": -96.8518}, "countryCode": "US"}, "averageDailyFlights": 0.14, "operators": [{"name": "SCM"}]}, {"destination": {"icao": "KJVL", "iata": "JVL", "name": "Janesville Southern Wisconsin Regional", "shortName": "Southern Wisconsin Regional", "municipalityName": "Janesville", "location": {"lat": 42.6203, "lon": -89.0416}, "countryCode": "US"}, "averageDailyFlights": 0.14, "operators": [{"name": "COL"}]}, {"destination": {"icao": "KOSH", "iata": "OSH", "name": "Oshkosh Wittman Regional", "shortName": "Wittman Regional", "municipalityName": "Oshkosh", "location": {"lat": 43.9844, "lon": -88.557}, "countryCode": "US"}, "averageDailyFlights": 0.14, "operators": [{"name": "WIS"}]}]}