{"routes": [{"destination": {"icao": "KJMS", "iata": "JMS", "name": "Jamestown Regional", "shortName": "Regional", "municipalityName": "Jamestown", "location": {"lat": 46.9297, "lon": -98.6782}, "countryCode": "US"}, "averageDailyFlights": 2.57, "operators": [{"name": "SkyWest Airlines", "iata": "OO", "icao": "SKW"}, {"name": "NDU"}]}, {"destination": {"icao": "KGFK", "iata": "GFK", "name": "Grand Forks ", "shortName": "Grand Forks", "municipalityName": "Grand Forks", "location": {"lat": 47.9493, "lon": -97.1761}, "countryCode": "US"}, "averageDailyFlights": 1.86, "operators": [{"name": "NDU"}]}, {"destination": {"icao": "KDEN", "iata": "DEN", "name": "Denver ", "shortName": "Denver", "municipalityName": "Denver", "location": {"lat": 39.8617, "lon": -104.673}, "countryCode": "US"}, "averageDailyFlights": 1.29, "operators": [{"name": "SkyWest Airlines", "iata": "OO", "icao": "SKW"}, {"name": "United Airlines", "iata": "UA", "icao": "UAL"}]}, {"destination": {"icao": "KFAR", "iata": "FAR", "name": "Fargo Hector", "shortName": "Hector", "municipalityName": "Fargo", "location": {"lat": 46.9207, "lon": -96.8158}, "countryCode": "US"}, "averageDailyFlights": 0.29, "operators": [{"name": "Bemidji Aviation", "iata": "CH", "icao": "BMJ"}, {"name": "NDU"}]}, {"destination": {"icao": "KSGF", "iata": "SGF", "name": "Springfield Branson National", "shortName": "Branson National", "municipalityName": "Springfield", "location": {"lat": 37.2457, "lon": -93.3886}, "countryCode": "US"}, "averageDailyFlights": 0.14, "operators": [{"name": "SkyWest Airlines", "iata": "OO", "icao": "SKW"}]}, {"destination": {"icao": "KTVF", "iata": "TVF", "name": "Thief River Falls Regional", "shortName": "Regional", "municipalityName": "Thief River Falls", "location": {"lat": 48.0657, "lon": -96.185}, "countryCode": "US"}, "averageDailyFlights": 0.14, "operators": [{"name": "NDU"}]}]}