{"routes": [{"destination": {"icao": "KBFI", "iata": "BFI", "name": "Seattle Boeing Field King County", "shortName": "Boeing Field King County", "municipalityName": "Seattle", "location": {"lat": 47.53, "lon": -122.302}, "countryCode": "US"}, "averageDailyFlights": 2.86, "operators": [{"name": "Kenmore Air", "iata": "M5", "icao": "KEN"}, {"name": "N1"}, {"name": "JCY"}]}, {"destination": {"icao": "KPAE", "iata": "PAE", "name": "Everett Snohomish County (Paine Field)", "shortName": "Snohomish County (Paine Field)", "municipalityName": "Everett", "location": {"lat": 47.9063, "lon": -122.282}, "countryCode": "US"}, "averageDailyFlights": 2.43, "operators": [{"name": "Kenmore Air", "iata": "M5", "icao": "KEN"}]}, {"destination": {"icao": "KORS", "iata": "ESD", "name": "Eastsound Orcas Island", "shortName": "Orcas Island", "municipalityName": "Eastsound", "location": {"lat": 48.7082, "lon": -122.91}, "countryCode": "US"}, "averageDailyFlights": 1.0, "operators": [{"name": "Kenmore Air", "iata": "M5", "icao": "KEN"}, {"name": "Empire Airlines", "iata": "EM", "icao": "CFS"}]}, {"destination": {"name": "Victoria"}, "averageDailyFlights": 1.0, "operators": [{"name": "Kenmore Air", "iata": "M5", "icao": "KEN"}]}, {"destination": {"icao": "KBLI", "iata": "BLI", "name": "Bellingham ", "shortName": "Bellingham", "municipalityName": "Bellingham", "location": {"lat": 48.7928, "lon": -122.538}, "countryCode": "US"}, "averageDailyFlights": 0.43, "operators": [{"name": "PXT"}, {"name": "GAJ"}]}, {"destination": {"icao": "KBVS", "iata": "MVW", "name": "Burlington/Mount Vernon Skagit Regional", "shortName": "Skagit Regional", "municipalityName": "Burlington/Mount Vernon", "location": {"lat": 48.4709, "lon": -122.421}, "countryCode": "US"}, "averageDailyFlights": 0.14, "operators": [{"name": "FFL"}]}, {"destination": {"icao": "KTMK", "iata": "OTK", "name": "Tillamook ", "shortName": "Tillamook", "municipalityName": "Tillamook", "location": {"lat": 45.4182, "lon": -123.814}, "countryCode": "US"}, "averageDailyFlights": 0.14, "operators": [{"name": "FFL"}]}]}