{"routes": [{"destination": {"icao": "KMYF", "iata": "MYF", "name": "San Diego Montgomery Field", "shortName": "Montgomery Field", "municipalityName": "San Diego", "location": {"lat": 32.8157, "lon": -117.14}, "countryCode": "US"}, "averageDailyFlights": 2.0, "operators": [{"name": "CXK"}]}, {"destination": {"name": "Provo"}, "averageDailyFlights": 2.0, "operators": [{"name": "Allegiant Air", "iata": "G4", "icao": "AAY"}]}, {"destination": {"icao": "KNYL", "iata": "YUM", "name": "Yuma ", "shortName": "Yuma", "municipalityName": "Yuma", "location": {"lat": 32.6566, "lon": -114.606}, "countryCode": "US"}, "averageDailyFlights": 1.14, "operators": [{"name": "CXK"}, {"name": "Swift Air", "iata": "WQ", "icao": "SWQ"}, {"name": "NDU"}]}, {"destination": {"icao": "KIDA", "iata": "IDA", "name": "Idaho Falls Regional", "shortName": "Regional", "municipalityName": "Idaho Falls", "location": {"lat": 43.5146, "lon": -112.071}, "countryCode": "US"}, "averageDailyFlights": 1.0, "operators": [{"name": "Allegiant Air", "iata": "G4", "icao": "AAY"}]}, {"destination": {"icao": "KATW", "iata": "ATW", "name": "Appleton ", "shortName": "Appleton", "municipalityName": "Appleton", "location": {"lat": 44.2581, "lon": -88.5191}, "countryCode": "US"}, "averageDailyFlights": 0.71, "operators": [{"name": "Allegiant Air", "iata": "G4", "icao": "AAY"}]}, {"destination": {"icao": "KCRQ", "iata": "CLD", "name": "Carlsbad Mc Clellan-Palomar", "shortName": "Mc Clellan-Palomar", "municipalityName": "Carlsbad", "location": {"lat": 33.1283, "lon": -117.28}, "countryCode": "US"}, "averageDailyFlights": 0.71, "operators": [{"name": "CXK"}, {"name": "N1"}]}, {"destination": {"icao": "KDSM", "iata": "DSM", "name": "Des Moines ", "shortName": "Des Moines", "municipalityName": "Des Moines", "location": {"lat": 41.534, "lon": -93.6631}, "countryCode": "US"}, "averageDailyFlights": 0.71, "operators": [{"name": "Allegiant Air", "iata": "G4", "icao": "AAY"}]}, {"destination": {"icao": "KGRR", "iata": "GRR", "name": "Grand Rapids Gerald R. Ford", "shortName": "Gerald R. Ford", "municipalityName": "Grand Rapids", "location": {"lat": 42.8808, "lon": -85.5228}, "countryCode": "US"}, "averageDailyFlights": 0.71, "operators": [{"name": "Allegiant Air", "iata": "G4", "icao": "AAY"}]}, {"destination": {"icao": "KFSD", "iata": "FSD", "name": "Sioux Falls Joe Foss Field", "shortName": "Joe Foss Field", "municipalityName": "Sioux Falls", "location": {"lat": 43.582, "lon": -96.7419}, "countryCode": "US"}, "averageDailyFlights": 0.71, "operators": [{"name": "Allegiant Air", "iata": "G4", "icao": "AAY"}]}, {"destination": {"icao": "KBIS", "iata": "BIS", "name": "Bismarck Municipal", "shortName": "Municipal", "municipalityName": "Bismarck", "location": {"lat": 46.7727, "lon": -100.746}, "countryCode": "US"}, "averageDailyFlights": 0.57, "operators": [{"name": "Allegiant Air", "iata": "G4", "icao": "AAY"}]}, {"destination": {"icao": "KBZN", "iata": "BZN", "name": "Bozeman Gallatin Field", "shortName": "Gallatin Field", "municipalityName": "Bozeman", "location": {"lat": 45.7775, "lon": -111.153}, "countryCode": "US"}, "averageDailyFlights": 0.57, "operators": [{"name": "Allegiant Air", "iata": "G4", "icao": "AAY"}]}, {"destination": {"icao": "KFAR", "iata": "FAR", "name": "Fargo Hector", "shortName": "Hector", "municipalityName": "Fargo", "location": {"lat": 46.9207, "lon": -96.8158}, "countryCode": "US"}, "averageDailyFlights": 0.57, "operators": [{"name": "Allegiant Air", "iata": "G4", "icao": "AAY"}]}, {"destination": {"icao": "KRAP", "iata": "RAP", "name": "Rapid City Regional", "shortName": "Regional", "municipalityName": "Rapid City", "location": {"lat": 44.0453, "lon": -103.057}, "countryCode": "US"}, "averageDailyFlights": 0.57, "operators": [{"name": "Allegiant Air", "iata": "G4", "icao": "AAY"}]}, {"destination": {"icao": "KSNA", "iata": "SNA", "name": "Santa Ana John Wayne -Orange County", "shortName": "John Wayne -Orange County", "municipalityName": "Santa Ana", "location": {"lat": 33.6757, "lon": -117.868}, "countryCode": "US"}, "averageDailyFlights": 0.57, "operators": [{"name": "N2"}, {"name": "KFB"}]}, {"destination": {"icao": "KSGF", "iata": "SGF", "name": "Springfield Branson National", "shortName": "Branson National", "municipalityName": "Springfield", "location": {"lat": 37.2457, "lon": -93.3886}, "countryCode": "US"}, "averageDailyFlights": 0.57, "operators": [{"name": "Allegiant Air", "iata": "G4", "icao": "AAY"}]}, {"destination": {"icao": "KBIL", "iata": "BIL", "name": "Billings Metropolitan Area Billings Logan", "shortName": "Billings Logan", "municipalityName": "Billings Metropolitan Area", "location": {"lat": 45.8077, "lon": -108.543}, "countryCode": "US"}, "averageDailyFlights": 0.43, "operators": [{"name": "Allegiant Air", "iata": "G4", "icao": "AAY"}]}, {"destination": {"icao": "KCID", "iata": "CID", "name": "Cedar Rapids The Eastern Iowa", "shortName": "The Eastern Iowa", "municipalityName": "Cedar Rapids", "location": {"lat": 41.8847, "lon": -91.7108}, "countryCode": "US"}, "averageDailyFlights": 0.43, "operators": [{"name": "Allegiant Air", "iata": "G4", "icao": "AAY"}]}, {"destination": {"icao": "KCVG", "iata": "CVG", "name": "Cincinnati Northern Kentucky", "shortName": "Northern Kentucky", "municipalityName": "Cincinnati", "location": {"lat": 39.0488, "lon": -84.6678}, "countryCode": "US"}, "averageDailyFlights": 0.43, "operators": [{"name": "Allegiant Air", "iata": "G4", "icao": "AAY"}]}, {"destination": {"icao": "KDAL", "iata": "DAL", "name": "Dallas Love Field", "shortName": "Love Field", "municipalityName": "Dallas", "location": {"lat": 32.8471, "lon": -96.8518}, "countryCode": "US"}, "averageDailyFlights": 0.43, "operators": [{"name": "LXK"}, {"name": "LXJ"}]}, {"destination": {"icao": "KELP", "iata": "ELP", "name": "El Paso ", "shortName": "El Paso", "municipalityName": "El Paso", "location": {"lat": 31.8072, "lon": -106.378}, "countryCode": "US"}, "averageDailyFlights": 0.43, "operators": [{"name": "CXK"}, {"name": "Swift Air", "iata": "WQ", "icao": "SWQ"}]}, {"destination": {"icao": "KEUG", "iata": "EUG", "name": "Eugene Mahlon Sweet Field", "shortName": "Mahlon Sweet Field", "municipalityName": "Eugene", "location": {"lat": 44.1246, "lon": -123.212}, "countryCode": "US"}, "averageDailyFlights": 0.43, "operators": [{"name": "Allegiant Air", "iata": "G4", "icao": "AAY"}]}, {"destination": {"icao": "KGRI", "iata": "GRI", "name": "Grand Island Central Nebraska Regional", "shortName": "Central Nebraska Regional", "municipalityName": "Grand Island", "location": {"lat": 40.9675, "lon": -98.3096}, "countryCode": "US"}, "averageDailyFlights": 0.43, "operators": [{"name": "Allegiant Air", "iata": "G4", "icao": "AAY"}]}, {"destination": {"icao": "KOMA", "iata": "OMA", "name": "Omaha Eppley Airfield", "shortName": "Eppley Airfield", "municipalityName": "Omaha", "location": {"lat": 41.3032, "lon": -95.8941}, "countryCode": "US"}, "averageDailyFlights": 0.43, "operators": [{"name": "Allegiant Air", "iata": "G4", "icao": "AAY"}]}, {"destination": {"icao": "KPIA", "iata": "PIA", "name": "Peoria General Wayne A. Downing", "shortName": "General Wayne A. Downing", "municipalityName": "Peoria", "location": {"lat": 40.6642, "lon": -89.6933}, "countryCode": "US"}, "averageDailyFlights": 0.43, "operators": [{"name": "Allegiant Air", "iata": "G4", "icao": "AAY"}]}, {"destination": {"icao": "MMPR", "iata": "PVR", "name": "Puerto Vallarta Licenciado Gustavo D\u00edaz Ordaz", "shortName": "Licenciado Gustavo D\u00edaz Ordaz", "municipalityName": "Puerto Vallarta", "location": {"lat": 20.6801, "lon": -105.254}, "countryCode": "MX"}, "averageDailyFlights": 0.43, "operators": [{"name": "DCM"}]}, {"destination": {"icao": "KSAD", "iata": "SAD", "name": "Safford Regional", "shortName": "Regional", "municipalityName": "Safford", "location": {"lat": 32.8548, "lon": -109.635}, "countryCode": "US"}, "averageDailyFlights": 0.43, "operators": [{"name": "CXK"}]}, {"destination": {"icao": "KSAN", "iata": "SAN", "name": "San Diego ", "shortName": "San Diego", "municipalityName": "San Diego", "location": {"lat": 32.7336, "lon": -117.19}, "countryCode": "US"}, "averageDailyFlights": 0.43, "operators": [{"name": "Allegiant Air", "iata": "G4", "icao": "AAY"}]}, {"destination": {"icao": "KSBN", "iata": "SBN", "name": "South Bend Regional", "shortName": "Regional", "municipalityName": "South Bend", "location": {"lat": 41.7087, "lon": -86.3173}, "countryCode": "US"}, "averageDailyFlights": 0.43, "operators": [{"name": "Allegiant Air", "iata": "G4", "icao": "AAY"}]}, {"destination": {"icao": "KGEG", "iata": "GEG", "name": "Spokane ", "shortName": "Spokane", "municipalityName": "Spokane", "location": {"lat": 47.6199, "lon": -117.534}, "countryCode": "US"}, "averageDailyFlights": 0.43, "operators": [{"name": "Allegiant Air", "iata": "G4", "icao": "AAY"}]}, {"destination": {"icao": "KPIE", "iata": "PIE", "name": "St Petersburg-Clearwater St Petersburg Clearwater", "shortName": "St Petersburg Clearwater", "municipalityName": "St Petersburg-Clearwater", "location": {"lat": 27.9102, "lon": -82.6874}, "countryCode": "US"}, "averageDailyFlights": 0.43, "operators": [{"name": "JRE"}, {"name": "FTH"}]}, {"destination": {"icao": "KBLI", "iata": "BLI", "name": "Bellingham ", "shortName": "Bellingham", "municipalityName": "Bellingham", "location": {"lat": 48.7928, "lon": -122.538}, "countryCode": "US"}, "averageDailyFlights": 0.29, "operators": [{"name": "Allegiant Air", "iata": "G4", "icao": "AAY"}]}, {"destination": {"icao": "KBOI", "iata": "BOI", "name": "Boise Gowen field", "shortName": "Gowen field", "municipalityName": "Boise", "location": {"lat": 43.5644, "lon": -116.223}, "countryCode": "US"}, "averageDailyFlights": 0.29, "operators": [{"name": "Allegiant Air", "iata": "G4", "icao": "AAY"}]}, {"destination": {"icao": "KIFP", "iata": "IFP", "name": "Bullhead City Laughlin Bullhead", "shortName": "Laughlin Bullhead", "municipalityName": "Bullhead City", "location": {"lat": 35.1574, "lon": -114.56}, "countryCode": "US"}, "averageDailyFlights": 0.29, "operators": [{"name": "CXK"}]}, {"destination": {"icao": "KRFD", "iata": "RFD", "name": "Chicago/Rockford Chicago Rockford", "shortName": "Chicago Rockford", "municipalityName": "Chicago/Rockford", "location": {"lat": 42.1954, "lon": -89.0972}, "countryCode": "US"}, "averageDailyFlights": 0.29, "operators": [{"name": "Allegiant Air", "iata": "G4", "icao": "AAY"}]}, {"destination": {"icao": "KFNT", "iata": "FNT", "name": "Flint Bishop", "shortName": "Bishop", "municipalityName": "Flint", "location": {"lat": 42.9654, "lon": -83.7436}, "countryCode": "US"}, "averageDailyFlights": 0.29, "operators": [{"name": "Allegiant Air", "iata": "G4", "icao": "AAY"}]}, {"destination": {"icao": "KFWA", "iata": "FWA", "name": "Fort Wayne ", "shortName": "Fort Wayne", "municipalityName": "Fort Wayne", "location": {"lat": 40.9785, "lon": -85.1951}, "countryCode": "US"}, "averageDailyFlights": 0.29, "operators": [{"name": "Allegiant Air", "iata": "G4", "icao": "AAY"}]}, {"destination": {"icao": "KGYR", "iata": "GYR", "name": "Goodyear Phoenix", "shortName": "Phoenix", "municipalityName": "Goodyear", "location": {"lat": 33.4225, "lon": -112.376}, "countryCode": "US"}, "averageDailyFlights": 0.29, "operators": [{"name": "GRP"}]}, {"destination": {"icao": "KHOU", "iata": "HOU", "name": "Houston William P Hobby", "shortName": "William P Hobby", "municipalityName": "Houston", "location": {"lat": 29.6454, "lon": -95.2789}, "countryCode": "US"}, "averageDailyFlights": 0.29, "operators": [{"name": "Allegiant Air", "iata": "G4", "icao": "AAY"}]}, {"destination": {"icao": "KGPI", "iata": "FCA", "name": "Kalispell Glacier Park", "shortName": "Glacier Park", "municipalityName": "Kalispell", "location": {"lat": 48.3105, "lon": -114.256}, "countryCode": "US"}, "averageDailyFlights": 0.29, "operators": [{"name": "Allegiant Air", "iata": "G4", "icao": "AAY"}]}, {"destination": {"icao": "KMSO", "iata": "MSO", "name": "Missoula ", "shortName": "Missoula", "municipalityName": "Missoula", "location": {"lat": 46.9163, "lon": -114.091}, "countryCode": "US"}, "averageDailyFlights": 0.29, "operators": [{"name": "Allegiant Air", "iata": "G4", "icao": "AAY"}]}, {"destination": {"icao": "KPSC", "iata": "PSC", "name": "Pasco Tri Cities", "shortName": "Tri Cities", "municipalityName": "Pasco", "location": {"lat": 46.2647, "lon": -119.119}, "countryCode": "US"}, "averageDailyFlights": 0.29, "operators": [{"name": "Allegiant Air", "iata": "G4", "icao": "AAY"}]}, {"destination": {"icao": "KIWA", "iata": "AZA", "name": "Phoenix -Mesa-Gateway", "shortName": "-Mesa-Gateway", "municipalityName": "Phoenix", "location": {"lat": 33.3078, "lon": -111.655}, "countryCode": "US"}, "averageDailyFlights": 0.29, "operators": [{"name": "LXJ"}, {"name": "GLF"}]}, {"destination": {"icao": "KRAL", "iata": "RAL", "name": "Riverside Municipal", "shortName": "Municipal", "municipalityName": "Riverside", "location": {"lat": 33.9519, "lon": -117.445}, "countryCode": "US"}, "averageDailyFlights": 0.29, "operators": [{"name": "CXK"}]}, {"destination": {"icao": "KSDL", "iata": "SCF", "name": "Scottsdale ", "shortName": "Scottsdale", "municipalityName": "Scottsdale", "location": {"lat": 33.6229, "lon": -111.911}, "countryCode": "US"}, "averageDailyFlights": 0.29, "operators": [{"name": "FTH"}, {"name": "DCM"}]}, {"destination": {"icao": "KTVC", "iata": "TVC", "name": "Traverse City Cherry Capital", "shortName": "Cherry Capital", "municipalityName": "Traverse City", "location": {"lat": 44.7414, "lon": -85.5822}, "countryCode": "US"}, "averageDailyFlights": 0.29, "operators": [{"name": "Allegiant Air", "iata": "G4", "icao": "AAY"}]}, {"destination": {"icao": "KICT", "iata": "ICT", "name": "Wichita Mid Continent", "shortName": "Mid Continent", "municipalityName": "Wichita", "location": {"lat": 37.6499, "lon": -97.4331}, "countryCode": "US"}, "averageDailyFlights": 0.29, "operators": [{"name": "Allegiant Air", "iata": "G4", "icao": "AAY"}]}, {"destination": {"icao": "KAMA", "iata": "AMA", "name": "Amarillo Rick Husband", "shortName": "Rick Husband", "municipalityName": "Amarillo", "location": {"lat": 35.2194, "lon": -101.706}, "countryCode": "US"}, "averageDailyFlights": 0.14, "operators": [{"name": "EJM"}]}, {"destination": {"icao": "CYYC", "iata": "YYC", "name": "Calgary ", "shortName": "Calgary", "municipalityName": "Calgary", "location": {"lat": 51.1139, "lon": -114.02}, "countryCode": "CA"}, "averageDailyFlights": 0.14, "operators": [{"name": "ASP"}]}, {"destination": {"icao": "KCYS", "iata": "CYS", "name": "Cheyenne Regional Jerry Olson Field", "shortName": "Regional Jerry Olson Field", "municipalityName": "Cheyenne", "location": {"lat": 41.1557, "lon": -104.812}, "countryCode": "US"}, "averageDailyFlights": 0.14, "operators": [{"name": "NetJets Aviation", "iata": "1I", "icao": "EJA"}]}, {"destination": {"icao": "KCOS", "iata": "COS", "name": "Colorado Springs City of  Municipal", "shortName": "City of  Municipal", "municipalityName": "Colorado Springs", "location": {"lat": 38.8058, "lon": -104.701}, "countryCode": "US"}, "averageDailyFlights": 0.14, "operators": [{"name": "FFL"}]}, {"destination": {"icao": "KFLG", "iata": "FLG", "name": "Flagstaff Pulliam", "shortName": "Pulliam", "municipalityName": "Flagstaff", "location": {"lat": 35.1385, "lon": -111.671}, "countryCode": "US"}, "averageDailyFlights": 0.14, "operators": [{"name": "FTH"}]}, {"destination": {"icao": "KIPL", "iata": "IPL", "name": "Imperial County", "shortName": "County", "municipalityName": "Imperial", "location": {"lat": 32.8342, "lon": -115.579}, "countryCode": "US"}, "averageDailyFlights": 0.14, "operators": [{"name": "CXK"}]}, {"destination": {"icao": "KJAX", "iata": "JAX", "name": "Jacksonville ", "shortName": "Jacksonville", "municipalityName": "Jacksonville", "location": {"lat": 30.4941, "lon": -81.6879}, "countryCode": "US"}, "averageDailyFlights": 0.14, "operators": [{"name": "Swift Air", "iata": "WQ", "icao": "SWQ"}]}, {"destination": {"icao": "KLGB", "iata": "LGB", "name": "Long Beach Daugherty Field/", "shortName": "Daugherty Field/", "municipalityName": "Long Beach", "location": {"lat": 33.8177, "lon": -118.152}, "countryCode": "US"}, "averageDailyFlights": 0.14, "operators": [{"name": "CXK"}]}, {"destination": {"icao": "KMEV", "iata": "MEV", "name": "Minden -Tahoe", "shortName": "-Tahoe", "municipalityName": "Minden", "location": {"lat": 39.0003, "lon": -119.751}, "countryCode": "US"}, "averageDailyFlights": 0.14, "operators": [{"name": "LXJ"}]}, {"destination": {"icao": "KPGA", "iata": "PGA", "name": "Page Municipal", "shortName": "Municipal", "municipalityName": "Page", "location": {"lat": 36.9261, "lon": -111.448}, "countryCode": "US"}, "averageDailyFlights": 0.14, "operators": [{"name": "FFL"}]}, {"destination": {"icao": "KPHX", "iata": "PHX", "name": "Phoenix Sky Harbor", "shortName": "Sky Harbor", "municipalityName": "Phoenix", "location": {"lat": 33.4343, "lon": -112.012}, "countryCode": "US"}, "averageDailyFlights": 0.14, "operators": [{"name": "Allegiant Air", "iata": "G4", "icao": "AAY"}]}, {"destination": {"icao": "KDVT", "iata": "DVT", "name": "Phoenix Deer Valley", "shortName": "Deer Valley", "municipalityName": "Phoenix", "location": {"lat": 33.6883, "lon": -112.083}, "countryCode": "US"}, "averageDailyFlights": 0.14, "operators": [{"name": "FLC"}]}, {"destination": {"icao": "KSAF", "iata": "SAF", "name": "Santa Fe Municipal", "shortName": "Municipal", "municipalityName": "Santa Fe", "location": {"lat": 35.6171, "lon": -106.089}, "countryCode": "US"}, "averageDailyFlights": 0.14, "operators": [{"name": "FTH"}]}, {"destination": {"icao": "KABQ", "iata": "ABQ", "name": "The Duke City Albuquerque  Sunport", "shortName": "Albuquerque  Sunport", "municipalityName": "The Duke City", "location": {"lat": 35.0402, "lon": -106.609}, "countryCode": "US"}, "averageDailyFlights": 0.14, "operators": [{"name": "KPO"}]}, {"destination": {"icao": "KTRK", "iata": "TKF", "name": "Truckee Tahoe", "shortName": "Tahoe", "municipalityName": "Truckee", "location": {"lat": 39.32, "lon": -120.14}, "countryCode": "US"}, "averageDailyFlights": 0.14, "operators": [{"name": "FTH"}]}, {"destination": {"icao": "KAVQ", "iata": "AVW", "name": "Tucson Marana Regional", "shortName": "Marana Regional", "municipalityName": "Tucson", "location": {"lat": 32.4096, "lon": -111.218}, "countryCode": "US"}, "averageDailyFlights": 0.14, "operators": [{"name": "NDU"}]}]}