{"routes": [{"destination": {"icao": "KLAX", "iata": "LAX", "name": "Los Angeles ", "shortName": "Los Angeles", "municipalityName": "Los Angeles", "location": {"lat": 33.9425, "lon": -118.408}, "countryCode": "US"}, "averageDailyFlights": 26.03, "operators": [{"name": "Southwest Airlines", "iata": "WN", "icao": "SWA"}, {"name": "Delta Air Lines", "iata": "DL", "icao": "DAL"}, {"name": "Spirit Airlines", "iata": "NK", "icao": "NKS"}, {"name": "Alaska Airlines", "iata": "AS", "icao": "ASA"}, {"name": "JSX Air", "iata": "XE", "icao": "JSX"}, {"name": "JetBlue Airways", "iata": "B6", "icao": "JBU"}, {"name": "TIV"}, {"name": "Libyan Airlines", "iata": "LN", "icao": "LAA"}, {"name": "NetJets Aviation", "iata": "1I", "icao": "EJA"}, {"name": "American Airlines", "iata": "AA", "icao": "AAL"}, {"name": "United Airlines", "iata": "UA", "icao": "UAL"}]}, {"destination": {"icao": "KSAN", "iata": "SAN", "name": "San Diego ", "shortName": "San Diego", "municipalityName": "San Diego", "location": {"lat": 32.7336, "lon": -117.19}, "countryCode": "US"}, "averageDailyFlights": 23.86, "operators": [{"name": "JSX Air", "iata": "XE", "icao": "JSX"}, {"name": "Southwest Airlines", "iata": "WN", "icao": "SWA"}, {"name": "Spirit Airlines", "iata": "NK", "icao": "NKS"}, {"name": "Frontier Airlines", "iata": "F9", "icao": "FFT"}, {"name": "LXJ"}, {"name": "Libyan Airlines", "iata": "LN", "icao": "LAA"}, {"name": "Jet Linx Aviation", "iata": "JL", "icao": "JTL"}, {"name": "Allegiant Air", "iata": "G4", "icao": "AAY"}, {"name": "NetJets Aviation", "iata": "1I", "icao": "EJA"}]}, {"destination": {"icao": "KPHX", "iata": "PHX", "name": "Phoenix Sky Harbor", "shortName": "Sky Harbor", "municipalityName": "Phoenix", "location": {"lat": 33.4343, "lon": -112.012}, "countryCode": "US"}, "averageDailyFlights": 23.29, "operators": [{"name": "JSX Air", "iata": "XE", "icao": "JSX"}, {"name": "American Airlines", "iata": "AA", "icao": "AAL"}, {"name": "Spirit Airlines", "iata": "NK", "icao": "NKS"}, {"name": "Southwest Airlines", "iata": "WN", "icao": "SWA"}, {"name": "Frontier Airlines", "iata": "F9", "icao": "FFT"}, {"name": "Libyan Airlines", "iata": "LN", "icao": "LAA"}, {"name": "NetJets Aviation", "iata": "1I", "icao": "EJA"}, {"name": "SJA"}]}, {"destination": {"icao": "KDFW", "iata": "DFW", "name": "Dallas-Fort Worth ", "shortName": "Dallas-Fort Worth", "municipalityName": "Dallas-Fort Worth", "location": {"lat": 32.8968, "lon": -97.038}, "countryCode": "US"}, "averageDailyFlights": 20.46, "operators": [{"name": "American Airlines", "iata": "AA", "icao": "AAL"}, {"name": "Spirit Airlines", "iata": "NK", "icao": "NKS"}, {"name": "Frontier Airlines", "iata": "F9", "icao": "FFT"}, {"name": "Sun Country Airlines", "iata": "SY", "icao": "SCX"}]}, {"destination": {"icao": "KDEN", "iata": "DEN", "name": "Denver ", "shortName": "Denver", "municipalityName": "Denver", "location": {"lat": 39.8617, "lon": -104.673}, "countryCode": "US"}, "averageDailyFlights": 20.29, "operators": [{"name": "Southwest Airlines", "iata": "WN", "icao": "SWA"}, {"name": "Frontier Airlines", "iata": "F9", "icao": "FFT"}, {"name": "Spirit Airlines", "iata": "NK", "icao": "NKS"}]}, {"destination": {"icao": "KBUR", "iata": "BUR", "name": "Burbank Bob Hope", "shortName": "Bob Hope", "municipalityName": "Burbank", "location": {"lat": 34.2007, "lon": -118.359}, "countryCode": "US"}, "averageDailyFlights": 20.0, "operators": [{"name": "NetJets Aviation", "iata": "1I", "icao": "EJA"}, {"name": "Southwest Airlines", "iata": "WN", "icao": "SWA"}, {"name": "JSX Air", "iata": "XE", "icao": "JSX"}, {"name": "Spirit Airlines", "iata": "NK", "icao": "NKS"}, {"name": "Libyan Airlines", "iata": "LN", "icao": "LAA"}, {"name": "Contour Aviation", "iata": "LF", "icao": "VTE"}, {"name": "LXJ"}]}, {"destination": {"icao": "KSEA", "iata": "SEA", "name": "Seattle Tacoma", "shortName": "Tacoma", "municipalityName": "Seattle", "location": {"lat": 47.449, "lon": -122.309}, "countryCode": "US"}, "averageDailyFlights": 19.86, "operators": [{"name": "Alaska Airlines", "iata": "AS", "icao": "ASA"}, {"name": "Delta Air Lines", "iata": "DL", "icao": "DAL"}, {"name": "Spirit Airlines", "iata": "NK", "icao": "NKS"}, {"name": "Southwest Airlines", "iata": "WN", "icao": "SWA"}, {"name": "Frontier Airlines", "iata": "F9", "icao": "FFT"}]}, {"destination": {"icao": "KSNA", "iata": "SNA", "name": "Santa Ana John Wayne -Orange County", "shortName": "John Wayne -Orange County", "municipalityName": "Santa Ana", "location": {"lat": 33.6757, "lon": -117.868}, "countryCode": "US"}, "averageDailyFlights": 19.57, "operators": [{"name": "JSX Air", "iata": "XE", "icao": "JSX"}, {"name": "XSR"}, {"name": "Southwest Airlines", "iata": "WN", "icao": "SWA"}, {"name": "Spirit Airlines", "iata": "NK", "icao": "NKS"}, {"name": "TBL"}, {"name": "LXJ"}, {"name": "Frontier Airlines", "iata": "F9", "icao": "FFT"}, {"name": "RGY"}, {"name": "Contour Aviation", "iata": "LF", "icao": "VTE"}, {"name": "NetJets Aviation", "iata": "1I", "icao": "EJA"}, {"name": "Air Tahiti Nui", "iata": "TN", "icao": "THT"}, {"name": "GAJ"}, {"name": "TIV"}, {"name": "WCC"}, {"name": "EJM"}]}, {"destination": {"icao": "KOAK", "iata": "OAK", "name": "Oakland Metropolitan", "shortName": "Metropolitan", "municipalityName": "Oakland", "location": {"lat": 37.7213, "lon": -122.221}, "countryCode": "US"}, "averageDailyFlights": 19.43, "operators": [{"name": "Southwest Airlines", "iata": "WN", "icao": "SWA"}, {"name": "Spirit Airlines", "iata": "NK", "icao": "NKS"}, {"name": "JSX Air", "iata": "XE", "icao": "JSX"}, {"name": "NetJets Aviation", "iata": "1I", "icao": "EJA"}]}, {"destination": {"icao": "KSMF", "iata": "SMF", "name": "Sacramento ", "shortName": "Sacramento", "municipalityName": "Sacramento", "location": {"lat": 38.6954, "lon": -121.591}, "countryCode": "US"}, "averageDailyFlights": 17.57, "operators": [{"name": "Southwest Airlines", "iata": "WN", "icao": "SWA"}, {"name": "Spirit Airlines", "iata": "NK", "icao": "NKS"}, {"name": "NetJets Aviation", "iata": "1I", "icao": "EJA"}]}, {"destination": {"icao": "KSFO", "iata": "SFO", "name": "San Francisco ", "shortName": "San Francisco", "municipalityName": "San Francisco", "location": {"lat": 37.619, "lon": -122.375}, "countryCode": "US"}, "averageDailyFlights": 17.29, "operators": [{"name": "NetJets Aviation", "iata": "1I", "icao": "EJA"}, {"name": "Libyan Airlines", "iata": "LN", "icao": "LAA"}, {"name": "Vuela El Salvador", "iata": "N3", "icao": "VOS"}, {"name": "EJM"}, {"name": "Alaska Airlines", "iata": "AS", "icao": "ASA"}, {"name": "United Airlines", "iata": "UA", "icao": "UAL"}, {"name": "Frontier Airlines", "iata": "F9", "icao": "FFT"}, {"name": "Southwest Airlines", "iata": "WN", "icao": "SWA"}, {"name": "ASP"}, {"name": "TIV"}]}, {"destination": {"icao": "KSLC", "iata": "SLC", "name": "Salt Lake City ", "shortName": "Salt Lake City", "municipalityName": "Salt Lake City", "location": {"lat": 40.7884, "lon": -111.978}, "countryCode": "US"}, "averageDailyFlights": 16.0, "operators": [{"name": "Delta Air Lines", "iata": "DL", "icao": "DAL"}, {"name": "Southwest Airlines", "iata": "WN", "icao": "SWA"}, {"name": "Spirit Airlines", "iata": "NK", "icao": "NKS"}, {"name": "NetJets Aviation", "iata": "1I", "icao": "EJA"}, {"name": "Frontier Airlines", "iata": "F9", "icao": "FFT"}, {"name": "Aeromexico", "iata": "AM", "icao": "AMX"}, {"name": "CBC"}]}, {"destination": {"icao": "KSJC", "iata": "SJC", "name": "San Jose Norman Y. Mineta", "shortName": "Norman Y. Mineta", "municipalityName": "San Jose", "location": {"lat": 37.3626, "lon": -121.929}, "countryCode": "US"}, "averageDailyFlights": 16.0, "operators": [{"name": "Southwest Airlines", "iata": "WN", "icao": "SWA"}, {"name": "EDG"}, {"name": "Spirit Airlines", "iata": "NK", "icao": "NKS"}, {"name": "Jet Linx Aviation", "iata": "JL", "icao": "JTL"}, {"name": "WWI"}, {"name": "NetJets Aviation", "iata": "1I", "icao": "EJA"}]}, {"destination": {"icao": "KATL", "iata": "ATL", "name": "Atlanta Hartsfield Jackson", "shortName": "Hartsfield Jackson", "municipalityName": "Atlanta", "location": {"lat": 33.6367, "lon": -84.4281}, "countryCode": "US"}, "averageDailyFlights": 14.57, "operators": [{"name": "Delta Air Lines", "iata": "DL", "icao": "DAL"}, {"name": "Southwest Airlines", "iata": "WN", "icao": "SWA"}, {"name": "Spirit Airlines", "iata": "NK", "icao": "NKS"}, {"name": "Frontier Airlines", "iata": "F9", "icao": "FFT"}]}, {"destination": {"icao": "KRNO", "iata": "RNO", "name": "Reno Tahoe", "shortName": "Tahoe", "municipalityName": "Reno", "location": {"lat": 39.4991, "lon": -119.768}, "countryCode": "US"}, "averageDailyFlights": 14.0, "operators": [{"name": "Southwest Airlines", "iata": "WN", "icao": "SWA"}, {"name": "Spirit Airlines", "iata": "NK", "icao": "NKS"}, {"name": "NetJets Aviation", "iata": "1I", "icao": "EJA"}, {"name": "Allegiant Air", "iata": "G4", "icao": "AAY"}, {"name": "DCM"}]}, {"destination": {"icao": "KMDW", "iata": "MDW", "name": "Chicago Midway", "shortName": "Midway", "municipalityName": "Chicago", "location": {"lat": 41.786, "lon": -87.7524}, "countryCode": "US"}, "averageDailyFlights": 12.14, "operators": [{"name": "Southwest Airlines", "iata": "WN", "icao": "SWA"}, {"name": "Frontier Airlines", "iata": "F9", "icao": "FFT"}, {"name": "TBL"}]}, {"destination": {"icao": "KPDX", "iata": "PDX", "name": "Portland ", "shortName": "Portland", "municipalityName": "Portland", "location": {"lat": 45.5887, "lon": -122.598}, "countryCode": "US"}, "averageDailyFlights": 12.0, "operators": [{"name": "Alaska Airlines", "iata": "AS", "icao": "ASA"}, {"name": "Southwest Airlines", "iata": "WN", "icao": "SWA"}, {"name": "Spirit Airlines", "iata": "NK", "icao": "NKS"}, {"name": "Frontier Airlines", "iata": "F9", "icao": "FFT"}, {"name": "NetJets Aviation", "iata": "1I", "icao": "EJA"}]}, {"destination": {"icao": "KDAL", "iata": "DAL", "name": "Dallas Love Field", "shortName": "Love Field", "municipalityName": "Dallas", "location": {"lat": 32.8471, "lon": -96.8518}, "countryCode": "US"}, "averageDailyFlights": 11.29, "operators": [{"name": "Southwest Airlines", "iata": "WN", "icao": "SWA"}, {"name": "JSX Air", "iata": "XE", "icao": "JSX"}, {"name": "LXJ"}]}, {"destination": {"icao": "KMSP", "iata": "MSP", "name": "Minneapolis Wold-Chamberlain", "shortName": "Wold-Chamberlain", "municipalityName": "Minneapolis", "location": {"lat": 44.882, "lon": -93.2218}, "countryCode": "US"}, "averageDailyFlights": 10.14, "operators": [{"name": "Delta Air Lines", "iata": "DL", "icao": "DAL"}, {"name": "Sun Country Airlines", "iata": "SY", "icao": "SCX"}, {"name": "Spirit Airlines", "iata": "NK", "icao": "NKS"}]}, {"destination": {"icao": "KEWR", "iata": "EWR", "name": "Newark Liberty", "shortName": "Liberty", "municipalityName": "Newark", "location": {"lat": 40.6925, "lon": -74.1687}, "countryCode": "US"}, "averageDailyFlights": 10.0, "operators": [{"name": "United Airlines", "iata": "UA", "icao": "UAL"}, {"name": "Spirit Airlines", "iata": "NK", "icao": "NKS"}]}, {"destination": {"icao": "KIAH", "iata": "IAH", "name": "Houston George Bush", "shortName": "George Bush", "municipalityName": "Houston", "location": {"lat": 29.9844, "lon": -95.3414}, "countryCode": "US"}, "averageDailyFlights": 9.86, "operators": [{"name": "Spirit Airlines", "iata": "NK", "icao": "NKS"}, {"name": "Frontier Airlines", "iata": "F9", "icao": "FFT"}, {"name": "United Airlines", "iata": "UA", "icao": "UAL"}]}, {"destination": {"icao": "KDTW", "iata": "DTW", "name": "Detroit Metropolitan Wayne County", "shortName": "Metropolitan Wayne County", "municipalityName": "Detroit", "location": {"lat": 42.2124, "lon": -83.3534}, "countryCode": "US"}, "averageDailyFlights": 9.43, "operators": [{"name": "Delta Air Lines", "iata": "DL", "icao": "DAL"}, {"name": "Spirit Airlines", "iata": "NK", "icao": "NKS"}, {"name": "Frontier Airlines", "iata": "F9", "icao": "FFT"}, {"name": "Southwest Airlines", "iata": "WN", "icao": "SWA"}]}, {"destination": {"icao": "KJFK", "iata": "JFK", "name": "New York John F Kennedy", "shortName": "John F Kennedy", "municipalityName": "New York", "location": {"lat": 40.6398, "lon": -73.7789}, "countryCode": "US"}, "averageDailyFlights": 9.32, "operators": [{"name": "JetBlue Airways", "iata": "B6", "icao": "JBU"}, {"name": "Delta Air Lines", "iata": "DL", "icao": "DAL"}, {"name": "United Airlines", "iata": "UA", "icao": "UAL"}]}, {"destination": {"icao": "KAUS", "iata": "AUS", "name": "Austin Bergstrom", "shortName": "Bergstrom", "municipalityName": "Austin", "location": {"lat": 30.194498, "lon": -97.6699}, "countryCode": "US"}, "averageDailyFlights": 8.77, "operators": [{"name": "Southwest Airlines", "iata": "WN", "icao": "SWA"}, {"name": "Spirit Airlines", "iata": "NK", "icao": "NKS"}, {"name": "JSX Air", "iata": "XE", "icao": "JSX"}, {"name": "Frontier Airlines", "iata": "F9", "icao": "FFT"}, {"name": "Allegiant Air", "iata": "G4", "icao": "AAY"}, {"name": "FTH"}, {"name": "American Airlines", "iata": "AA", "icao": "AAL"}]}, {"destination": {"icao": "KONT", "iata": "ONT", "name": "Ontario ", "shortName": "Ontario", "municipalityName": "Ontario", "location": {"lat": 34.056, "lon": -117.601}, "countryCode": "US"}, "averageDailyFlights": 8.43, "operators": [{"name": "Ravn Alaska", "iata": "7H", "icao": "RVF"}, {"name": "Southwest Airlines", "iata": "WN", "icao": "SWA"}, {"name": "Frontier Airlines", "iata": "F9", "icao": "FFT"}]}, {"destination": {"icao": "KMIA", "iata": "MIA", "name": "Miami ", "shortName": "Miami", "municipalityName": "Miami", "location": {"lat": 25.7932, "lon": -80.2906}, "countryCode": "US"}, "averageDailyFlights": 8.14, "operators": [{"name": "American Airlines", "iata": "AA", "icao": "AAL"}, {"name": "Spirit Airlines", "iata": "NK", "icao": "NKS"}, {"name": "Frontier Airlines", "iata": "F9", "icao": "FFT"}, {"name": "Delta Air Lines", "iata": "DL", "icao": "DAL"}, {"name": "GXA"}]}, {"destination": {"icao": "KHOU", "iata": "HOU", "name": "Houston William P Hobby", "shortName": "William P Hobby", "municipalityName": "Houston", "location": {"lat": 29.6454, "lon": -95.2789}, "countryCode": "US"}, "averageDailyFlights": 7.14, "operators": [{"name": "Southwest Airlines", "iata": "WN", "icao": "SWA"}, {"name": "NetJets Aviation", "iata": "1I", "icao": "EJA"}, {"name": "DCM"}]}, {"destination": {"icao": "KBNA", "iata": "BNA", "name": "Nashville ", "shortName": "Nashville", "municipalityName": "Nashville", "location": {"lat": 36.1245, "lon": -86.6782}, "countryCode": "US"}, "averageDailyFlights": 7.14, "operators": [{"name": "Spirit Airlines", "iata": "NK", "icao": "NKS"}, {"name": "Southwest Airlines", "iata": "WN", "icao": "SWA"}, {"name": "Frontier Airlines", "iata": "F9", "icao": "FFT"}, {"name": "Allegiant Air", "iata": "G4", "icao": "AAY"}]}, {"destination": {"icao": "KSAT", "iata": "SAT", "name": "San Antonio ", "shortName": "San Antonio", "municipalityName": "San Antonio", "location": {"lat": 29.5337, "lon": -98.4698}, "countryCode": "US"}, "averageDailyFlights": 7.0, "operators": [{"name": "Southwest Airlines", "iata": "WN", "icao": "SWA"}, {"name": "Frontier Airlines", "iata": "F9", "icao": "FFT"}, {"name": "Spirit Airlines", "iata": "NK", "icao": "NKS"}, {"name": "Allegiant Air", "iata": "G4", "icao": "AAY"}, {"name": "SJE"}, {"name": "LXJ"}]}, {"destination": {"icao": "KORD", "iata": "ORD", "name": "Chicago O'Hare", "shortName": "O'Hare", "municipalityName": "Chicago", "location": {"lat": 41.9786, "lon": -87.9048}, "countryCode": "US"}, "averageDailyFlights": 6.86, "operators": [{"name": "United Airlines", "iata": "UA", "icao": "UAL"}, {"name": "Spirit Airlines", "iata": "NK", "icao": "NKS"}]}, {"destination": {"icao": "KABQ", "iata": "ABQ", "name": "The Duke City Albuquerque  Sunport", "shortName": "Albuquerque  Sunport", "municipalityName": "The Duke City", "location": {"lat": 35.0402, "lon": -106.609}, "countryCode": "US"}, "averageDailyFlights": 6.86, "operators": [{"name": "Southwest Airlines", "iata": "WN", "icao": "SWA"}, {"name": "Spirit Airlines", "iata": "NK", "icao": "NKS"}]}, {"destination": {"icao": "KSTL", "iata": "STL", "name": "Saint Louis Lambert St Louis", "shortName": "Lambert St Louis", "municipalityName": "Saint Louis", "location": {"lat": 38.7487, "lon": -90.37}, "countryCode": "US"}, "averageDailyFlights": 6.57, "operators": [{"name": "Southwest Airlines", "iata": "WN", "icao": "SWA"}, {"name": "Frontier Airlines", "iata": "F9", "icao": "FFT"}, {"name": "Spirit Airlines", "iata": "NK", "icao": "NKS"}]}, {"destination": {"icao": "KLGB", "iata": "LGB", "name": "Long Beach Daugherty Field/", "shortName": "Daugherty Field/", "municipalityName": "Long Beach", "location": {"lat": 33.8177, "lon": -118.152}, "countryCode": "US"}, "averageDailyFlights": 6.43, "operators": [{"name": "Southwest Airlines", "iata": "WN", "icao": "SWA"}]}, {"destination": {"icao": "KVNY", "iata": "VNY", "name": "Van Nuys ", "shortName": "Van Nuys", "municipalityName": "Van Nuys", "location": {"lat": 34.2098, "lon": -118.49}, "countryCode": "US"}, "averageDailyFlights": 6.43, "operators": [{"name": "LXJ"}, {"name": "EDG"}, {"name": "XSR"}, {"name": "National Airlines", "iata": "N8", "icao": "NCR"}, {"name": "NetJets Aviation", "iata": "1I", "icao": "EJA"}, {"name": "TIV"}, {"name": "DLX"}, {"name": "ATK"}, {"name": "SIS"}, {"name": "Contour Aviation", "iata": "LF", "icao": "VTE"}, {"name": "Libyan Airlines", "iata": "LN", "icao": "LAA"}, {"name": "AXY"}, {"name": "XLJ"}, {"name": "TMB"}, {"name": "TFF"}, {"name": "BLK"}]}, {"destination": {"icao": "KMCI", "iata": "MCI", "name": "Kansas City ", "shortName": "Kansas City", "municipalityName": "Kansas City", "location": {"lat": 39.2976, "lon": -94.7139}, "countryCode": "US"}, "averageDailyFlights": 6.14, "operators": [{"name": "Southwest Airlines", "iata": "WN", "icao": "SWA"}, {"name": "Spirit Airlines", "iata": "NK", "icao": "NKS"}]}, {"destination": {"icao": "KPHL", "iata": "PHL", "name": "Philadelphia ", "shortName": "Philadelphia", "municipalityName": "Philadelphia", "location": {"lat": 39.8719, "lon": -75.2411}, "countryCode": "US"}, "averageDailyFlights": 5.71, "operators": [{"name": "American Airlines", "iata": "AA", "icao": "AAL"}, {"name": "Spirit Airlines", "iata": "NK", "icao": "NKS"}, {"name": "Frontier Airlines", "iata": "F9", "icao": "FFT"}]}, {"destination": {"icao": "KFAT", "iata": "FAT", "name": "Fresno Yosemite", "shortName": "Yosemite", "municipalityName": "Fresno", "location": {"lat": 36.7762, "lon": -119.718}, "countryCode": "US"}, "averageDailyFlights": 5.43, "operators": [{"name": "Allegiant Air", "iata": "G4", "icao": "AAY"}, {"name": "Southwest Airlines", "iata": "WN", "icao": "SWA"}]}, {"destination": {"icao": "MMMX", "iata": "MEX", "name": "Mexico City Licenciado Benito Juarez", "shortName": "Licenciado Benito Juarez", "municipalityName": "Mexico City", "location": {"lat": 19.4363, "lon": -99.0721}, "countryCode": "MX"}, "averageDailyFlights": 5.14, "operators": [{"name": "Aeromexico", "iata": "AM", "icao": "AMX"}, {"name": "VivaAerobus", "iata": "VB", "icao": "VIV"}, {"name": "Volaris", "iata": "Y4", "icao": "VOI"}, {"name": "Delta Air Lines", "iata": "DL", "icao": "DAL"}]}, {"destination": {"icao": "CYYZ", "iata": "YYZ", "name": "Toronto Pearson", "shortName": "Pearson", "municipalityName": "Toronto", "location": {"lat": 43.6772, "lon": -79.6306}, "countryCode": "CA"}, "averageDailyFlights": 5.0, "operators": [{"name": "Air Canada", "iata": "AC", "icao": "ACA"}, {"name": "Swoop", "iata": "WO", "icao": "WSW"}, {"name": "EAU"}, {"name": "WestJet", "iata": "WS", "icao": "WJA"}, {"name": "LXJ"}, {"name": "FEX"}]}, {"destination": {"icao": "KBOI", "iata": "BOI", "name": "Boise Gowen field", "shortName": "Gowen field", "municipalityName": "Boise", "location": {"lat": 43.5644, "lon": -116.223}, "countryCode": "US"}, "averageDailyFlights": 4.86, "operators": [{"name": "Allegiant Air", "iata": "G4", "icao": "AAY"}, {"name": "Spirit Airlines", "iata": "NK", "icao": "NKS"}, {"name": "Southwest Airlines", "iata": "WN", "icao": "SWA"}, {"name": "Alaska Airlines", "iata": "AS", "icao": "ASA"}]}, {"destination": {"icao": "KBOS", "iata": "BOS", "name": "Boston General Edward Lawrence Logan", "shortName": "General Edward Lawrence Logan", "municipalityName": "Boston", "location": {"lat": 42.3643, "lon": -71.0052}, "countryCode": "US"}, "averageDailyFlights": 4.86, "operators": [{"name": "JetBlue Airways", "iata": "B6", "icao": "JBU"}, {"name": "Delta Air Lines", "iata": "DL", "icao": "DAL"}, {"name": "Spirit Airlines", "iata": "NK", "icao": "NKS"}]}, {"destination": {"icao": "KBWI", "iata": "BWI", "name": "Baltimore Washington  Thurgood Marshall", "shortName": "Washington  Thurgood Marshall", "municipalityName": "Baltimore", "location": {"lat": 39.1754, "lon": -76.6683}, "countryCode": "US"}, "averageDailyFlights": 4.71, "operators": [{"name": "Spirit Airlines", "iata": "NK", "icao": "NKS"}, {"name": "Southwest Airlines", "iata": "WN", "icao": "SWA"}]}, {"destination": {"icao": "CYYC", "iata": "YYC", "name": "Calgary ", "shortName": "Calgary", "municipalityName": "Calgary", "location": {"lat": 51.1139, "lon": -114.02}, "countryCode": "CA"}, "averageDailyFlights": 4.57, "operators": [{"name": "WestJet", "iata": "WS", "icao": "WJA"}, {"name": "DAT"}, {"name": "TWY"}]}, {"destination": {"icao": "KMCO", "iata": "MCO", "name": "Orlando ", "shortName": "Orlando", "municipalityName": "Orlando", "location": {"lat": 28.4294, "lon": -81.309}, "countryCode": "US"}, "averageDailyFlights": 4.57, "operators": [{"name": "Frontier Airlines", "iata": "F9", "icao": "FFT"}, {"name": "Spirit Airlines", "iata": "NK", "icao": "NKS"}, {"name": "Southwest Airlines", "iata": "WN", "icao": "SWA"}, {"name": "HRF"}]}, {"destination": {"icao": "PHNL", "iata": "HNL", "name": "Honolulu ", "shortName": "Honolulu", "municipalityName": "Honolulu", "location": {"lat": 21.3187, "lon": -157.922}, "countryCode": "US"}, "averageDailyFlights": 4.43, "operators": [{"name": "Hawaiian Airlines", "iata": "HA", "icao": "HAL"}, {"name": "Southwest Airlines", "iata": "WN", "icao": "SWA"}]}, {"destination": {"icao": "CYVR", "iata": "YVR", "name": "Vancouver ", "shortName": "Vancouver", "municipalityName": "Vancouver", "location": {"lat": 49.1939, "lon": -123.184}, "countryCode": "CA"}, "averageDailyFlights": 4.43, "operators": [{"name": "Air Canada", "iata": "AC", "icao": "ACA"}, {"name": "WestJet", "iata": "WS", "icao": "WJA"}]}, {"destination": {"icao": "KIND", "iata": "IND", "name": "Indianapolis ", "shortName": "Indianapolis", "municipalityName": "Indianapolis", "location": {"lat": 39.7173, "lon": -86.2944}, "countryCode": "US"}, "averageDailyFlights": 4.18, "operators": [{"name": "Spirit Airlines", "iata": "NK", "icao": "NKS"}, {"name": "Allegiant Air", "iata": "G4", "icao": "AAY"}, {"name": "Southwest Airlines", "iata": "WN", "icao": "SWA"}, {"name": "Frontier Airlines", "iata": "F9", "icao": "FFT"}, {"name": "United Airlines", "iata": "UA", "icao": "UAL"}]}, {"destination": {"icao": "KELP", "iata": "ELP", "name": "El Paso ", "shortName": "El Paso", "municipalityName": "El Paso", "location": {"lat": 31.8072, "lon": -106.378}, "countryCode": "US"}, "averageDailyFlights": 4.14, "operators": [{"name": "Southwest Airlines", "iata": "WN", "icao": "SWA"}, {"name": "Frontier Airlines", "iata": "F9", "icao": "FFT"}, {"name": "Allegiant Air", "iata": "G4", "icao": "AAY"}, {"name": "FTH"}]}, {"destination": {"icao": "KCVG", "iata": "CVG", "name": "Cincinnati Northern Kentucky", "shortName": "Northern Kentucky", "municipalityName": "Cincinnati", "location": {"lat": 39.0488, "lon": -84.6678}, "countryCode": "US"}, "averageDailyFlights": 3.86, "operators": [{"name": "Frontier Airlines", "iata": "F9", "icao": "FFT"}, {"name": "Atlas Air", "iata": "5Y", "icao": "GTI"}, {"name": "Allegiant Air", "iata": "G4", "icao": "AAY"}, {"name": "Delta Air Lines", "iata": "DL", "icao": "DAL"}]}, {"destination": {"icao": "PHOG", "iata": "OGG", "name": "Kahului ", "shortName": "Kahului", "municipalityName": "Kahului", "location": {"lat": 20.8986, "lon": -156.43}, "countryCode": "US"}, "averageDailyFlights": 3.86, "operators": [{"name": "Hawaiian Airlines", "iata": "HA", "icao": "HAL"}, {"name": "Southwest Airlines", "iata": "WN", "icao": "SWA"}, {"name": "TIV"}, {"name": "EDG"}]}, {"destination": {"icao": "KTUS", "iata": "TUS", "name": "Tucson ", "shortName": "Tucson", "municipalityName": "Tucson", "location": {"lat": 32.1161, "lon": -110.941}, "countryCode": "US"}, "averageDailyFlights": 3.71, "operators": [{"name": "Southwest Airlines", "iata": "WN", "icao": "SWA"}, {"name": "FTH"}, {"name": "CAK"}, {"name": "NetJets Aviation", "iata": "1I", "icao": "EJA"}]}, {"destination": {"icao": "KCLE", "iata": "CLE", "name": "Cleveland Hopkins", "shortName": "Hopkins", "municipalityName": "Cleveland", "location": {"lat": 41.4117, "lon": -81.8498}, "countryCode": "US"}, "averageDailyFlights": 3.57, "operators": [{"name": "Frontier Airlines", "iata": "F9", "icao": "FFT"}, {"name": "Spirit Airlines", "iata": "NK", "icao": "NKS"}, {"name": "Southwest Airlines", "iata": "WN", "icao": "SWA"}]}, {"destination": {"icao": "KTPA", "iata": "TPA", "name": "Tampa ", "shortName": "Tampa", "municipalityName": "Tampa", "location": {"lat": 27.9755, "lon": -82.5332}, "countryCode": "US"}, "averageDailyFlights": 3.51, "operators": [{"name": "Frontier Airlines", "iata": "F9", "icao": "FFT"}, {"name": "Spirit Airlines", "iata": "NK", "icao": "NKS"}, {"name": "Southwest Airlines", "iata": "WN", "icao": "SWA"}, {"name": "Breeze Aviation Group, Inc."}]}, {"destination": {"icao": "KOMA", "iata": "OMA", "name": "Omaha Eppley Airfield", "shortName": "Eppley Airfield", "municipalityName": "Omaha", "location": {"lat": 41.3032, "lon": -95.8941}, "countryCode": "US"}, "averageDailyFlights": 3.29, "operators": [{"name": "Frontier Airlines", "iata": "F9", "icao": "FFT"}, {"name": "Southwest Airlines", "iata": "WN", "icao": "SWA"}, {"name": "Allegiant Air", "iata": "G4", "icao": "AAY"}, {"name": "SLH"}]}, {"destination": {"icao": "KSBA", "iata": "SBA", "name": "Santa Barbara Municipal", "shortName": "Municipal", "municipalityName": "Santa Barbara", "location": {"lat": 34.4262, "lon": -119.84}, "countryCode": "US"}, "averageDailyFlights": 3.29, "operators": [{"name": "Southwest Airlines", "iata": "WN", "icao": "SWA"}, {"name": "LXJ"}]}, {"destination": {"icao": "KCOS", "iata": "COS", "name": "Colorado Springs City of  Municipal", "shortName": "City of  Municipal", "municipalityName": "Colorado Springs", "location": {"lat": 38.8058, "lon": -104.701}, "countryCode": "US"}, "averageDailyFlights": 3.14, "operators": [{"name": "Southwest Airlines", "iata": "WN", "icao": "SWA"}, {"name": "NetJets Aviation", "iata": "1I", "icao": "EJA"}]}, {"destination": {"icao": "KBZN", "iata": "BZN", "name": "Bozeman Gallatin Field", "shortName": "Gallatin Field", "municipalityName": "Bozeman", "location": {"lat": 45.7775, "lon": -111.153}, "countryCode": "US"}, "averageDailyFlights": 3.0, "operators": [{"name": "LXJ"}, {"name": "Southwest Airlines", "iata": "WN", "icao": "SWA"}, {"name": "XSM"}, {"name": "Allegiant Air", "iata": "G4", "icao": "AAY"}]}, {"destination": {"icao": "KOKC", "iata": "OKC", "name": "Oklahoma City Will Rogers World", "shortName": "Will Rogers World", "municipalityName": "Oklahoma City", "location": {"lat": 35.3931, "lon": -97.6007}, "countryCode": "US"}, "averageDailyFlights": 3.0, "operators": [{"name": "Southwest Airlines", "iata": "WN", "icao": "SWA"}, {"name": "Frontier Airlines", "iata": "F9", "icao": "FFT"}, {"name": "Allegiant Air", "iata": "G4", "icao": "AAY"}]}, {"destination": {"icao": "KBLI", "iata": "BLI", "name": "Bellingham ", "shortName": "Bellingham", "municipalityName": "Bellingham", "location": {"lat": 48.7928, "lon": -122.538}, "countryCode": "US"}, "averageDailyFlights": 2.71, "operators": [{"name": "Allegiant Air", "iata": "G4", "icao": "AAY"}, {"name": "Southwest Airlines", "iata": "WN", "icao": "SWA"}]}, {"destination": {"icao": "KCLT", "iata": "CLT", "name": "Charlotte Douglas", "shortName": "Douglas", "municipalityName": "Charlotte", "location": {"lat": 35.214, "lon": -80.9431}, "countryCode": "US"}, "averageDailyFlights": 2.71, "operators": [{"name": "Spirit Airlines", "iata": "NK", "icao": "NKS"}, {"name": "Frontier Airlines", "iata": "F9", "icao": "FFT"}, {"name": "American Airlines", "iata": "AA", "icao": "AAL"}]}, {"destination": {"icao": "KMKE", "iata": "MKE", "name": "Milwaukee General Mitchell", "shortName": "General Mitchell", "municipalityName": "Milwaukee", "location": {"lat": 42.9472, "lon": -87.8966}, "countryCode": "US"}, "averageDailyFlights": 2.71, "operators": [{"name": "Southwest Airlines", "iata": "WN", "icao": "SWA"}, {"name": "Spirit Airlines", "iata": "NK", "icao": "NKS"}, {"name": "Frontier Airlines", "iata": "F9", "icao": "FFT"}]}, {"destination": {"icao": "KRIC", "iata": "RIC", "name": "Richmond ", "shortName": "Richmond", "municipalityName": "Richmond", "location": {"lat": 37.5052, "lon": -77.3197}, "countryCode": "US"}, "averageDailyFlights": 2.71, "operators": [{"name": "MXY"}, {"name": "Spirit Airlines", "iata": "NK", "icao": "NKS"}]}, {"destination": {"icao": "KDPA", "iata": "DPA", "name": "Chicago/West Chicago Dupage", "shortName": "Dupage", "municipalityName": "Chicago/West Chicago", "location": {"lat": 41.9078, "lon": -88.2486}, "countryCode": "US"}, "averageDailyFlights": 2.59, "operators": [{"name": "NetJets Aviation", "iata": "1I", "icao": "EJA"}, {"name": "American Airlines", "iata": "AA", "icao": "AAL"}]}, {"destination": {"icao": "KPSP", "iata": "PSP", "name": "Palm Springs ", "shortName": "Palm Springs", "municipalityName": "Palm Springs", "location": {"lat": 33.8297, "lon": -116.507}, "countryCode": "US"}, "averageDailyFlights": 2.57, "operators": [{"name": "Southwest Airlines", "iata": "WN", "icao": "SWA"}, {"name": "LXJ"}, {"name": "GAJ"}]}, {"destination": {"icao": "KCMH", "iata": "CMH", "name": "Columbus Port", "shortName": "Port", "municipalityName": "Columbus", "location": {"lat": 39.998, "lon": -82.8919}, "countryCode": "US"}, "averageDailyFlights": 2.43, "operators": [{"name": "Southwest Airlines", "iata": "WN", "icao": "SWA"}, {"name": "Spirit Airlines", "iata": "NK", "icao": "NKS"}]}, {"destination": {"icao": "CYEG", "iata": "YEG", "name": "Edmonton ", "shortName": "Edmonton", "municipalityName": "Edmonton", "location": {"lat": 53.3097, "lon": -113.58}, "countryCode": "CA"}, "averageDailyFlights": 2.43, "operators": [{"name": "TIV"}, {"name": "WestJet", "iata": "WS", "icao": "WJA"}, {"name": "ASP"}]}, {"destination": {"icao": "KFLL", "iata": "FLL", "name": "Fort Lauderdale Hollywood", "shortName": "Hollywood", "municipalityName": "Fort Lauderdale", "location": {"lat": 26.0726, "lon": -80.1527}, "countryCode": "US"}, "averageDailyFlights": 2.29, "operators": [{"name": "JetBlue Airways", "iata": "B6", "icao": "JBU"}, {"name": "Spirit Airlines", "iata": "NK", "icao": "NKS"}, {"name": "PRXXI"}]}, {"destination": {"icao": "KMSY", "iata": "MSY", "name": "New Orleans Louis Armstrong", "shortName": "Louis Armstrong", "municipalityName": "New Orleans", "location": {"lat": 29.9934, "lon": -90.258}, "countryCode": "US"}, "averageDailyFlights": 2.29, "operators": [{"name": "Spirit Airlines", "iata": "NK", "icao": "NKS"}, {"name": "Southwest Airlines", "iata": "WN", "icao": "SWA"}, {"name": "NetJets Aviation", "iata": "1I", "icao": "EJA"}]}, {"destination": {"icao": "KPIT", "iata": "PIT", "name": "Pittsburgh ", "shortName": "Pittsburgh", "municipalityName": "Pittsburgh", "location": {"lat": 40.4915, "lon": -80.2329}, "countryCode": "US"}, "averageDailyFlights": 2.29, "operators": [{"name": "Spirit Airlines", "iata": "NK", "icao": "NKS"}, {"name": "Southwest Airlines", "iata": "WN", "icao": "SWA"}]}, {"destination": {"icao": "KRDU", "iata": "RDU", "name": "Raleigh/Durham Raleigh Durham", "shortName": "Raleigh Durham", "municipalityName": "Raleigh/Durham", "location": {"lat": 35.8776, "lon": -78.7875}, "countryCode": "US"}, "averageDailyFlights": 2.29, "operators": [{"name": "Delta Air Lines", "iata": "DL", "icao": "DAL"}, {"name": "Frontier Airlines", "iata": "F9", "icao": "FFT"}, {"name": "Southwest Airlines", "iata": "WN", "icao": "SWA"}]}, {"destination": {"icao": "KSDL", "iata": "SCF", "name": "Scottsdale ", "shortName": "Scottsdale", "municipalityName": "Scottsdale", "location": {"lat": 33.6229, "lon": -111.911}, "countryCode": "US"}, "averageDailyFlights": 2.14, "operators": [{"name": "NetJets Aviation", "iata": "1I", "icao": "EJA"}, {"name": "FTH"}, {"name": "Libyan Airlines", "iata": "LN", "icao": "LAA"}, {"name": "DJR"}, {"name": "EJM"}, {"name": "SJA"}]}, {"destination": {"icao": "KTUL", "iata": "TUL", "name": "Tulsa ", "shortName": "Tulsa", "municipalityName": "Tulsa", "location": {"lat": 36.1984, "lon": -95.8881}, "countryCode": "US"}, "averageDailyFlights": 2.14, "operators": [{"name": "Allegiant Air", "iata": "G4", "icao": "AAY"}, {"name": "Southwest Airlines", "iata": "WN", "icao": "SWA"}, {"name": "My Jet Xpress Airlines", "iata": "N7", "icao": "NEP"}, {"name": "NetJets Aviation", "iata": "1I", "icao": "EJA"}]}, {"destination": {"icao": "MMGL", "iata": "GDL", "name": "Guadalajara Don Miguel Hidalgo Y Costilla", "shortName": "Don Miguel Hidalgo Y Costilla", "municipalityName": "Guadalajara", "location": {"lat": 20.5218, "lon": -103.311}, "countryCode": "MX"}, "averageDailyFlights": 1.71, "operators": [{"name": "Volaris", "iata": "Y4", "icao": "VOI"}, {"name": "LET"}, {"name": "Frontier Airlines", "iata": "F9", "icao": "FFT"}]}, {"destination": {"icao": "KMCE", "iata": "MCE", "name": "Merced Regional Macready Field", "shortName": "Regional Macready Field", "municipalityName": "Merced", "location": {"lat": 37.2847, "lon": -120.514}, "countryCode": "US"}, "averageDailyFlights": 1.71, "operators": [{"name": "Advanced Air", "iata": "AN", "icao": "WSN"}]}, {"destination": {"icao": "KSCK", "iata": "SCK", "name": "Stockton Metropolitan", "shortName": "Metropolitan", "municipalityName": "Stockton", "location": {"lat": 37.8942, "lon": -121.238}, "countryCode": "US"}, "averageDailyFlights": 1.71, "operators": [{"name": "Allegiant Air", "iata": "G4", "icao": "AAY"}, {"name": "NetJets Aviation", "iata": "1I", "icao": "EJA"}]}, {"destination": {"icao": "KBJC", "iata": "BJC", "name": "Denver Rocky Mountain Metropolitan", "shortName": "Rocky Mountain Metropolitan", "municipalityName": "Denver", "location": {"lat": 39.9088, "lon": -105.117}, "countryCode": "US"}, "averageDailyFlights": 1.57, "operators": [{"name": "JSX Air", "iata": "XE", "icao": "JSX"}]}, {"destination": {"icao": "KEUG", "iata": "EUG", "name": "Eugene Mahlon Sweet Field", "shortName": "Mahlon Sweet Field", "municipalityName": "Eugene", "location": {"lat": 44.1246, "lon": -123.212}, "countryCode": "US"}, "averageDailyFlights": 1.57, "operators": [{"name": "Allegiant Air", "iata": "G4", "icao": "AAY"}, {"name": "Southwest Airlines", "iata": "WN", "icao": "SWA"}]}, {"destination": {"icao": "KSDF", "iata": "SDF", "name": "Louisville Standiford Field", "shortName": "Standiford Field", "municipalityName": "Louisville", "location": {"lat": 38.1744, "lon": -85.736}, "countryCode": "US"}, "averageDailyFlights": 1.57, "operators": [{"name": "Spirit Airlines", "iata": "NK", "icao": "NKS"}, {"name": "Southwest Airlines", "iata": "WN", "icao": "SWA"}, {"name": "Allegiant Air", "iata": "G4", "icao": "AAY"}]}, {"destination": {"icao": "KMEM", "iata": "MEM", "name": "Memphis ", "shortName": "Memphis", "municipalityName": "Memphis", "location": {"lat": 35.0424, "lon": -89.9767}, "countryCode": "US"}, "averageDailyFlights": 1.57, "operators": [{"name": "Spirit Airlines", "iata": "NK", "icao": "NKS"}, {"name": "Allegiant Air", "iata": "G4", "icao": "AAY"}]}, {"destination": {"icao": "KGEG", "iata": "GEG", "name": "Spokane ", "shortName": "Spokane", "municipalityName": "Spokane", "location": {"lat": 47.6199, "lon": -117.534}, "countryCode": "US"}, "averageDailyFlights": 1.57, "operators": [{"name": "Southwest Airlines", "iata": "WN", "icao": "SWA"}, {"name": "Allegiant Air", "iata": "G4", "icao": "AAY"}]}, {"destination": {"icao": "KSGU", "iata": "SGU", "name": "St. George St George Municipal", "shortName": "St George Municipal", "municipalityName": "St. George", "location": {"lat": 37.03639, "lon": -113.51031}, "countryCode": "US"}, "averageDailyFlights": 1.44, "operators": [{"name": "PCM"}, {"name": "Kabo Air", "iata": "N9", "icao": "QNK"}, {"name": "Frontier Airlines", "iata": "F9", "icao": "FFT"}]}, {"destination": {"icao": "KAMA", "iata": "AMA", "name": "Amarillo Rick Husband", "shortName": "Rick Husband", "municipalityName": "Amarillo", "location": {"lat": 35.2194, "lon": -101.706}, "countryCode": "US"}, "averageDailyFlights": 1.43, "operators": [{"name": "Southwest Airlines", "iata": "WN", "icao": "SWA"}, {"name": "NetJets Aviation", "iata": "1I", "icao": "EJA"}]}, {"destination": {"icao": "KBDL", "iata": "BDL", "name": "Hartford Bradley", "shortName": "Bradley", "municipalityName": "Hartford", "location": {"lat": 41.9389, "lon": -72.6832}, "countryCode": "US"}, "averageDailyFlights": 1.36, "operators": [{"name": "MXY"}, {"name": "Breeze Aviation Group, Inc."}]}, {"destination": {"icao": "KPAE", "iata": "PAE", "name": "Everett Snohomish County (Paine Field)", "shortName": "Snohomish County (Paine Field)", "municipalityName": "Everett", "location": {"lat": 47.9063, "lon": -122.282}, "countryCode": "US"}, "averageDailyFlights": 1.29, "operators": [{"name": "Alaska Airlines", "iata": "AS", "icao": "ASA"}]}, {"destination": {"icao": "EDDF", "iata": "FRA", "name": "Frankfurt-am-Main ", "shortName": "Frankfurt-am-Main", "municipalityName": "Frankfurt-am-Main", "location": {"lat": 50.0264, "lon": 8.543129}, "countryCode": "DE"}, "averageDailyFlights": 1.29, "operators": [{"name": "Eurowings Discover", "iata": "4Y", "icao": "OCN"}, {"name": "Flight Alaska"}, {"name": "Condor", "iata": "DE", "icao": "CFG"}]}, {"destination": {"icao": "KMAF", "iata": "MAF", "name": "Midland ", "shortName": "Midland", "municipalityName": "Midland", "location": {"lat": 31.9425, "lon": -102.202}, "countryCode": "US"}, "averageDailyFlights": 1.29, "operators": [{"name": "Southwest Airlines", "iata": "WN", "icao": "SWA"}]}, {"destination": {"icao": "KAFW", "iata": "AFW", "name": "Fort Worth Alliance", "shortName": "Alliance", "municipalityName": "Fort Worth", "location": {"lat": 32.9876, "lon": -97.3188}, "countryCode": "US"}, "averageDailyFlights": 1.14, "operators": [{"name": "Atlas Air", "iata": "5Y", "icao": "GTI"}, {"name": "JRE"}]}, {"destination": {"icao": "PHKO", "iata": "KOA", "name": "Kailua/Kona Kona  At Keahole", "shortName": "Kona  At Keahole", "municipalityName": "Kailua/Kona", "location": {"lat": 19.7388, "lon": -156.046}, "countryCode": "US"}, "averageDailyFlights": 1.14, "operators": [{"name": "Southwest Airlines", "iata": "WN", "icao": "SWA"}]}, {"destination": {"icao": "PHLI", "iata": "LIH", "name": "Lihue ", "shortName": "Lihue", "municipalityName": "Lihue", "location": {"lat": 21.976, "lon": -159.339}, "countryCode": "US"}, "averageDailyFlights": 1.14, "operators": [{"name": "Southwest Airlines", "iata": "WN", "icao": "SWA"}]}, {"destination": {"icao": "EGLL", "iata": "LHR", "name": "London Heathrow", "shortName": "Heathrow", "municipalityName": "London", "location": {"lat": 51.4706, "lon": -0.461941}, "countryCode": "GB"}, "averageDailyFlights": 1.14, "operators": [{"name": "Virgin Atlantic", "iata": "VS", "icao": "VIR"}]}, {"destination": {"icao": "KLBB", "iata": "LBB", "name": "Lubbock Preston Smith", "shortName": "Preston Smith", "municipalityName": "Lubbock", "location": {"lat": 33.6636, "lon": -101.823}, "countryCode": "US"}, "averageDailyFlights": 1.14, "operators": [{"name": "Southwest Airlines", "iata": "WN", "icao": "SWA"}]}, {"destination": {"icao": "KMFE", "iata": "MFE", "name": "Mc Allen Miller", "shortName": "Miller", "municipalityName": "Mc Allen", "location": {"lat": 26.1758, "lon": -98.2386}, "countryCode": "US"}, "averageDailyFlights": 1.14, "operators": [{"name": "Allegiant Air", "iata": "G4", "icao": "AAY"}]}, {"destination": {"name": "Charleston"}, "averageDailyFlights": 1.14, "operators": [{"name": "Breeze Aviation Group, Inc."}]}, {"destination": {"icao": "KIAD", "iata": "IAD", "name": "District of Columbia Washington Dulles", "shortName": "Washington Dulles", "municipalityName": "District of Columbia", "location": {"lat": 38.9445, "lon": -77.4558}, "countryCode": "US"}, "averageDailyFlights": 1.02, "operators": [{"name": "LXJ"}, {"name": "United Airlines", "iata": "UA", "icao": "UAL"}, {"name": "American Airlines", "iata": "AA", "icao": "AAL"}]}, {"destination": {"icao": "KDSM", "iata": "DSM", "name": "Des Moines ", "shortName": "Des Moines", "municipalityName": "Des Moines", "location": {"lat": 41.534, "lon": -93.6631}, "countryCode": "US"}, "averageDailyFlights": 1.0, "operators": [{"name": "Allegiant Air", "iata": "G4", "icao": "AAY"}, {"name": "Southwest Airlines", "iata": "WN", "icao": "SWA"}]}, {"destination": {"icao": "KMRY", "iata": "MRY", "name": "Monterey Peninsula", "shortName": "Peninsula", "municipalityName": "Monterey", "location": {"lat": 36.587, "lon": -121.843}, "countryCode": "US"}, "averageDailyFlights": 1.0, "operators": [{"name": "Allegiant Air", "iata": "G4", "icao": "AAY"}, {"name": "NetJets Aviation", "iata": "1I", "icao": "EJA"}]}, {"destination": {"icao": "EHAM", "iata": "AMS", "name": "Amsterdam Schiphol", "shortName": "Schiphol", "municipalityName": "Amsterdam", "location": {"lat": 52.3086, "lon": 4.763889}, "countryCode": "NL"}, "averageDailyFlights": 0.86, "operators": [{"name": "KLM", "iata": "KL", "icao": "KLM"}]}, {"destination": {"icao": "KCDC", "iata": "CDC", "name": "Cedar City Regional", "shortName": "Regional", "municipalityName": "Cedar City", "location": {"lat": 37.701, "lon": -113.099}, "countryCode": "US"}, "averageDailyFlights": 0.86, "operators": [{"name": "PCM"}]}, {"destination": {"icao": "KCCR", "iata": "CCR", "name": "Concord Buchanan Field", "shortName": "Buchanan Field", "municipalityName": "Concord", "location": {"lat": 37.9897, "lon": -122.057}, "countryCode": "US"}, "averageDailyFlights": 0.86, "operators": [{"name": "JSX Air", "iata": "XE", "icao": "JSX"}, {"name": "NetJets Aviation", "iata": "1I", "icao": "EJA"}]}, {"destination": {"icao": "KEGE", "iata": "EGE", "name": "Eagle County Regional", "shortName": "County Regional", "municipalityName": "Eagle", "location": {"lat": 39.6426, "lon": -106.918}, "countryCode": "US"}, "averageDailyFlights": 0.86, "operators": [{"name": "EJM"}, {"name": "NetJets Aviation", "iata": "1I", "icao": "EJA"}, {"name": "LXJ"}]}, {"destination": {"icao": "KXNA", "iata": "XNA", "name": "Fayetteville/Springdale/ Northwest Arkansas Regional", "shortName": "Northwest Arkansas Regional", "municipalityName": "Fayetteville/Springdale/", "location": {"lat": 36.2819, "lon": -94.3068}, "countryCode": "US"}, "averageDailyFlights": 0.86, "operators": [{"name": "MXY"}, {"name": "Allegiant Air", "iata": "G4", "icao": "AAY"}]}, {"destination": {"icao": "CYUL", "iata": "YUL", "name": "Montreal Trudeau", "shortName": "Trudeau", "municipalityName": "Montreal", "location": {"lat": 45.4706, "lon": -73.7408}, "countryCode": "CA"}, "averageDailyFlights": 0.86, "operators": [{"name": "Air Canada", "iata": "AC", "icao": "ACA"}]}, {"destination": {"icao": "KORF", "iata": "ORF", "name": "Norfolk ", "shortName": "Norfolk", "municipalityName": "Norfolk", "location": {"lat": 36.8946, "lon": -76.2012}, "countryCode": "US"}, "averageDailyFlights": 0.86, "operators": [{"name": "MXY"}]}, {"destination": {"icao": "KBFI", "iata": "BFI", "name": "Seattle Boeing Field King County", "shortName": "Boeing Field King County", "municipalityName": "Seattle", "location": {"lat": 47.53, "lon": -122.302}, "countryCode": "US"}, "averageDailyFlights": 0.86, "operators": [{"name": "JRE"}, {"name": "NetJets Aviation", "iata": "1I", "icao": "EJA"}, {"name": "TIV"}, {"name": "LXJ"}]}, {"destination": {"icao": "KAPA", "iata": "APA", "name": "Denver Centennial", "shortName": "Centennial", "municipalityName": "Denver", "location": {"lat": 39.5701, "lon": -104.849}, "countryCode": "US"}, "averageDailyFlights": 0.75, "operators": [{"name": "NetJets Aviation", "iata": "1I", "icao": "EJA"}, {"name": "TWY"}, {"name": "PRE"}, {"name": "United Airlines", "iata": "UA", "icao": "UAL"}]}, {"destination": {"icao": "KATW", "iata": "ATW", "name": "Appleton ", "shortName": "Appleton", "municipalityName": "Appleton", "location": {"lat": 44.2581, "lon": -88.5191}, "countryCode": "US"}, "averageDailyFlights": 0.71, "operators": [{"name": "Allegiant Air", "iata": "G4", "icao": "AAY"}]}, {"destination": {"icao": "KASE", "iata": "ASE", "name": "Aspen Sardy Field", "shortName": "Sardy Field", "municipalityName": "Aspen", "location": {"lat": 39.2232, "lon": -106.869}, "countryCode": "US"}, "averageDailyFlights": 0.71, "operators": [{"name": "LXJ"}, {"name": "DLX"}, {"name": "JRE"}]}, {"destination": {"icao": "KCRQ", "iata": "CLD", "name": "Carlsbad Mc Clellan-Palomar", "shortName": "Mc Clellan-Palomar", "municipalityName": "Carlsbad", "location": {"lat": 33.1283, "lon": -117.28}, "countryCode": "US"}, "averageDailyFlights": 0.71, "operators": [{"name": "TIV"}, {"name": "GAJ"}, {"name": "NetJets Aviation", "iata": "1I", "icao": "EJA"}]}, {"destination": {"icao": "KGRR", "iata": "GRR", "name": "Grand Rapids Gerald R. Ford", "shortName": "Gerald R. Ford", "municipalityName": "Grand Rapids", "location": {"lat": 42.8808, "lon": -85.5228}, "countryCode": "US"}, "averageDailyFlights": 0.71, "operators": [{"name": "Allegiant Air", "iata": "G4", "icao": "AAY"}]}, {"destination": {"icao": "KGPI", "iata": "FCA", "name": "Kalispell Glacier Park", "shortName": "Glacier Park", "municipalityName": "Kalispell", "location": {"lat": 48.3105, "lon": -114.256}, "countryCode": "US"}, "averageDailyFlights": 0.71, "operators": [{"name": "Allegiant Air", "iata": "G4", "icao": "AAY"}, {"name": "TIV"}]}, {"destination": {"icao": "KLNK", "iata": "LNK", "name": "Lincoln ", "shortName": "Lincoln", "municipalityName": "Lincoln", "location": {"lat": 40.851, "lon": -96.7592}, "countryCode": "US"}, "averageDailyFlights": 0.71, "operators": [{"name": "SLH"}, {"name": "GXA"}]}, {"destination": {"icao": "KMFR", "iata": "MFR", "name": "Medford Rogue Valley", "shortName": "Rogue Valley", "municipalityName": "Medford", "location": {"lat": 42.3742, "lon": -122.873}, "countryCode": "US"}, "averageDailyFlights": 0.71, "operators": [{"name": "Allegiant Air", "iata": "G4", "icao": "AAY"}]}, {"destination": {"icao": "KSBD", "iata": "SBD", "name": "San Bernardino ", "shortName": "San Bernardino", "municipalityName": "San Bernardino", "location": {"lat": 34.0954, "lon": -117.235}, "countryCode": "US"}, "averageDailyFlights": 0.71, "operators": [{"name": "XADLN"}, {"name": "Breeze Aviation Group, Inc."}, {"name": "MXY"}]}, {"destination": {"icao": "MPTO", "iata": "PTY", "name": "Tocumen ", "shortName": "Tocumen", "municipalityName": "Tocumen", "location": {"lat": 9.071359, "lon": -79.3835}, "countryCode": "PA"}, "averageDailyFlights": 0.71, "operators": [{"name": "Copa Airlines", "iata": "CM", "icao": "CMP"}]}, {"destination": {"icao": "KFAR", "iata": "FAR", "name": "Fargo Hector", "shortName": "Hector", "municipalityName": "Fargo", "location": {"lat": 46.9207, "lon": -96.8158}, "countryCode": "US"}, "averageDailyFlights": 0.57, "operators": [{"name": "Allegiant Air", "iata": "G4", "icao": "AAY"}]}, {"destination": {"icao": "KRSW", "iata": "RSW", "name": "Fort Myers Southwest Florida", "shortName": "Southwest Florida", "municipalityName": "Fort Myers", "location": {"lat": 26.5362, "lon": -81.7552}, "countryCode": "US"}, "averageDailyFlights": 0.57, "operators": [{"name": "MXY"}]}, {"destination": {"icao": "KHSV", "iata": "HSV", "name": "Huntsville Carl T Jones Field", "shortName": "Carl T Jones Field", "municipalityName": "Huntsville", "location": {"lat": 34.6372, "lon": -86.7751}, "countryCode": "US"}, "averageDailyFlights": 0.57, "operators": [{"name": "MXY"}]}, {"destination": {"icao": "KMTJ", "iata": "MTJ", "name": "Montrose Regional", "shortName": "Regional", "municipalityName": "Montrose", "location": {"lat": 38.5098, "lon": -107.894}, "countryCode": "US"}, "averageDailyFlights": 0.57, "operators": [{"name": "IJA"}, {"name": "NetJets Aviation", "iata": "1I", "icao": "EJA"}, {"name": "Southwest Airlines", "iata": "WN", "icao": "SWA"}]}, {"destination": {"icao": "KPGA", "iata": "PGA", "name": "Page Municipal", "shortName": "Municipal", "municipalityName": "Page", "location": {"lat": 36.9261, "lon": -111.448}, "countryCode": "US"}, "averageDailyFlights": 0.57, "operators": [{"name": "NetJets Aviation", "iata": "1I", "icao": "EJA"}, {"name": "TIV"}]}, {"destination": {"icao": "KPSC", "iata": "PSC", "name": "Pasco Tri Cities", "shortName": "Tri Cities", "municipalityName": "Pasco", "location": {"lat": 46.2647, "lon": -119.119}, "countryCode": "US"}, "averageDailyFlights": 0.57, "operators": [{"name": "Allegiant Air", "iata": "G4", "icao": "AAY"}]}, {"destination": {"icao": "KPIA", "iata": "PIA", "name": "Peoria General Wayne A. Downing", "shortName": "General Wayne A. Downing", "municipalityName": "Peoria", "location": {"lat": 40.6642, "lon": -89.6933}, "countryCode": "US"}, "averageDailyFlights": 0.57, "operators": [{"name": "Allegiant Air", "iata": "G4", "icao": "AAY"}]}, {"destination": {"icao": "KIWA", "iata": "AZA", "name": "Phoenix -Mesa-Gateway", "shortName": "-Mesa-Gateway", "municipalityName": "Phoenix", "location": {"lat": 33.3078, "lon": -111.655}, "countryCode": "US"}, "averageDailyFlights": 0.57, "operators": [{"name": "EJM"}, {"name": "DCM"}]}, {"destination": {"icao": "KSMX", "iata": "SMX", "name": "Santa Maria Capt G Allan Hancock Field", "shortName": "Capt G Allan Hancock Field", "municipalityName": "Santa Maria", "location": {"lat": 34.8989, "lon": -120.457}, "countryCode": "US"}, "averageDailyFlights": 0.57, "operators": [{"name": "Allegiant Air", "iata": "G4", "icao": "AAY"}, {"name": "JRE"}]}, {"destination": {"icao": "KSTS", "iata": "STS", "name": "Santa Rosa Charles M. Schulz Sonoma County", "shortName": "Charles M. Schulz Sonoma County", "municipalityName": "Santa Rosa", "location": {"lat": 38.509, "lon": -122.813}, "countryCode": "US"}, "averageDailyFlights": 0.57, "operators": [{"name": "VXP"}]}, {"destination": {"icao": "RKSI", "iata": "ICN", "name": "Seoul Incheon", "shortName": "Incheon", "municipalityName": "Seoul", "location": {"lat": 37.4691, "lon": 126.451}, "countryCode": "KR"}, "averageDailyFlights": 0.57, "operators": [{"name": "Korean Air", "iata": "KE", "icao": "KAL"}]}, {"destination": {"icao": "KFSD", "iata": "FSD", "name": "Sioux Falls Joe Foss Field", "shortName": "Joe Foss Field", "municipalityName": "Sioux Falls", "location": {"lat": 43.582, "lon": -96.7419}, "countryCode": "US"}, "averageDailyFlights": 0.57, "operators": [{"name": "Allegiant Air", "iata": "G4", "icao": "AAY"}]}, {"destination": {"icao": "KSGF", "iata": "SGF", "name": "Springfield Branson National", "shortName": "Branson National", "municipalityName": "Springfield", "location": {"lat": 37.2457, "lon": -93.3886}, "countryCode": "US"}, "averageDailyFlights": 0.57, "operators": [{"name": "Allegiant Air", "iata": "G4", "icao": "AAY"}]}, {"destination": {"icao": "KICT", "iata": "ICT", "name": "Wichita Mid Continent", "shortName": "Mid Continent", "municipalityName": "Wichita", "location": {"lat": 37.6499, "lon": -97.4331}, "countryCode": "US"}, "averageDailyFlights": 0.57, "operators": [{"name": "Southwest Airlines", "iata": "WN", "icao": "SWA"}, {"name": "Allegiant Air", "iata": "G4", "icao": "AAY"}]}, {"destination": {"icao": "LSZH", "iata": "ZRH", "name": "Zurich Kloten", "shortName": "Kloten", "municipalityName": "Zurich", "location": {"lat": 47.4647, "lon": 8.549169}, "countryCode": "CH"}, "averageDailyFlights": 0.57, "operators": [{"name": "Edelweiss Air", "iata": "WK", "icao": "EDW"}]}, {"destination": {"icao": "KCAK", "iata": "CAK", "name": "Akron Canton Regional", "shortName": "Canton Regional", "municipalityName": "Akron", "location": {"lat": 40.9161, "lon": -81.4422}, "countryCode": "US"}, "averageDailyFlights": 0.43, "operators": [{"name": "MXY"}]}, {"destination": {"icao": "PANC", "iata": "ANC", "name": "Anchorage Ted Stevens", "shortName": "Ted Stevens", "municipalityName": "Anchorage", "location": {"lat": 61.1744, "lon": -149.996}, "countryCode": "US"}, "averageDailyFlights": 0.43, "operators": [{"name": "Alaska Airlines", "iata": "AS", "icao": "ASA"}]}, {"destination": {"icao": "KBIL", "iata": "BIL", "name": "Billings Metropolitan Area Billings Logan", "shortName": "Billings Logan", "municipalityName": "Billings Metropolitan Area", "location": {"lat": 45.8077, "lon": -108.543}, "countryCode": "US"}, "averageDailyFlights": 0.43, "operators": [{"name": "Allegiant Air", "iata": "G4", "icao": "AAY"}]}, {"destination": {"icao": "KCID", "iata": "CID", "name": "Cedar Rapids The Eastern Iowa", "shortName": "The Eastern Iowa", "municipalityName": "Cedar Rapids", "location": {"lat": 41.8847, "lon": -91.7108}, "countryCode": "US"}, "averageDailyFlights": 0.43, "operators": [{"name": "Allegiant Air", "iata": "G4", "icao": "AAY"}]}, {"destination": {"icao": "KRFD", "iata": "RFD", "name": "Chicago/Rockford Chicago Rockford", "shortName": "Chicago Rockford", "municipalityName": "Chicago/Rockford", "location": {"lat": 42.1954, "lon": -89.0972}, "countryCode": "US"}, "averageDailyFlights": 0.43, "operators": [{"name": "Allegiant Air", "iata": "G4", "icao": "AAY"}]}, {"destination": {"icao": "KFNT", "iata": "FNT", "name": "Flint Bishop", "shortName": "Bishop", "municipalityName": "Flint", "location": {"lat": 42.9654, "lon": -83.7436}, "countryCode": "US"}, "averageDailyFlights": 0.43, "operators": [{"name": "Allegiant Air", "iata": "G4", "icao": "AAY"}]}, {"destination": {"icao": "KGJT", "iata": "GJT", "name": "Grand Junction Regional", "shortName": "Regional", "municipalityName": "Grand Junction", "location": {"lat": 39.1224, "lon": -108.527}, "countryCode": "US"}, "averageDailyFlights": 0.43, "operators": [{"name": "Allegiant Air", "iata": "G4", "icao": "AAY"}]}, {"destination": {"icao": "KGTF", "iata": "GTF", "name": "Great Falls ", "shortName": "Great Falls", "municipalityName": "Great Falls", "location": {"lat": 47.482, "lon": -111.371}, "countryCode": "US"}, "averageDailyFlights": 0.43, "operators": [{"name": "Allegiant Air", "iata": "G4", "icao": "AAY"}]}, {"destination": {"icao": "KIDA", "iata": "IDA", "name": "Idaho Falls Regional", "shortName": "Regional", "municipalityName": "Idaho Falls", "location": {"lat": 43.5146, "lon": -112.071}, "countryCode": "US"}, "averageDailyFlights": 0.43, "operators": [{"name": "Allegiant Air", "iata": "G4", "icao": "AAY"}]}, {"destination": {"icao": "KJAC", "iata": "JAC", "name": "Jackson Hole", "shortName": "Hole", "municipalityName": "Jackson", "location": {"lat": 43.6073, "lon": -110.738}, "countryCode": "US"}, "averageDailyFlights": 0.43, "operators": [{"name": "LXJ"}, {"name": "TIV"}]}, {"destination": {"icao": "KMKC", "iata": "MKC", "name": "Kansas City Charles B. Wheeler Downtown", "shortName": "Charles B. Wheeler Downtown", "municipalityName": "Kansas City", "location": {"lat": 39.1232, "lon": -94.5928}, "countryCode": "US"}, "averageDailyFlights": 0.43, "operators": [{"name": "MMN"}]}, {"destination": {"icao": "KTYS", "iata": "TYS", "name": "Knoxville McGhee Tyson", "shortName": "McGhee Tyson", "municipalityName": "Knoxville", "location": {"lat": 35.811, "lon": -83.994}, "countryCode": "US"}, "averageDailyFlights": 0.43, "operators": [{"name": "Allegiant Air", "iata": "G4", "icao": "AAY"}]}, {"destination": {"icao": "KHND", "iata": "HSH", "name": "Las Vegas Henderson Executive", "shortName": "Henderson Executive", "municipalityName": "Las Vegas", "location": {"lat": 35.9728, "lon": -115.134}, "countryCode": "US"}, "averageDailyFlights": 0.43, "operators": [{"name": "NetJets Aviation", "iata": "1I", "icao": "EJA"}, {"name": "EDG"}, {"name": "STV"}]}, {"destination": {"icao": "EGKK", "iata": "LGW", "name": "London Gatwick", "shortName": "Gatwick", "municipalityName": "London", "location": {"lat": 51.1481, "lon": -0.190277}, "countryCode": "GB"}, "averageDailyFlights": 0.43, "operators": [{"name": "British Airways", "iata": "BA", "icao": "BAW"}]}, {"destination": {"icao": "KMSO", "iata": "MSO", "name": "Missoula ", "shortName": "Missoula", "municipalityName": "Missoula", "location": {"lat": 46.9163, "lon": -114.091}, "countryCode": "US"}, "averageDailyFlights": 0.43, "operators": [{"name": "Allegiant Air", "iata": "G4", "icao": "AAY"}]}, {"destination": {"icao": "KMLI", "iata": "MLI", "name": "Moline Quad City", "shortName": "Quad City", "municipalityName": "Moline", "location": {"lat": 41.4485, "lon": -90.5075}, "countryCode": "US"}, "averageDailyFlights": 0.43, "operators": [{"name": "Allegiant Air", "iata": "G4", "icao": "AAY"}, {"name": "NetJets Aviation", "iata": "1I", "icao": "EJA"}]}, {"destination": {"icao": "MMMY", "iata": "MTY", "name": "Monterrey General Mariano Escobedo", "shortName": "General Mariano Escobedo", "municipalityName": "Monterrey", "location": {"lat": 25.7785, "lon": -100.107}, "countryCode": "MX"}, "averageDailyFlights": 0.43, "operators": [{"name": "VivaAerobus", "iata": "VB", "icao": "VIV"}]}, {"destination": {"icao": "KAPC", "iata": "APC", "name": "Napa County", "shortName": "County", "municipalityName": "Napa", "location": {"lat": 38.2132, "lon": -122.281}, "countryCode": "US"}, "averageDailyFlights": 0.43, "operators": [{"name": "JTZ"}, {"name": "NetJets Aviation", "iata": "1I", "icao": "EJA"}]}, {"destination": {"icao": "KSEE", "iata": "SEE", "name": "San Diego/El Cajon Gillespie Field", "shortName": "Gillespie Field", "municipalityName": "San Diego/El Cajon", "location": {"lat": 32.8262, "lon": -116.972}, "countryCode": "US"}, "averageDailyFlights": 0.43, "operators": [{"name": "Libyan Airlines", "iata": "LN", "icao": "LAA"}, {"name": "GAJ"}]}, {"destination": {"icao": "KSHV", "iata": "SHV", "name": "Shreveport Regional", "shortName": "Regional", "municipalityName": "Shreveport", "location": {"lat": 32.4466, "lon": -93.8256}, "countryCode": "US"}, "averageDailyFlights": 0.43, "operators": [{"name": "Allegiant Air", "iata": "G4", "icao": "AAY"}]}, {"destination": {"icao": "MMTO", "iata": "TLC", "name": "Toluca Licenciado Adolfo Lopez Mateos", "shortName": "Licenciado Adolfo Lopez Mateos", "municipalityName": "Toluca", "location": {"lat": 19.3371, "lon": -99.566}, "countryCode": "MX"}, "averageDailyFlights": 0.43, "operators": [{"name": "LET"}, {"name": "ACW"}]}, {"destination": {"name": "Provo"}, "averageDailyFlights": 0.43, "operators": [{"name": "Allegiant Air", "iata": "G4", "icao": "AAY"}]}, {"destination": {"icao": "KAVL", "iata": "AVL", "name": "Asheville Regional", "shortName": "Regional", "municipalityName": "Asheville", "location": {"lat": 35.4362, "lon": -82.5418}, "countryCode": "US"}, "averageDailyFlights": 0.29, "operators": [{"name": "Allegiant Air", "iata": "G4", "icao": "AAY"}]}, {"destination": {"icao": "KBIS", "iata": "BIS", "name": "Bismarck Municipal", "shortName": "Municipal", "municipalityName": "Bismarck", "location": {"lat": 46.7727, "lon": -100.746}, "countryCode": "US"}, "averageDailyFlights": 0.29, "operators": [{"name": "Allegiant Air", "iata": "G4", "icao": "AAY"}]}, {"destination": {"icao": "KCNM", "iata": "CNM", "name": "Carlsbad Cavern City Air Terminal", "shortName": "Cavern City Air Terminal", "municipalityName": "Carlsbad", "location": {"lat": 32.3375, "lon": -104.263}, "countryCode": "US"}, "averageDailyFlights": 0.29, "operators": [{"name": "TWY"}]}, {"destination": {"icao": "KCOE", "iata": "COE", "name": "Coeur d'Alene - Pappy Boyington Field", "shortName": "- Pappy Boyington Field", "municipalityName": "Coeur d'Alene", "location": {"lat": 47.7743, "lon": -116.82}, "countryCode": "US"}, "averageDailyFlights": 0.29, "operators": [{"name": "LXJ"}]}, {"destination": {"icao": "KFWA", "iata": "FWA", "name": "Fort Wayne ", "shortName": "Fort Wayne", "municipalityName": "Fort Wayne", "location": {"lat": 40.9785, "lon": -85.1951}, "countryCode": "US"}, "averageDailyFlights": 0.29, "operators": [{"name": "Allegiant Air", "iata": "G4", "icao": "AAY"}]}, {"destination": {"icao": "KGFK", "iata": "GFK", "name": "Grand Forks ", "shortName": "Grand Forks", "municipalityName": "Grand Forks", "location": {"lat": 47.9493, "lon": -97.1761}, "countryCode": "US"}, "averageDailyFlights": 0.29, "operators": [{"name": "Allegiant Air", "iata": "G4", "icao": "AAY"}]}, {"destination": {"icao": "KGRI", "iata": "GRI", "name": "Grand Island Central Nebraska Regional", "shortName": "Central Nebraska Regional", "municipalityName": "Grand Island", "location": {"lat": 40.9675, "lon": -98.3096}, "countryCode": "US"}, "averageDailyFlights": 0.29, "operators": [{"name": "Allegiant Air", "iata": "G4", "icao": "AAY"}]}, {"destination": {"icao": "KSUN", "iata": "SUN", "name": "Hailey Friedman Memorial", "shortName": "Friedman Memorial", "municipalityName": "Hailey", "location": {"lat": 43.5044, "lon": -114.296}, "countryCode": "US"}, "averageDailyFlights": 0.29, "operators": [{"name": "EDG"}, {"name": "NetJets Aviation", "iata": "1I", "icao": "EJA"}]}, {"destination": {"icao": "CYHM", "iata": "YHM", "name": "Hamilton John C. Munro", "shortName": "John C. Munro", "municipalityName": "Hamilton", "location": {"lat": 43.1736, "lon": -79.935}, "countryCode": "CA"}, "averageDailyFlights": 0.29, "operators": [{"name": "Swoop", "iata": "WO", "icao": "WSW"}]}, {"destination": {"icao": "KJAX", "iata": "JAX", "name": "Jacksonville ", "shortName": "Jacksonville", "municipalityName": "Jacksonville", "location": {"lat": 30.4941, "lon": -81.6879}, "countryCode": "US"}, "averageDailyFlights": 0.29, "operators": [{"name": "MXY"}]}, {"destination": {"icao": "KLRD", "iata": "LRD", "name": "Laredo ", "shortName": "Laredo", "municipalityName": "Laredo", "location": {"lat": 27.5438, "lon": -99.4616}, "countryCode": "US"}, "averageDailyFlights": 0.29, "operators": [{"name": "Allegiant Air", "iata": "G4", "icao": "AAY"}]}, {"destination": {"icao": "KLRU", "iata": "LRU", "name": "Las Cruces ", "shortName": "Las Cruces", "municipalityName": "Las Cruces", "location": {"lat": 32.2894, "lon": -106.922}, "countryCode": "US"}, "averageDailyFlights": 0.29, "operators": [{"name": "CBC"}]}, {"destination": {"icao": "KLEX", "iata": "LEX", "name": "Lexington Blue Grass", "shortName": "Blue Grass", "municipalityName": "Lexington", "location": {"lat": 38.0365, "lon": -84.6059}, "countryCode": "US"}, "averageDailyFlights": 0.29, "operators": [{"name": "Allegiant Air", "iata": "G4", "icao": "AAY"}]}, {"destination": {"icao": "KLIT", "iata": "LIT", "name": "Little Rock Adams Field", "shortName": "Adams Field", "municipalityName": "Little Rock", "location": {"lat": 34.7294, "lon": -92.2243}, "countryCode": "US"}, "averageDailyFlights": 0.29, "operators": [{"name": "Frontier Airlines", "iata": "F9", "icao": "FFT"}]}, {"destination": {"icao": "KMAE", "iata": "MAE", "name": "Madera Municipal", "shortName": "Municipal", "municipalityName": "Madera", "location": {"lat": 36.9886, "lon": -120.112}, "countryCode": "US"}, "averageDailyFlights": 0.29, "operators": [{"name": "TOG"}]}, {"destination": {"icao": "KMOT", "iata": "MOT", "name": "Minot ", "shortName": "Minot", "municipalityName": "Minot", "location": {"lat": 48.2594, "lon": -101.28}, "countryCode": "US"}, "averageDailyFlights": 0.29, "operators": [{"name": "Allegiant Air", "iata": "G4", "icao": "AAY"}]}, {"destination": {"icao": "KAPF", "iata": "APF", "name": "Naples Municipal", "shortName": "Municipal", "municipalityName": "Naples", "location": {"lat": 26.1526, "lon": -81.7753}, "countryCode": "US"}, "averageDailyFlights": 0.29, "operators": [{"name": "TIV"}]}, {"destination": {"icao": "KSFB", "iata": "SFB", "name": "Orlando Sanford", "shortName": "Sanford", "municipalityName": "Orlando", "location": {"lat": 28.7776, "lon": -81.2375}, "countryCode": "US"}, "averageDailyFlights": 0.29, "operators": [{"name": "Allegiant Air", "iata": "G4", "icao": "AAY"}]}, {"destination": {"icao": "KRAP", "iata": "RAP", "name": "Rapid City Regional", "shortName": "Regional", "municipalityName": "Rapid City", "location": {"lat": 44.0453, "lon": -103.057}, "countryCode": "US"}, "averageDailyFlights": 0.29, "operators": [{"name": "Allegiant Air", "iata": "G4", "icao": "AAY"}]}, {"destination": {"icao": "KSBN", "iata": "SBN", "name": "South Bend Regional", "shortName": "Regional", "municipalityName": "South Bend", "location": {"lat": 41.7087, "lon": -86.3173}, "countryCode": "US"}, "averageDailyFlights": 0.29, "operators": [{"name": "Allegiant Air", "iata": "G4", "icao": "AAY"}]}, {"destination": {"icao": "KTVL", "iata": "TVL", "name": "South Lake Tahoe Lake Tahoe", "shortName": "Lake Tahoe", "municipalityName": "South Lake Tahoe", "location": {"lat": 38.8939, "lon": -119.995}, "countryCode": "US"}, "averageDailyFlights": 0.29, "operators": [{"name": "N2"}]}, {"destination": {"icao": "KSYR", "iata": "SYR", "name": "Syracuse Hancock", "shortName": "Hancock", "municipalityName": "Syracuse", "location": {"lat": 43.1112, "lon": -76.1063}, "countryCode": "US"}, "averageDailyFlights": 0.29, "operators": [{"name": "MXY"}]}, {"destination": {"icao": "KTEX", "iata": "TEX", "name": "Telluride Regional", "shortName": "Regional", "municipalityName": "Telluride", "location": {"lat": 37.9538, "lon": -107.908}, "countryCode": "US"}, "averageDailyFlights": 0.29, "operators": [{"name": "TIV"}]}, {"destination": {"icao": "KTRK", "iata": "TKF", "name": "Truckee Tahoe", "shortName": "Tahoe", "municipalityName": "Truckee", "location": {"lat": 39.32, "lon": -120.14}, "countryCode": "US"}, "averageDailyFlights": 0.29, "operators": [{"name": "NetJets Aviation", "iata": "1I", "icao": "EJA"}]}, {"destination": {"icao": "KTWF", "iata": "TWF", "name": "Twin Falls Joslin Field Magic Valley Regional", "shortName": "Joslin Field Magic Valley Regional", "municipalityName": "Twin Falls", "location": {"lat": 42.4818, "lon": -114.488}, "countryCode": "US"}, "averageDailyFlights": 0.29, "operators": [{"name": "WSP"}]}, {"destination": {"icao": "KVPS", "iata": "VPS", "name": "Valparaiso Eglin Air Force Base", "shortName": "Eglin Air Force Base", "municipalityName": "Valparaiso", "location": {"lat": 30.4832, "lon": -86.5254}, "countryCode": "US"}, "averageDailyFlights": 0.29, "operators": [{"name": "Allegiant Air", "iata": "G4", "icao": "AAY"}]}, {"destination": {"icao": "CYWG", "iata": "YWG", "name": "Winnipeg James Armstrong Richardson", "shortName": "James Armstrong Richardson", "municipalityName": "Winnipeg", "location": {"lat": 49.91, "lon": -97.2399}, "countryCode": "CA"}, "averageDailyFlights": 0.29, "operators": [{"name": "WestJet", "iata": "WS", "icao": "WJA"}]}, {"destination": {"icao": "KACY", "iata": "ACY", "name": "Atlantic City ", "shortName": "Atlantic City", "municipalityName": "Atlantic City", "location": {"lat": 39.4576, "lon": -74.5772}, "countryCode": "US"}, "averageDailyFlights": 0.14, "operators": [{"name": "Spirit Airlines", "iata": "NK", "icao": "NKS"}]}, {"destination": {"icao": "KBGR", "iata": "BGR", "name": "Bangor ", "shortName": "Bangor", "municipalityName": "Bangor", "location": {"lat": 44.8074, "lon": -68.8281}, "countryCode": "US"}, "averageDailyFlights": 0.14, "operators": [{"name": "EDG"}]}, {"destination": {"icao": "KBHM", "iata": "BHM", "name": "Birmingham -Shuttlesworth", "shortName": "-Shuttlesworth", "municipalityName": "Birmingham", "location": {"lat": 33.5629, "lon": -86.7535}, "countryCode": "US"}, "averageDailyFlights": 0.14, "operators": [{"name": "Southwest Airlines", "iata": "WN", "icao": "SWA"}]}, {"destination": {"icao": "KBIH", "iata": "BIH", "name": "Bishop Eastern Sierra Regional", "shortName": "Eastern Sierra Regional", "municipalityName": "Bishop", "location": {"lat": 37.3731, "lon": -118.364}, "countryCode": "US"}, "averageDailyFlights": 0.14, "operators": [{"name": "National Airlines", "iata": "N8", "icao": "NCR"}]}, {"destination": {"icao": "KBUF", "iata": "BUF", "name": "Buffalo Niagara", "shortName": "Niagara", "municipalityName": "Buffalo", "location": {"lat": 42.9405, "lon": -78.7322}, "countryCode": "US"}, "averageDailyFlights": 0.14, "operators": [{"name": "Southwest Airlines", "iata": "WN", "icao": "SWA"}]}, {"destination": {"icao": "KLUK", "iata": "LUK", "name": "Cincinnati Municipal  Lunken Field", "shortName": "Municipal  Lunken Field", "municipalityName": "Cincinnati", "location": {"lat": 39.1033, "lon": -84.4186}, "countryCode": "US"}, "averageDailyFlights": 0.14, "operators": [{"name": "XOJ"}]}, {"destination": {"icao": "KYIP", "iata": "YIP", "name": "Detroit Willow Run", "shortName": "Willow Run", "municipalityName": "Detroit", "location": {"lat": 42.2379, "lon": -83.5304}, "countryCode": "US"}, "averageDailyFlights": 0.14, "operators": [{"name": "LXJ"}]}, {"destination": {"icao": "KDLN", "iata": "DLN", "name": "Dillon ", "shortName": "Dillon", "municipalityName": "Dillon", "location": {"lat": 45.2554, "lon": -112.553}, "countryCode": "US"}, "averageDailyFlights": 0.14, "operators": [{"name": "NetJets Aviation", "iata": "1I", "icao": "EJA"}]}, {"destination": {"icao": "KDRO", "iata": "DRO", "name": "Durango La Plata County", "shortName": "La Plata County", "municipalityName": "Durango", "location": {"lat": 37.1515, "lon": -107.754}, "countryCode": "US"}, "averageDailyFlights": 0.14, "operators": [{"name": "NetJets Aviation", "iata": "1I", "icao": "EJA"}]}, {"destination": {"icao": "KFRG", "iata": "FRG", "name": "Farmingdale Republic", "shortName": "Republic", "municipalityName": "Farmingdale", "location": {"lat": 40.7288, "lon": -73.4134}, "countryCode": "US"}, "averageDailyFlights": 0.14, "operators": [{"name": "NetJets Aviation", "iata": "1I", "icao": "EJA"}]}, {"destination": {"icao": "KFLG", "iata": "FLG", "name": "Flagstaff Pulliam", "shortName": "Pulliam", "municipalityName": "Flagstaff", "location": {"lat": 35.1385, "lon": -111.671}, "countryCode": "US"}, "averageDailyFlights": 0.14, "operators": [{"name": "NetJets Aviation", "iata": "1I", "icao": "EJA"}]}, {"destination": {"icao": "KFHU", "iata": "FHU", "name": "Fort Huachuca Sierra Vista Sierra Vista Municipal Libby Army Air Field", "shortName": "Sierra Vista Municipal Libby Army Air Field", "municipalityName": "Fort Huachuca Sierra Vista", "location": {"lat": 31.5885, "lon": -110.344}, "countryCode": "US"}, "averageDailyFlights": 0.14, "operators": [{"name": "LXJ"}]}, {"destination": {"icao": "KFTW", "iata": "FTW", "name": "Fort Worth Meacham", "shortName": "Meacham", "municipalityName": "Fort Worth", "location": {"lat": 32.8198, "lon": -97.3624}, "countryCode": "US"}, "averageDailyFlights": 0.14, "operators": [{"name": "KOW"}]}, {"destination": {"icao": "MWCR", "iata": "GCM", "name": "Georgetown Owen Roberts", "shortName": "Owen Roberts", "municipalityName": "Georgetown", "location": {"lat": 19.2928, "lon": -81.3577}, "countryCode": "KY"}, "averageDailyFlights": 0.14, "operators": [{"name": "TIV"}]}, {"destination": {"icao": "KGNT", "iata": "GNT", "name": "Grants -Milan Municipal", "shortName": "-Milan Municipal", "municipalityName": "Grants", "location": {"lat": 35.1673, "lon": -107.902}, "countryCode": "US"}, "averageDailyFlights": 0.14, "operators": [{"name": "Libyan Airlines", "iata": "LN", "icao": "LAA"}]}, {"destination": {"icao": "KGUC", "iata": "GUC", "name": "Gunnison Crested Butte Regional", "shortName": "Crested Butte Regional", "municipalityName": "Gunnison", "location": {"lat": 38.5339, "lon": -106.933}, "countryCode": "US"}, "averageDailyFlights": 0.14, "operators": [{"name": "LXJ"}]}, {"destination": {"icao": "KHDN", "iata": "HDN", "name": "Hayden Yampa Valley", "shortName": "Yampa Valley", "municipalityName": "Hayden", "location": {"lat": 40.4812, "lon": -107.218}, "countryCode": "US"}, "averageDailyFlights": 0.14, "operators": [{"name": "NetJets Aviation", "iata": "1I", "icao": "EJA"}]}, {"destination": {"icao": "KLAS", "iata": "LAS", "name": "Las Vegas McCarran", "shortName": "McCarran", "municipalityName": "Las Vegas", "location": {"lat": 36.0801, "lon": -115.152}, "countryCode": "US"}, "averageDailyFlights": 0.14, "operators": [{"name": "LXJ"}]}, {"destination": {"icao": "KMDD", "iata": "MDD", "name": "Midland Airpark", "shortName": "Airpark", "municipalityName": "Midland", "location": {"lat": 32.0365, "lon": -102.101}, "countryCode": "US"}, "averageDailyFlights": 0.14, "operators": [{"name": "NetJets Aviation", "iata": "1I", "icao": "EJA"}]}, {"destination": {"icao": "KARV", "iata": "ARV", "name": "Minocqua-Woodruff Lakeland-Noble F. Lee Memorial field", "shortName": "Lakeland-Noble F. Lee Memorial field", "municipalityName": "Minocqua-Woodruff", "location": {"lat": 45.9279, "lon": -89.7309}, "countryCode": "US"}, "averageDailyFlights": 0.14, "operators": [{"name": "FTH"}]}, {"destination": {"icao": "KOJC", "iata": "OJC", "name": "Olathe Johnson County Executive", "shortName": "Johnson County Executive", "municipalityName": "Olathe", "location": {"lat": 38.8476, "lon": -94.7376}, "countryCode": "US"}, "averageDailyFlights": 0.14, "operators": [{"name": "XSR"}]}, {"destination": {"icao": "KECP", "iata": "ECP", "name": "Panama City Beach Northwest Florida Beaches", "shortName": "Northwest Florida Beaches", "municipalityName": "Panama City Beach", "location": {"lat": 30.3417, "lon": -85.7973}, "countryCode": "US"}, "averageDailyFlights": 0.14, "operators": [{"name": "EJM"}]}, {"destination": {"icao": "KPRC", "iata": "PRC", "name": "Prescott Ernest A. Love Field", "shortName": "Ernest A. Love Field", "municipalityName": "Prescott", "location": {"lat": 34.6545, "lon": -112.42}, "countryCode": "US"}, "averageDailyFlights": 0.14, "operators": [{"name": "EDG"}]}, {"destination": {"icao": "KSRR", "iata": "RUI", "name": "Ruidoso Sierra Blanca Regional", "shortName": "Sierra Blanca Regional", "municipalityName": "Ruidoso", "location": {"lat": 33.4628, "lon": -105.535}, "countryCode": "US"}, "averageDailyFlights": 0.14, "operators": [{"name": "NetJets Aviation", "iata": "1I", "icao": "EJA"}]}, {"destination": {"icao": "MROC", "iata": "SJO", "name": "San Jos\u00e9 Juan Santamaria", "shortName": "Juan Santamaria", "municipalityName": "San Jos\u00e9", "location": {"lat": 9.99386, "lon": -84.2088}, "countryCode": "CR"}, "averageDailyFlights": 0.14, "operators": [{"name": "Contour Aviation", "iata": "LF", "icao": "VTE"}]}, {"destination": {"icao": "KSAF", "iata": "SAF", "name": "Santa Fe Municipal", "shortName": "Municipal", "municipalityName": "Santa Fe", "location": {"lat": 35.6171, "lon": -106.089}, "countryCode": "US"}, "averageDailyFlights": 0.14, "operators": [{"name": "LXJ"}]}, {"destination": {"icao": "KSMO", "iata": "SMO", "name": "Santa Monica Municipal", "shortName": "Municipal", "municipalityName": "Santa Monica", "location": {"lat": 34.0158, "lon": -118.451}, "countryCode": "US"}, "averageDailyFlights": 0.14, "operators": [{"name": "NetJets Aviation", "iata": "1I", "icao": "EJA"}]}, {"destination": {"icao": "KSNK", "iata": "SNK", "name": "Snyder Winston Field", "shortName": "Winston Field", "municipalityName": "Snyder", "location": {"lat": 32.6934, "lon": -100.95}, "countryCode": "US"}, "averageDailyFlights": 0.14, "operators": [{"name": "NetJets Aviation", "iata": "1I", "icao": "EJA"}]}, {"destination": {"icao": "KSTP", "iata": "STP", "name": "St Paul Downtown Holman Field", "shortName": "Downtown Holman Field", "municipalityName": "St Paul", "location": {"lat": 44.9345, "lon": -93.06}, "countryCode": "US"}, "averageDailyFlights": 0.14, "operators": [{"name": "Libyan Airlines", "iata": "LN", "icao": "LAA"}]}, {"destination": {"icao": "KPBI", "iata": "PBI", "name": "West Palm Beach Palm Beach", "shortName": "Palm Beach", "municipalityName": "West Palm Beach", "location": {"lat": 26.6832, "lon": -80.0956}, "countryCode": "US"}, "averageDailyFlights": 0.14, "operators": [{"name": "JRE"}]}, {"destination": {"icao": "KFOK", "iata": "FOK", "name": "Westhampton Beach Francis S Gabreski", "shortName": "Francis S Gabreski", "municipalityName": "Westhampton Beach", "location": {"lat": 40.8437, "lon": -72.6318}, "countryCode": "US"}, "averageDailyFlights": 0.14, "operators": [{"name": "EJM"}]}, {"destination": {"icao": "KHPN", "iata": "HPN", "name": "White Plains Westchester County", "shortName": "Westchester County", "municipalityName": "White Plains", "location": {"lat": 41.067, "lon": -73.7076}, "countryCode": "US"}, "averageDailyFlights": 0.14, "operators": [{"name": "EJM"}]}]}