{"routes": [{"destination": {"icao": "KDFW", "iata": "DFW", "name": "Dallas-Fort Worth ", "shortName": "Dallas-Fort Worth", "municipalityName": "Dallas-Fort Worth", "location": {"lat": 32.8968, "lon": -97.038}, "countryCode": "US"}, "averageDailyFlights": 7.71, "operators": [{"name": "American Airlines", "iata": "AA", "icao": "AAL"}, {"name": "SkyWest Airlines", "iata": "OO", "icao": "SKW"}, {"name": "Envoy Air", "iata": "MQ", "icao": "ENY"}, {"name": "Ameriflight", "iata": "A8", "icao": "AMF"}]}, {"destination": {"icao": "KDAL", "iata": "DAL", "name": "Dallas Love Field", "shortName": "Love Field", "municipalityName": "Dallas", "location": {"lat": 32.8471, "lon": -96.8518}, "countryCode": "US"}, "averageDailyFlights": 5.57, "operators": [{"name": "Southwest Airlines", "iata": "WN", "icao": "SWA"}, {"name": "EMD"}, {"name": "GTX"}, {"name": "SCM"}]}, {"destination": {"icao": "KIAH", "iata": "IAH", "name": "Houston George Bush", "shortName": "George Bush", "municipalityName": "Houston", "location": {"lat": 29.9844, "lon": -95.3414}, "countryCode": "US"}, "averageDailyFlights": 3.14, "operators": [{"name": "United Airlines", "iata": "UA", "icao": "UAL"}]}, {"destination": {"icao": "KDEN", "iata": "DEN", "name": "Denver ", "shortName": "Denver", "municipalityName": "Denver", "location": {"lat": 39.8617, "lon": -104.673}, "countryCode": "US"}, "averageDailyFlights": 2.29, "operators": [{"name": "Delta Air Lines", "iata": "DL", "icao": "DAL"}, {"name": "United Airlines", "iata": "UA", "icao": "UAL"}, {"name": "Southwest Airlines", "iata": "WN", "icao": "SWA"}]}, {"destination": {"icao": "KMAF", "iata": "MAF", "name": "Midland ", "shortName": "Midland", "municipalityName": "Midland", "location": {"lat": 31.9425, "lon": -102.202}, "countryCode": "US"}, "averageDailyFlights": 1.71, "operators": [{"name": "CSI"}, {"name": "Ameriflight", "iata": "A8", "icao": "AMF"}, {"name": "Empire Airlines", "iata": "EM", "icao": "CFS"}, {"name": "BVN"}, {"name": "EMD"}]}, {"destination": {"icao": "KPHX", "iata": "PHX", "name": "Phoenix Sky Harbor", "shortName": "Sky Harbor", "municipalityName": "Phoenix", "location": {"lat": 33.4343, "lon": -112.012}, "countryCode": "US"}, "averageDailyFlights": 1.24, "operators": [{"name": "SkyWest Airlines", "iata": "OO", "icao": "SKW"}, {"name": "Envoy Air", "iata": "MQ", "icao": "ENY"}, {"name": "American Airlines", "iata": "AA", "icao": "AAL"}]}, {"destination": {"icao": "KELP", "iata": "ELP", "name": "El Paso ", "shortName": "El Paso", "municipalityName": "El Paso", "location": {"lat": 31.8072, "lon": -106.378}, "countryCode": "US"}, "averageDailyFlights": 1.14, "operators": [{"name": "N2"}, {"name": "GTX"}, {"name": "PKW"}]}, {"destination": {"icao": "KLAS", "iata": "LAS", "name": "Las Vegas McCarran", "shortName": "McCarran", "municipalityName": "Las Vegas", "location": {"lat": 36.0801, "lon": -115.152}, "countryCode": "US"}, "averageDailyFlights": 1.14, "operators": [{"name": "Southwest Airlines", "iata": "WN", "icao": "SWA"}]}, {"destination": {"icao": "KAUS", "iata": "AUS", "name": "Austin Bergstrom", "shortName": "Bergstrom", "municipalityName": "Austin", "location": {"lat": 30.194498, "lon": -97.6699}, "countryCode": "US"}, "averageDailyFlights": 1.0, "operators": [{"name": "Southwest Airlines", "iata": "WN", "icao": "SWA"}]}, {"destination": {"icao": "KROW", "iata": "ROW", "name": "Roswell Air Center", "shortName": "Air Center", "municipalityName": "Roswell", "location": {"lat": 33.3016, "lon": -104.531}, "countryCode": "US"}, "averageDailyFlights": 1.0, "operators": [{"name": "Libyan Airlines", "iata": "LN", "icao": "LAA"}, {"name": "EMD"}]}, {"destination": {"icao": "KABI", "iata": "ABI", "name": "Abilene Regional", "shortName": "Regional", "municipalityName": "Abilene", "location": {"lat": 32.4113, "lon": -99.6819}, "countryCode": "US"}, "averageDailyFlights": 0.86, "operators": [{"name": "BVN"}]}, {"destination": {"icao": "KABQ", "iata": "ABQ", "name": "The Duke City Albuquerque  Sunport", "shortName": "Albuquerque  Sunport", "municipalityName": "The Duke City", "location": {"lat": 35.0402, "lon": -106.609}, "countryCode": "US"}, "averageDailyFlights": 0.57, "operators": [{"name": "Libyan Airlines", "iata": "LN", "icao": "LAA"}, {"name": "CSI"}]}, {"destination": {"icao": "KCVN", "iata": "CVN", "name": "Clovis Municipal", "shortName": "Municipal", "municipalityName": "Clovis", "location": {"lat": 34.4251, "lon": -103.079}, "countryCode": "US"}, "averageDailyFlights": 0.43, "operators": [{"name": "EMD"}]}, {"destination": {"icao": "KAFW", "iata": "AFW", "name": "Fort Worth Alliance", "shortName": "Alliance", "municipalityName": "Fort Worth", "location": {"lat": 32.9876, "lon": -97.3188}, "countryCode": "US"}, "averageDailyFlights": 0.29, "operators": [{"name": "Empire Airlines", "iata": "EM", "icao": "CFS"}]}, {"destination": {"icao": "KHOU", "iata": "HOU", "name": "Houston William P Hobby", "shortName": "William P Hobby", "municipalityName": "Houston", "location": {"lat": 29.6454, "lon": -95.2789}, "countryCode": "US"}, "averageDailyFlights": 0.29, "operators": [{"name": "Southwest Airlines", "iata": "WN", "icao": "SWA"}, {"name": "TMB"}]}, {"destination": {"icao": "KTDW", "iata": "TDW", "name": "Amarillo Tradewind", "shortName": "Tradewind", "municipalityName": "Amarillo", "location": {"lat": 35.1699, "lon": -101.826}, "countryCode": "US"}, "averageDailyFlights": 0.14, "operators": [{"name": "Nolinor", "iata": "N5", "icao": "NRL"}]}, {"destination": {"icao": "KCNM", "iata": "CNM", "name": "Carlsbad Cavern City Air Terminal", "shortName": "Cavern City Air Terminal", "municipalityName": "Carlsbad", "location": {"lat": 32.3375, "lon": -104.263}, "countryCode": "US"}, "averageDailyFlights": 0.14, "operators": [{"name": "EMD"}]}, {"destination": {"icao": "KHOB", "iata": "HOB", "name": "Hobbs Lea County Regional", "shortName": "Lea County Regional", "municipalityName": "Hobbs", "location": {"lat": 32.6875, "lon": -103.217}, "countryCode": "US"}, "averageDailyFlights": 0.14, "operators": [{"name": "EMD"}]}, {"destination": {"icao": "KMEM", "iata": "MEM", "name": "Memphis ", "shortName": "Memphis", "municipalityName": "Memphis", "location": {"lat": 35.0424, "lon": -89.9767}, "countryCode": "US"}, "averageDailyFlights": 0.14, "operators": [{"name": "GAJ"}]}, {"destination": {"icao": "KMDD", "iata": "MDD", "name": "Midland Airpark", "shortName": "Airpark", "municipalityName": "Midland", "location": {"lat": 32.0365, "lon": -102.101}, "countryCode": "US"}, "averageDailyFlights": 0.14, "operators": [{"name": "NetJets Aviation", "iata": "1I", "icao": "EJA"}]}, {"destination": {"icao": "KSAF", "iata": "SAF", "name": "Santa Fe Municipal", "shortName": "Municipal", "municipalityName": "Santa Fe", "location": {"lat": 35.6171, "lon": -106.089}, "countryCode": "US"}, "averageDailyFlights": 0.14, "operators": [{"name": "NetJets Aviation", "iata": "1I", "icao": "EJA"}]}, {"destination": {"icao": "KSDL", "iata": "SCF", "name": "Scottsdale ", "shortName": "Scottsdale", "municipalityName": "Scottsdale", "location": {"lat": 33.6229, "lon": -111.911}, "countryCode": "US"}, "averageDailyFlights": 0.14, "operators": [{"name": "NetJets Aviation", "iata": "1I", "icao": "EJA"}]}, {"destination": {"icao": "KASG", "iata": "SPZ", "name": "Springdale Municipal", "shortName": "Municipal", "municipalityName": "Springdale", "location": {"lat": 36.1764, "lon": -94.1193}, "countryCode": "US"}, "averageDailyFlights": 0.14, "operators": [{"name": "FFL"}]}]}