{"routes": [{"destination": {"icao": "KORD", "iata": "ORD", "name": "Chicago O'Hare", "shortName": "O'Hare", "municipalityName": "Chicago", "location": {"lat": 41.9786, "lon": -87.9048}, "countryCode": "US"}, "averageDailyFlights": 4.57, "operators": [{"name": "Cape Air", "iata": "9K", "icao": "KAP"}]}, {"destination": {"icao": "KMDW", "iata": "MDW", "name": "Chicago Midway", "shortName": "Midway", "municipalityName": "Chicago", "location": {"lat": 41.786, "lon": -87.7524}, "countryCode": "US"}, "averageDailyFlights": 0.14, "operators": [{"name": "DPJ"}]}, {"destination": {"icao": "KCVG", "iata": "CVG", "name": "Cincinnati Northern Kentucky", "shortName": "Northern Kentucky", "municipalityName": "Cincinnati", "location": {"lat": 39.0488, "lon": -84.6678}, "countryCode": "US"}, "averageDailyFlights": 0.14, "operators": [{"name": "DPJ"}]}, {"destination": {"icao": "KIND", "iata": "IND", "name": "Indianapolis ", "shortName": "Indianapolis", "municipalityName": "Indianapolis", "location": {"lat": 39.7173, "lon": -86.2944}, "countryCode": "US"}, "averageDailyFlights": 0.14, "operators": [{"name": "GAJ"}]}, {"destination": {"icao": "KAZO", "iata": "AZO", "name": "Kalamazoo Battle Creek", "shortName": "Battle Creek", "municipalityName": "Kalamazoo", "location": {"lat": 42.2349, "lon": -85.5521}, "countryCode": "US"}, "averageDailyFlights": 0.14, "operators": [{"name": "GAJ"}]}, {"destination": {"icao": "CYQA", "iata": "YQA", "name": "Muskoka ", "shortName": "Muskoka", "municipalityName": "Muskoka", "location": {"lat": 44.9747, "lon": -79.3033}, "countryCode": "CA"}, "averageDailyFlights": 0.14, "operators": [{"name": "HRT"}]}, {"destination": {"icao": "KTVC", "iata": "TVC", "name": "Traverse City Cherry Capital", "shortName": "Cherry Capital", "municipalityName": "Traverse City", "location": {"lat": 44.7414, "lon": -85.5822}, "countryCode": "US"}, "averageDailyFlights": 0.14, "operators": [{"name": "FTH"}]}]}