{"routes": [{"destination": {"icao": "KORD", "iata": "ORD", "name": "Chicago O'Hare", "shortName": "O'Hare", "municipalityName": "Chicago", "location": {"lat": 41.9786, "lon": -87.9048}, "countryCode": "US"}, "averageDailyFlights": 8.71, "operators": [{"name": "American Airlines", "iata": "AA", "icao": "AAL"}, {"name": "United Airlines", "iata": "UA", "icao": "UAL"}, {"name": "Envoy Air", "iata": "MQ", "icao": "ENY"}]}, {"destination": {"icao": "KEWR", "iata": "EWR", "name": "Newark Liberty", "shortName": "Liberty", "municipalityName": "Newark", "location": {"lat": 40.6925, "lon": -74.1687}, "countryCode": "US"}, "averageDailyFlights": 8.71, "operators": [{"name": "United Airlines", "iata": "UA", "icao": "UAL"}, {"name": "Spirit Airlines", "iata": "NK", "icao": "NKS"}]}, {"destination": {"icao": "KATL", "iata": "ATL", "name": "Atlanta Hartsfield Jackson", "shortName": "Hartsfield Jackson", "municipalityName": "Atlanta", "location": {"lat": 33.6367, "lon": -84.4281}, "countryCode": "US"}, "averageDailyFlights": 8.14, "operators": [{"name": "Delta Air Lines", "iata": "DL", "icao": "DAL"}, {"name": "Southwest Airlines", "iata": "WN", "icao": "SWA"}]}, {"destination": {"icao": "KMCO", "iata": "MCO", "name": "Orlando ", "shortName": "Orlando", "municipalityName": "Orlando", "location": {"lat": 28.4294, "lon": -81.309}, "countryCode": "US"}, "averageDailyFlights": 7.71, "operators": [{"name": "Southwest Airlines", "iata": "WN", "icao": "SWA"}, {"name": "Spirit Airlines", "iata": "NK", "icao": "NKS"}]}, {"destination": {"icao": "KDCA", "iata": "DCA", "name": "District of Columbia Ronald Reagan Washington National", "shortName": "Ronald Reagan Washington National", "municipalityName": "District of Columbia", "location": {"lat": 38.8521, "lon": -77.0377}, "countryCode": "US"}, "averageDailyFlights": 7.29, "operators": [{"name": "American Airlines", "iata": "AA", "icao": "AAL"}, {"name": "Delta Air Lines", "iata": "DL", "icao": "DAL"}, {"name": "Envoy Air", "iata": "MQ", "icao": "ENY"}]}, {"destination": {"icao": "KCLT", "iata": "CLT", "name": "Charlotte Douglas", "shortName": "Douglas", "municipalityName": "Charlotte", "location": {"lat": 35.214, "lon": -80.9431}, "countryCode": "US"}, "averageDailyFlights": 6.57, "operators": [{"name": "American Airlines", "iata": "AA", "icao": "AAL"}]}, {"destination": {"icao": "KDFW", "iata": "DFW", "name": "Dallas-Fort Worth ", "shortName": "Dallas-Fort Worth", "municipalityName": "Dallas-Fort Worth", "location": {"lat": 32.8968, "lon": -97.038}, "countryCode": "US"}, "averageDailyFlights": 6.29, "operators": [{"name": "American Airlines", "iata": "AA", "icao": "AAL"}]}, {"destination": {"icao": "KBOS", "iata": "BOS", "name": "Boston General Edward Lawrence Logan", "shortName": "General Edward Lawrence Logan", "municipalityName": "Boston", "location": {"lat": 42.3643, "lon": -71.0052}, "countryCode": "US"}, "averageDailyFlights": 5.14, "operators": [{"name": "Delta Air Lines", "iata": "DL", "icao": "DAL"}, {"name": "JetBlue Airways", "iata": "B6", "icao": "JBU"}, {"name": "VNT"}]}, {"destination": {"icao": "KMDW", "iata": "MDW", "name": "Chicago Midway", "shortName": "Midway", "municipalityName": "Chicago", "location": {"lat": 41.786, "lon": -87.7524}, "countryCode": "US"}, "averageDailyFlights": 5.14, "operators": [{"name": "Southwest Airlines", "iata": "WN", "icao": "SWA"}]}, {"destination": {"icao": "KDEN", "iata": "DEN", "name": "Denver ", "shortName": "Denver", "municipalityName": "Denver", "location": {"lat": 39.8617, "lon": -104.673}, "countryCode": "US"}, "averageDailyFlights": 5.14, "operators": [{"name": "Southwest Airlines", "iata": "WN", "icao": "SWA"}, {"name": "Frontier Airlines", "iata": "F9", "icao": "FFT"}, {"name": "United Airlines", "iata": "UA", "icao": "UAL"}]}, {"destination": {"icao": "KIAD", "iata": "IAD", "name": "District of Columbia Washington Dulles", "shortName": "Washington Dulles", "municipalityName": "District of Columbia", "location": {"lat": 38.9445, "lon": -77.4558}, "countryCode": "US"}, "averageDailyFlights": 4.86, "operators": [{"name": "United Airlines", "iata": "UA", "icao": "UAL"}, {"name": "Republic Airways", "iata": "YX", "icao": "RPA"}, {"name": "MLN"}, {"name": "NetJets Aviation", "iata": "1I", "icao": "EJA"}, {"name": "RVJ"}]}, {"destination": {"icao": "KPHL", "iata": "PHL", "name": "Philadelphia ", "shortName": "Philadelphia", "municipalityName": "Philadelphia", "location": {"lat": 39.8719, "lon": -75.2411}, "countryCode": "US"}, "averageDailyFlights": 4.43, "operators": [{"name": "American Airlines", "iata": "AA", "icao": "AAL"}, {"name": "NetJets Aviation", "iata": "1I", "icao": "EJA"}]}, {"destination": {"icao": "KLGA", "iata": "LGA", "name": "New York La Guardia", "shortName": "La Guardia", "municipalityName": "New York", "location": {"lat": 40.7772, "lon": -73.8726}, "countryCode": "US"}, "averageDailyFlights": 4.14, "operators": [{"name": "Delta Air Lines", "iata": "DL", "icao": "DAL"}, {"name": "NetJets Aviation", "iata": "1I", "icao": "EJA"}]}, {"destination": {"icao": "KDTW", "iata": "DTW", "name": "Detroit Metropolitan Wayne County", "shortName": "Metropolitan Wayne County", "municipalityName": "Detroit", "location": {"lat": 42.2124, "lon": -83.3534}, "countryCode": "US"}, "averageDailyFlights": 3.57, "operators": [{"name": "Delta Air Lines", "iata": "DL", "icao": "DAL"}]}, {"destination": {"icao": "KBWI", "iata": "BWI", "name": "Baltimore Washington  Thurgood Marshall", "shortName": "Washington  Thurgood Marshall", "municipalityName": "Baltimore", "location": {"lat": 39.1754, "lon": -76.6683}, "countryCode": "US"}, "averageDailyFlights": 3.43, "operators": [{"name": "Southwest Airlines", "iata": "WN", "icao": "SWA"}, {"name": "LAK"}]}, {"destination": {"icao": "KJFK", "iata": "JFK", "name": "New York John F Kennedy", "shortName": "John F Kennedy", "municipalityName": "New York", "location": {"lat": 40.6398, "lon": -73.7789}, "countryCode": "US"}, "averageDailyFlights": 3.43, "operators": [{"name": "American Airlines", "iata": "AA", "icao": "AAL"}, {"name": "Republic Airways", "iata": "YX", "icao": "RPA"}]}, {"destination": {"icao": "KTPA", "iata": "TPA", "name": "Tampa ", "shortName": "Tampa", "municipalityName": "Tampa", "location": {"lat": 27.9755, "lon": -82.5332}, "countryCode": "US"}, "averageDailyFlights": 3.14, "operators": [{"name": "Southwest Airlines", "iata": "WN", "icao": "SWA"}, {"name": "JRE"}, {"name": "YEL"}]}, {"destination": {"icao": "KDUJ", "iata": "DUJ", "name": "DuBois Regional", "shortName": "Regional", "municipalityName": "DuBois", "location": {"lat": 41.1783, "lon": -78.8987}, "countryCode": "US"}, "averageDailyFlights": 3.0, "operators": [{"name": "Southern Airways Express", "iata": "9X", "icao": "FDY"}]}, {"destination": {"icao": "KMSP", "iata": "MSP", "name": "Minneapolis Wold-Chamberlain", "shortName": "Wold-Chamberlain", "municipalityName": "Minneapolis", "location": {"lat": 44.882, "lon": -93.2218}, "countryCode": "US"}, "averageDailyFlights": 3.0, "operators": [{"name": "Delta Air Lines", "iata": "DL", "icao": "DAL"}, {"name": "Sun Country Airlines", "iata": "SY", "icao": "SCX"}]}, {"destination": {"icao": "KBNA", "iata": "BNA", "name": "Nashville ", "shortName": "Nashville", "municipalityName": "Nashville", "location": {"lat": 36.1245, "lon": -86.6782}, "countryCode": "US"}, "averageDailyFlights": 2.71, "operators": [{"name": "Southwest Airlines", "iata": "WN", "icao": "SWA"}, {"name": "Allegiant Air", "iata": "G4", "icao": "AAY"}, {"name": "LXJ"}]}, {"destination": {"icao": "KIAH", "iata": "IAH", "name": "Houston George Bush", "shortName": "George Bush", "municipalityName": "Houston", "location": {"lat": 29.9844, "lon": -95.3414}, "countryCode": "US"}, "averageDailyFlights": 2.57, "operators": [{"name": "United Airlines", "iata": "UA", "icao": "UAL"}]}, {"destination": {"icao": "KFLL", "iata": "FLL", "name": "Fort Lauderdale Hollywood", "shortName": "Hollywood", "municipalityName": "Fort Lauderdale", "location": {"lat": 26.0726, "lon": -80.1527}, "countryCode": "US"}, "averageDailyFlights": 2.43, "operators": [{"name": "Spirit Airlines", "iata": "NK", "icao": "NKS"}, {"name": "Southwest Airlines", "iata": "WN", "icao": "SWA"}]}, {"destination": {"icao": "KMYR", "iata": "MYR", "name": "Myrtle Beach ", "shortName": "Myrtle Beach", "municipalityName": "Myrtle Beach", "location": {"lat": 33.6797, "lon": -78.9283}, "countryCode": "US"}, "averageDailyFlights": 2.43, "operators": [{"name": "RVJ"}, {"name": "Allegiant Air", "iata": "G4", "icao": "AAY"}, {"name": "Spirit Airlines", "iata": "NK", "icao": "NKS"}, {"name": "Southwest Airlines", "iata": "WN", "icao": "SWA"}]}, {"destination": {"icao": "KRDU", "iata": "RDU", "name": "Raleigh/Durham Raleigh Durham", "shortName": "Raleigh Durham", "municipalityName": "Raleigh/Durham", "location": {"lat": 35.8776, "lon": -78.7875}, "countryCode": "US"}, "averageDailyFlights": 2.43, "operators": [{"name": "American Airlines", "iata": "AA", "icao": "AAL"}, {"name": "MXY"}, {"name": "Air Canada", "iata": "AC", "icao": "ACA"}]}, {"destination": {"icao": "KLAS", "iata": "LAS", "name": "Las Vegas McCarran", "shortName": "McCarran", "municipalityName": "Las Vegas", "location": {"lat": 36.0801, "lon": -115.152}, "countryCode": "US"}, "averageDailyFlights": 2.29, "operators": [{"name": "Spirit Airlines", "iata": "NK", "icao": "NKS"}, {"name": "Southwest Airlines", "iata": "WN", "icao": "SWA"}]}, {"destination": {"icao": "KSEA", "iata": "SEA", "name": "Seattle Tacoma", "shortName": "Tacoma", "municipalityName": "Seattle", "location": {"lat": 47.449, "lon": -122.309}, "countryCode": "US"}, "averageDailyFlights": 2.29, "operators": [{"name": "Alaska Airlines", "iata": "AS", "icao": "ASA"}]}, {"destination": {"icao": "KMGW", "iata": "MGW", "name": "Morgantown Municipal Walter L. Bill Hart Field", "shortName": "Municipal Walter L. Bill Hart Field", "municipalityName": "Morgantown", "location": {"lat": 39.6429, "lon": -79.9163}, "countryCode": "US"}, "averageDailyFlights": 2.0, "operators": [{"name": "Southern Airways Express", "iata": "9X", "icao": "FDY"}, {"name": "MLN"}]}, {"destination": {"icao": "KBFD", "iata": "BFD", "name": "Bradford Regional", "shortName": "Regional", "municipalityName": "Bradford", "location": {"lat": 41.8031, "lon": -78.6401}, "countryCode": "US"}, "averageDailyFlights": 1.86, "operators": [{"name": "Southern Airways Express", "iata": "9X", "icao": "FDY"}]}, {"destination": {"icao": "KLNS", "iata": "LNS", "name": "Lancaster ", "shortName": "Lancaster", "municipalityName": "Lancaster", "location": {"lat": 40.1217, "lon": -76.2961}, "countryCode": "US"}, "averageDailyFlights": 1.71, "operators": [{"name": "Southern Airways Express", "iata": "9X", "icao": "FDY"}]}, {"destination": {"icao": "KMIA", "iata": "MIA", "name": "Miami ", "shortName": "Miami", "municipalityName": "Miami", "location": {"lat": 25.7932, "lon": -80.2906}, "countryCode": "US"}, "averageDailyFlights": 1.71, "operators": [{"name": "American Airlines", "iata": "AA", "icao": "AAL"}, {"name": "Envoy Air", "iata": "MQ", "icao": "ENY"}]}, {"destination": {"icao": "KRSW", "iata": "RSW", "name": "Fort Myers Southwest Florida", "shortName": "Southwest Florida", "municipalityName": "Fort Myers", "location": {"lat": 26.5362, "lon": -81.7552}, "countryCode": "US"}, "averageDailyFlights": 1.57, "operators": [{"name": "Southwest Airlines", "iata": "WN", "icao": "SWA"}]}, {"destination": {"icao": "KLAX", "iata": "LAX", "name": "Los Angeles ", "shortName": "Los Angeles", "municipalityName": "Los Angeles", "location": {"lat": 33.9425, "lon": -118.408}, "countryCode": "US"}, "averageDailyFlights": 1.43, "operators": [{"name": "Spirit Airlines", "iata": "NK", "icao": "NKS"}, {"name": "United Airlines", "iata": "UA", "icao": "UAL"}]}, {"destination": {"icao": "KPVD", "iata": "PVD", "name": "Providence Theodore Francis Green State", "shortName": "Theodore Francis Green State", "municipalityName": "Providence", "location": {"lat": 41.7326, "lon": -71.4204}, "countryCode": "US"}, "averageDailyFlights": 1.29, "operators": [{"name": "MXY"}]}, {"destination": {"icao": "KUNV", "iata": "SCE", "name": "State College University Park", "shortName": "University Park", "municipalityName": "State College", "location": {"lat": 40.8493, "lon": -77.8487}, "countryCode": "US"}, "averageDailyFlights": 1.29, "operators": [{"name": "WIG"}]}, {"destination": {"icao": "CYYZ", "iata": "YYZ", "name": "Toronto Pearson", "shortName": "Pearson", "municipalityName": "Toronto", "location": {"lat": 43.6772, "lon": -79.6306}, "countryCode": "CA"}, "averageDailyFlights": 1.29, "operators": [{"name": "Air Canada", "iata": "AC", "icao": "ACA"}]}, {"destination": {"icao": "KCHS", "iata": "CHS", "name": "Charleston Air Force Base-", "shortName": "Air Force Base-", "municipalityName": "Charleston", "location": {"lat": 32.8986, "lon": -80.0405}, "countryCode": "US"}, "averageDailyFlights": 1.14, "operators": [{"name": "MXY"}, {"name": "LXJ"}]}, {"destination": {"icao": "KDAL", "iata": "DAL", "name": "Dallas Love Field", "shortName": "Love Field", "municipalityName": "Dallas", "location": {"lat": 32.8471, "lon": -96.8518}, "countryCode": "US"}, "averageDailyFlights": 1.14, "operators": [{"name": "Southwest Airlines", "iata": "WN", "icao": "SWA"}]}, {"destination": {"icao": "KAFW", "iata": "AFW", "name": "Fort Worth Alliance", "shortName": "Alliance", "municipalityName": "Fort Worth", "location": {"lat": 32.9876, "lon": -97.3188}, "countryCode": "US"}, "averageDailyFlights": 1.14, "operators": [{"name": "Sun Country Airlines", "iata": "SY", "icao": "SCX"}]}, {"destination": {"icao": "KHYA", "iata": "HYA", "name": "Hyannis Barnstable Municipal Boardman Polando Field", "shortName": "Barnstable Municipal Boardman Polando Field", "municipalityName": "Hyannis", "location": {"lat": 41.6693, "lon": -70.2804}, "countryCode": "US"}, "averageDailyFlights": 1.14, "operators": [{"name": "MLN"}, {"name": "LXJ"}]}, {"destination": {"icao": "KMSY", "iata": "MSY", "name": "New Orleans Louis Armstrong", "shortName": "Louis Armstrong", "municipalityName": "New Orleans", "location": {"lat": 29.9934, "lon": -90.258}, "countryCode": "US"}, "averageDailyFlights": 1.14, "operators": [{"name": "MXY"}, {"name": "DCM"}]}, {"destination": {"icao": "KSTL", "iata": "STL", "name": "Saint Louis Lambert St Louis", "shortName": "Lambert St Louis", "municipalityName": "Saint Louis", "location": {"lat": 38.7487, "lon": -90.37}, "countryCode": "US"}, "averageDailyFlights": 1.14, "operators": [{"name": "Southwest Airlines", "iata": "WN", "icao": "SWA"}]}, {"destination": {"icao": "KSFO", "iata": "SFO", "name": "San Francisco ", "shortName": "San Francisco", "municipalityName": "San Francisco", "location": {"lat": 37.619, "lon": -122.375}, "countryCode": "US"}, "averageDailyFlights": 1.14, "operators": [{"name": "United Airlines", "iata": "UA", "icao": "UAL"}]}, {"destination": {"icao": "KBDL", "iata": "BDL", "name": "Hartford Bradley", "shortName": "Bradley", "municipalityName": "Hartford", "location": {"lat": 41.9389, "lon": -72.6832}, "countryCode": "US"}, "averageDailyFlights": 1.0, "operators": [{"name": "RVJ"}, {"name": "MXY"}]}, {"destination": {"icao": "EGLL", "iata": "LHR", "name": "London Heathrow", "shortName": "Heathrow", "municipalityName": "London", "location": {"lat": 51.4706, "lon": -0.461941}, "countryCode": "GB"}, "averageDailyFlights": 1.0, "operators": [{"name": "British Airways", "iata": "BA", "icao": "BAW"}]}, {"destination": {"icao": "KLBE", "iata": "LBE", "name": "Latrobe Arnold Palmer Regional", "shortName": "Arnold Palmer Regional", "municipalityName": "Latrobe", "location": {"lat": 40.2759, "lon": -79.4048}, "countryCode": "US"}, "averageDailyFlights": 0.86, "operators": [{"name": "LJY"}]}, {"destination": {"icao": "KSLC", "iata": "SLC", "name": "Salt Lake City ", "shortName": "Salt Lake City", "municipalityName": "Salt Lake City", "location": {"lat": 40.7884, "lon": -111.978}, "countryCode": "US"}, "averageDailyFlights": 0.86, "operators": [{"name": "Delta Air Lines", "iata": "DL", "icao": "DAL"}]}, {"destination": {"icao": "KSRQ", "iata": "SRQ", "name": "Sarasota/Bradenton Sarasota Bradenton", "shortName": "Sarasota Bradenton", "municipalityName": "Sarasota/Bradenton", "location": {"lat": 27.3954, "lon": -82.5544}, "countryCode": "US"}, "averageDailyFlights": 0.86, "operators": [{"name": "Southwest Airlines", "iata": "WN", "icao": "SWA"}, {"name": "Allegiant Air", "iata": "G4", "icao": "AAY"}]}, {"destination": {"icao": "KSFB", "iata": "SFB", "name": "Orlando Sanford", "shortName": "Sanford", "municipalityName": "Orlando", "location": {"lat": 28.7776, "lon": -81.2375}, "countryCode": "US"}, "averageDailyFlights": 0.71, "operators": [{"name": "Allegiant Air", "iata": "G4", "icao": "AAY"}]}, {"destination": {"icao": "KPWM", "iata": "PWM", "name": "Portland Jetport", "shortName": "Jetport", "municipalityName": "Portland", "location": {"lat": 43.6462, "lon": -70.3093}, "countryCode": "US"}, "averageDailyFlights": 0.71, "operators": [{"name": "MXY"}]}, {"destination": {"icao": "KPIE", "iata": "PIE", "name": "St Petersburg-Clearwater St Petersburg Clearwater", "shortName": "St Petersburg Clearwater", "municipalityName": "St Petersburg-Clearwater", "location": {"lat": 27.9102, "lon": -82.6874}, "countryCode": "US"}, "averageDailyFlights": 0.71, "operators": [{"name": "Allegiant Air", "iata": "G4", "icao": "AAY"}]}, {"destination": {"icao": "KPBI", "iata": "PBI", "name": "West Palm Beach Palm Beach", "shortName": "Palm Beach", "municipalityName": "West Palm Beach", "location": {"lat": 26.6832, "lon": -80.0956}, "countryCode": "US"}, "averageDailyFlights": 0.71, "operators": [{"name": "Allegiant Air", "iata": "G4", "icao": "AAY"}, {"name": "RVJ"}]}, {"destination": {"icao": "KCAK", "iata": "CAK", "name": "Akron Canton Regional", "shortName": "Canton Regional", "municipalityName": "Akron", "location": {"lat": 40.9161, "lon": -81.4422}, "countryCode": "US"}, "averageDailyFlights": 0.57, "operators": [{"name": "LXJ"}, {"name": "Allegiant Air", "iata": "G4", "icao": "AAY"}]}, {"destination": {"icao": "KJAX", "iata": "JAX", "name": "Jacksonville ", "shortName": "Jacksonville", "municipalityName": "Jacksonville", "location": {"lat": 30.4941, "lon": -81.6879}, "countryCode": "US"}, "averageDailyFlights": 0.57, "operators": [{"name": "Allegiant Air", "iata": "G4", "icao": "AAY"}, {"name": "MXY"}]}, {"destination": {"icao": "CYUL", "iata": "YUL", "name": "Montreal Trudeau", "shortName": "Trudeau", "municipalityName": "Montreal", "location": {"lat": 45.4706, "lon": -73.7408}, "countryCode": "CA"}, "averageDailyFlights": 0.57, "operators": [{"name": "Air Canada", "iata": "AC", "icao": "ACA"}]}, {"destination": {"icao": "KTEB", "iata": "TEB", "name": "Teterboro ", "shortName": "Teterboro", "municipalityName": "Teterboro", "location": {"lat": 40.8501, "lon": -74.0608}, "countryCode": "US"}, "averageDailyFlights": 0.57, "operators": [{"name": "GAJ"}, {"name": "MLN"}, {"name": "XRO"}, {"name": "LXJ"}]}, {"destination": {"icao": "KVPS", "iata": "VPS", "name": "Valparaiso Eglin Air Force Base", "shortName": "Eglin Air Force Base", "municipalityName": "Valparaiso", "location": {"lat": 30.4832, "lon": -86.5254}, "countryCode": "US"}, "averageDailyFlights": 0.57, "operators": [{"name": "Allegiant Air", "iata": "G4", "icao": "AAY"}]}, {"destination": {"icao": "KAUS", "iata": "AUS", "name": "Austin Bergstrom", "shortName": "Bergstrom", "municipalityName": "Austin", "location": {"lat": 30.194498, "lon": -97.6699}, "countryCode": "US"}, "averageDailyFlights": 0.43, "operators": [{"name": "Allegiant Air", "iata": "G4", "icao": "AAY"}]}, {"destination": {"icao": "MMUN", "iata": "CUN", "name": "Canc\u00fan ", "shortName": "Canc\u00fan", "municipalityName": "Canc\u00fan", "location": {"lat": 21.0365, "lon": -86.8771}, "countryCode": "MX"}, "averageDailyFlights": 0.43, "operators": [{"name": "Allegiant Air", "iata": "G4", "icao": "AAY"}, {"name": "Southwest Airlines", "iata": "WN", "icao": "SWA"}, {"name": "VivaAerobus", "iata": "VB", "icao": "VIV"}]}, {"destination": {"icao": "KOSU", "iata": "OSU", "name": "Columbus Ohio State University", "shortName": "Ohio State University", "municipalityName": "Columbus", "location": {"lat": 40.0798, "lon": -83.073}, "countryCode": "US"}, "averageDailyFlights": 0.43, "operators": [{"name": "JRE"}]}, {"destination": {"icao": "KSNA", "iata": "SNA", "name": "Santa Ana John Wayne -Orange County", "shortName": "John Wayne -Orange County", "municipalityName": "Santa Ana", "location": {"lat": 33.6757, "lon": -117.868}, "countryCode": "US"}, "averageDailyFlights": 0.43, "operators": [{"name": "MXY"}]}, {"destination": {"icao": "KSAV", "iata": "SAV", "name": "Savannah Hilton Head", "shortName": "Hilton Head", "municipalityName": "Savannah", "location": {"lat": 32.1276, "lon": -81.2021}, "countryCode": "US"}, "averageDailyFlights": 0.43, "operators": [{"name": "Allegiant Air", "iata": "G4", "icao": "AAY"}]}, {"destination": {"icao": "KSUA", "iata": "SUA", "name": "Stuart Witham Field", "shortName": "Witham Field", "municipalityName": "Stuart", "location": {"lat": 27.1817, "lon": -80.2211}, "countryCode": "US"}, "averageDailyFlights": 0.43, "operators": [{"name": "MLN"}, {"name": "RVJ"}]}, {"destination": {"name": "Sharlot Kaunti"}, "averageDailyFlights": 0.43, "operators": [{"name": "Allegiant Air", "iata": "G4", "icao": "AAY"}]}, {"destination": {"icao": "KABE", "iata": "ABE", "name": "Allentown Lehigh Valley", "shortName": "Lehigh Valley", "municipalityName": "Allentown", "location": {"lat": 40.6521, "lon": -75.4408}, "countryCode": "US"}, "averageDailyFlights": 0.29, "operators": [{"name": "MLN"}]}, {"destination": {"icao": "KASE", "iata": "ASE", "name": "Aspen Sardy Field", "shortName": "Sardy Field", "municipalityName": "Aspen", "location": {"lat": 39.2232, "lon": -106.869}, "countryCode": "US"}, "averageDailyFlights": 0.29, "operators": [{"name": "LXJ"}, {"name": "MLN"}]}, {"destination": {"icao": "KBED", "iata": "BED", "name": "Bedford Laurence G Hanscom Field", "shortName": "Laurence G Hanscom Field", "municipalityName": "Bedford", "location": {"lat": 42.47, "lon": -71.289}, "countryCode": "US"}, "averageDailyFlights": 0.29, "operators": [{"name": "LDX"}]}, {"destination": {"icao": "EKBI", "iata": "BLL", "name": "Billund ", "shortName": "Billund", "municipalityName": "Billund", "location": {"lat": 55.7403, "lon": 9.15178}, "countryCode": "DK"}, "averageDailyFlights": 0.29, "operators": [{"name": "Air Alsie", "iata": "6I", "icao": "MMD"}]}, {"destination": {"icao": "KBCT", "iata": "BCT", "name": "Boca Raton ", "shortName": "Boca Raton", "municipalityName": "Boca Raton", "location": {"lat": 26.378498, "lon": -80.1077}, "countryCode": "US"}, "averageDailyFlights": 0.29, "operators": [{"name": "NEW"}, {"name": "RVJ"}]}, {"destination": {"icao": "KESN", "iata": "ESN", "name": "Easton Newnam Field", "shortName": "Newnam Field", "municipalityName": "Easton", "location": {"lat": 38.8042, "lon": -76.069}, "countryCode": "US"}, "averageDailyFlights": 0.29, "operators": [{"name": "RVJ"}]}, {"destination": {"icao": "KGED", "iata": "GED", "name": "Georgetown Sussex County", "shortName": "Sussex County", "municipalityName": "Georgetown", "location": {"lat": 38.6892, "lon": -75.3589}, "countryCode": "US"}, "averageDailyFlights": 0.29, "operators": [{"name": "Nolinor", "iata": "N5", "icao": "NRL"}]}, {"destination": {"icao": "KGMU", "iata": "GMU", "name": "Greenville Downtown", "shortName": "Downtown", "municipalityName": "Greenville", "location": {"lat": 34.8479, "lon": -82.35}, "countryCode": "US"}, "averageDailyFlights": 0.29, "operators": [{"name": "LXJ"}, {"name": "NetJets Aviation", "iata": "1I", "icao": "EJA"}]}, {"destination": {"icao": "KHXD", "iata": "HHH", "name": "Hilton Head ", "shortName": "Hilton Head", "municipalityName": "Hilton Head", "location": {"lat": 32.2244, "lon": -80.6975}, "countryCode": "US"}, "averageDailyFlights": 0.29, "operators": [{"name": "NetJets Aviation", "iata": "1I", "icao": "EJA"}]}, {"destination": {"icao": "KISP", "iata": "ISP", "name": "Islip Long Island Mac Arthur", "shortName": "Long Island Mac Arthur", "municipalityName": "Islip", "location": {"lat": 40.7952, "lon": -73.1002}, "countryCode": "US"}, "averageDailyFlights": 0.29, "operators": [{"name": "MXY"}]}, {"destination": {"icao": "KEYW", "iata": "EYW", "name": "Key West ", "shortName": "Key West", "municipalityName": "Key West", "location": {"lat": 24.5561, "lon": -81.7596}, "countryCode": "US"}, "averageDailyFlights": 0.29, "operators": [{"name": "Allegiant Air", "iata": "G4", "icao": "AAY"}]}, {"destination": {"icao": "KMQI", "iata": "MEO", "name": "Manteo Dare County Regional", "shortName": "Dare County Regional", "municipalityName": "Manteo", "location": {"lat": 35.919, "lon": -75.6955}, "countryCode": "US"}, "averageDailyFlights": 0.29, "operators": [{"name": "NetJets Aviation", "iata": "1I", "icao": "EJA"}, {"name": "WSP"}]}, {"destination": {"icao": "KMLB", "iata": "MLB", "name": "Melbourne ", "shortName": "Melbourne", "municipalityName": "Melbourne", "location": {"lat": 28.1028, "lon": -80.6453}, "countryCode": "US"}, "averageDailyFlights": 0.29, "operators": [{"name": "JRE"}, {"name": "Allegiant Air", "iata": "G4", "icao": "AAY"}]}, {"destination": {"icao": "KORF", "iata": "ORF", "name": "Norfolk ", "shortName": "Norfolk", "municipalityName": "Norfolk", "location": {"lat": 36.8946, "lon": -76.2012}, "countryCode": "US"}, "averageDailyFlights": 0.29, "operators": [{"name": "MXY"}]}, {"destination": {"icao": "KPHX", "iata": "PHX", "name": "Phoenix Sky Harbor", "shortName": "Sky Harbor", "municipalityName": "Phoenix", "location": {"lat": 33.4343, "lon": -112.012}, "countryCode": "US"}, "averageDailyFlights": 0.29, "operators": [{"name": "Southwest Airlines", "iata": "WN", "icao": "SWA"}]}, {"destination": {"icao": "KAGC", "iata": "AGC", "name": "Pittsburgh Allegheny County", "shortName": "Allegheny County", "municipalityName": "Pittsburgh", "location": {"lat": 40.3544, "lon": -79.9302}, "countryCode": "US"}, "averageDailyFlights": 0.29, "operators": [{"name": "MLN"}]}, {"destination": {"icao": "KRIC", "iata": "RIC", "name": "Richmond ", "shortName": "Richmond", "municipalityName": "Richmond", "location": {"lat": 37.5052, "lon": -77.3197}, "countryCode": "US"}, "averageDailyFlights": 0.29, "operators": [{"name": "RVJ"}]}, {"destination": {"icao": "KSLK", "iata": "SLK", "name": "Saranac Lake Adirondack Regional", "shortName": "Adirondack Regional", "municipalityName": "Saranac Lake", "location": {"lat": 44.3853, "lon": -74.2062}, "countryCode": "US"}, "averageDailyFlights": 0.29, "operators": [{"name": "LJY"}]}, {"destination": {"icao": "KHPN", "iata": "HPN", "name": "White Plains Westchester County", "shortName": "Westchester County", "municipalityName": "White Plains", "location": {"lat": 41.067, "lon": -73.7076}, "countryCode": "US"}, "averageDailyFlights": 0.29, "operators": [{"name": "LXJ"}, {"name": "MLN"}]}, {"destination": {"icao": "KYNG", "iata": "YNG", "name": "Youngstown/Warren Youngstown Warren Regional", "shortName": "Youngstown Warren Regional", "municipalityName": "Youngstown/Warren", "location": {"lat": 41.2607, "lon": -80.6791}, "countryCode": "US"}, "averageDailyFlights": 0.29, "operators": [{"name": "RVJ"}]}, {"destination": {"icao": "KPDK", "iata": "PDK", "name": "Atlanta DeKalb Peachtree", "shortName": "DeKalb Peachtree", "municipalityName": "Atlanta", "location": {"lat": 33.8756, "lon": -84.302}, "countryCode": "US"}, "averageDailyFlights": 0.14, "operators": [{"name": "LXJ"}]}, {"destination": {"icao": "KAGS", "iata": "AGS", "name": "Augusta Regional At Bush Field", "shortName": "Regional At Bush Field", "municipalityName": "Augusta", "location": {"lat": 33.3699, "lon": -81.9645}, "countryCode": "US"}, "averageDailyFlights": 0.14, "operators": [{"name": "RVJ"}]}, {"destination": {"icao": "KBLM", "iata": "BLM", "name": "Belmar/Farmingdale Monmouth Executive", "shortName": "Monmouth Executive", "municipalityName": "Belmar/Farmingdale", "location": {"lat": 40.1869, "lon": -74.1249}, "countryCode": "US"}, "averageDailyFlights": 0.14, "operators": [{"name": "JRE"}]}, {"destination": {"icao": "KCHA", "iata": "CHA", "name": "Chattanooga Lovell Field", "shortName": "Lovell Field", "municipalityName": "Chattanooga", "location": {"lat": 35.0353, "lon": -85.2038}, "countryCode": "US"}, "averageDailyFlights": 0.14, "operators": [{"name": "LXJ"}]}, {"destination": {"icao": "KCMH", "iata": "CMH", "name": "Columbus Port", "shortName": "Port", "municipalityName": "Columbus", "location": {"lat": 39.998, "lon": -82.8919}, "countryCode": "US"}, "averageDailyFlights": 0.14, "operators": [{"name": "CNS"}]}, {"destination": {"icao": "KCAG", "iata": "CIG", "name": "Craig Moffat", "shortName": "Moffat", "municipalityName": "Craig", "location": {"lat": 40.4952, "lon": -107.522}, "countryCode": "US"}, "averageDailyFlights": 0.14, "operators": [{"name": "LXJ"}]}, {"destination": {"icao": "KAPA", "iata": "APA", "name": "Denver Centennial", "shortName": "Centennial", "municipalityName": "Denver", "location": {"lat": 39.5701, "lon": -104.849}, "countryCode": "US"}, "averageDailyFlights": 0.14, "operators": [{"name": "XSR"}]}, {"destination": {"icao": "KDSM", "iata": "DSM", "name": "Des Moines ", "shortName": "Des Moines", "municipalityName": "Des Moines", "location": {"lat": 41.534, "lon": -93.6631}, "countryCode": "US"}, "averageDailyFlights": 0.14, "operators": [{"name": "Allegiant Air", "iata": "G4", "icao": "AAY"}]}, {"destination": {"icao": "KEVV", "iata": "EVV", "name": "Evansville Regional", "shortName": "Regional", "municipalityName": "Evansville", "location": {"lat": 38.037, "lon": -87.5324}, "countryCode": "US"}, "averageDailyFlights": 0.14, "operators": [{"name": "GAJ"}]}, {"destination": {"icao": "KFRG", "iata": "FRG", "name": "Farmingdale Republic", "shortName": "Republic", "municipalityName": "Farmingdale", "location": {"lat": 40.7288, "lon": -73.4134}, "countryCode": "US"}, "averageDailyFlights": 0.14, "operators": [{"name": "VNT"}]}, {"destination": {"icao": "KGSO", "iata": "GSO", "name": "Greensboro Piedmont Triad", "shortName": "Piedmont Triad", "municipalityName": "Greensboro", "location": {"lat": 36.0978, "lon": -79.9373}, "countryCode": "US"}, "averageDailyFlights": 0.14, "operators": [{"name": "LXJ"}]}, {"destination": {"icao": "KGSP", "iata": "GSP", "name": "Greenville Spartanburg", "shortName": "Spartanburg", "municipalityName": "Greenville", "location": {"lat": 34.8957, "lon": -82.2189}, "countryCode": "US"}, "averageDailyFlights": 0.14, "operators": [{"name": "STV"}]}, {"destination": {"icao": "CYHM", "iata": "YHM", "name": "Hamilton John C. Munro", "shortName": "John C. Munro", "municipalityName": "Hamilton", "location": {"lat": 43.1736, "lon": -79.935}, "countryCode": "CA"}, "averageDailyFlights": 0.14, "operators": [{"name": "RVJ"}]}, {"destination": {"icao": "KMDT", "iata": "MDT", "name": "Harrisburg ", "shortName": "Harrisburg", "municipalityName": "Harrisburg", "location": {"lat": 40.1935, "lon": -76.7634}, "countryCode": "US"}, "averageDailyFlights": 0.14, "operators": [{"name": "RVJ"}]}, {"destination": {"icao": "KHOU", "iata": "HOU", "name": "Houston William P Hobby", "shortName": "William P Hobby", "municipalityName": "Houston", "location": {"lat": 29.6454, "lon": -95.2789}, "countryCode": "US"}, "averageDailyFlights": 0.14, "operators": [{"name": "Southwest Airlines", "iata": "WN", "icao": "SWA"}]}, {"destination": {"icao": "KHSV", "iata": "HSV", "name": "Huntsville Carl T Jones Field", "shortName": "Carl T Jones Field", "municipalityName": "Huntsville", "location": {"lat": 34.6372, "lon": -86.7751}, "countryCode": "US"}, "averageDailyFlights": 0.14, "operators": [{"name": "Sun Country Airlines", "iata": "SY", "icao": "SCX"}]}, {"destination": {"icao": "KTYS", "iata": "TYS", "name": "Knoxville McGhee Tyson", "shortName": "McGhee Tyson", "municipalityName": "Knoxville", "location": {"lat": 35.811, "lon": -83.994}, "countryCode": "US"}, "averageDailyFlights": 0.14, "operators": [{"name": "Delta Air Lines", "iata": "DL", "icao": "DAL"}]}, {"destination": {"icao": "KLCI", "iata": "LCI", "name": "Laconia Municipal", "shortName": "Municipal", "municipalityName": "Laconia", "location": {"lat": 43.5727, "lon": -71.4189}, "countryCode": "US"}, "averageDailyFlights": 0.14, "operators": [{"name": "LAK"}]}, {"destination": {"icao": "KSDF", "iata": "SDF", "name": "Louisville Standiford Field", "shortName": "Standiford Field", "municipalityName": "Louisville", "location": {"lat": 38.1744, "lon": -85.736}, "countryCode": "US"}, "averageDailyFlights": 0.14, "operators": [{"name": "United Airlines", "iata": "UA", "icao": "UAL"}]}, {"destination": {"icao": "KMKE", "iata": "MKE", "name": "Milwaukee General Mitchell", "shortName": "General Mitchell", "municipalityName": "Milwaukee", "location": {"lat": 42.9472, "lon": -87.8966}, "countryCode": "US"}, "averageDailyFlights": 0.14, "operators": [{"name": "United Airlines", "iata": "UA", "icao": "UAL"}]}, {"destination": {"icao": "KMKG", "iata": "MKG", "name": "Muskegon County", "shortName": "County", "municipalityName": "Muskegon", "location": {"lat": 43.1695, "lon": -86.2382}, "countryCode": "US"}, "averageDailyFlights": 0.14, "operators": [{"name": "LJY"}]}, {"destination": {"icao": "KAPF", "iata": "APF", "name": "Naples Municipal", "shortName": "Municipal", "municipalityName": "Naples", "location": {"lat": 26.1526, "lon": -81.7753}, "countryCode": "US"}, "averageDailyFlights": 0.14, "operators": [{"name": "LAK"}]}, {"destination": {"icao": "KUUU", "iata": "NPT", "name": "Newport State", "shortName": "State", "municipalityName": "Newport", "location": {"lat": 41.5324, "lon": -71.2815}, "countryCode": "US"}, "averageDailyFlights": 0.14, "operators": [{"name": "CNS"}]}, {"destination": {"icao": "TNCA", "iata": "AUA", "name": "Oranjestad Queen Beatrix", "shortName": "Queen Beatrix", "municipalityName": "Oranjestad", "location": {"lat": 12.501399, "lon": -70.0152}, "countryCode": "AW"}, "averageDailyFlights": 0.14, "operators": [{"name": "LXJ"}]}, {"destination": {"icao": "KPLN", "iata": "PLN", "name": "Pellston Regional  of Emmet County", "shortName": "Regional  of Emmet County", "municipalityName": "Pellston", "location": {"lat": 45.5709, "lon": -84.7967}, "countryCode": "US"}, "averageDailyFlights": 0.14, "operators": [{"name": "GAJ"}]}, {"destination": {"icao": "KPOU", "iata": "POU", "name": "Poughkeepsie Dutchess County", "shortName": "Dutchess County", "municipalityName": "Poughkeepsie", "location": {"lat": 41.6266, "lon": -73.8842}, "countryCode": "US"}, "averageDailyFlights": 0.14, "operators": [{"name": "EDG"}]}, {"destination": {"icao": "MDPC", "iata": "PUJ", "name": "Punta Cana ", "shortName": "Punta Cana", "municipalityName": "Punta Cana", "location": {"lat": 18.567398, "lon": -68.3634}, "countryCode": "DO"}, "averageDailyFlights": 0.14, "operators": [{"name": "Allegiant Air", "iata": "G4", "icao": "AAY"}]}, {"destination": {"icao": "CYQB", "iata": "YQB", "name": "Quebec Jean Lesage", "shortName": "Jean Lesage", "municipalityName": "Quebec", "location": {"lat": 46.7911, "lon": -71.3933}, "countryCode": "CA"}, "averageDailyFlights": 0.14, "operators": [{"name": "Air Canada", "iata": "AC", "icao": "ACA"}]}, {"destination": {"icao": "KSUS", "iata": "SUS", "name": "Saint Louis Spirit of St Louis", "shortName": "Spirit of St Louis", "municipalityName": "Saint Louis", "location": {"lat": 38.6621, "lon": -90.652}, "countryCode": "US"}, "averageDailyFlights": 0.14, "operators": [{"name": "JRE"}]}, {"destination": {"icao": "KWRB", "iata": "WRB", "name": "Warner Robins Robins Air Force Base", "shortName": "Robins Air Force Base", "municipalityName": "Warner Robins", "location": {"lat": 32.6401, "lon": -83.5919}, "countryCode": "US"}, "averageDailyFlights": 0.14, "operators": [{"name": "BOE"}]}, {"destination": {"icao": "KHLG", "iata": "HLG", "name": "Wheeling Ohio County", "shortName": "Ohio County", "municipalityName": "Wheeling", "location": {"lat": 40.175, "lon": -80.6463}, "countryCode": "US"}, "averageDailyFlights": 0.14, "operators": [{"name": "RVJ"}]}, {"destination": {"icao": "KILM", "iata": "ILM", "name": "Wilmington ", "shortName": "Wilmington", "municipalityName": "Wilmington", "location": {"lat": 34.2706, "lon": -77.9026}, "countryCode": "US"}, "averageDailyFlights": 0.14, "operators": [{"name": "JRE"}]}]}