{"routes": [{"destination": {"icao": "KBKW", "iata": "BKW", "name": "Beckley Raleigh County Memorial", "shortName": "Raleigh County Memorial", "municipalityName": "Beckley", "location": {"lat": 37.7873, "lon": -81.1242}, "countryCode": "US"}, "averageDailyFlights": 2.14, "operators": [{"name": "Contour Aviation", "iata": "LF", "icao": "VTE"}]}, {"destination": {"icao": "KLCK", "iata": "LCK", "name": "Columbus Rickenbacker", "shortName": "Rickenbacker", "municipalityName": "Columbus", "location": {"lat": 39.8138, "lon": -82.9278}, "countryCode": "US"}, "averageDailyFlights": 1.29, "operators": [{"name": "MTN"}]}, {"destination": {"icao": "KIND", "iata": "IND", "name": "Indianapolis ", "shortName": "Indianapolis", "municipalityName": "Indianapolis", "location": {"lat": 39.7173, "lon": -86.2944}, "countryCode": "US"}, "averageDailyFlights": 0.71, "operators": [{"name": "MTN"}]}, {"destination": {"icao": "KCRW", "iata": "CRW", "name": "Charleston Yeager", "shortName": "Yeager", "municipalityName": "Charleston", "location": {"lat": 38.3731, "lon": -81.5932}, "countryCode": "US"}, "averageDailyFlights": 0.43, "operators": [{"name": "HRD"}]}, {"destination": {"icao": "KPAH", "iata": "PAH", "name": "Paducah Barkley Regional", "shortName": "Barkley Regional", "municipalityName": "Paducah", "location": {"lat": 37.0608, "lon": -88.7738}, "countryCode": "US"}, "averageDailyFlights": 0.29, "operators": [{"name": "MJR"}]}, {"destination": {"icao": "KDDC", "iata": "DDC", "name": "Dodge City Regional", "shortName": "Regional", "municipalityName": "Dodge City", "location": {"lat": 37.7634, "lon": -99.9656}, "countryCode": "US"}, "averageDailyFlights": 0.14, "operators": [{"name": "EJM"}]}, {"destination": {"icao": "KMGW", "iata": "MGW", "name": "Morgantown Municipal Walter L. Bill Hart Field", "shortName": "Municipal Walter L. Bill Hart Field", "municipalityName": "Morgantown", "location": {"lat": 39.6429, "lon": -79.9163}, "countryCode": "US"}, "averageDailyFlights": 0.14, "operators": [{"name": "HN"}]}, {"destination": {"icao": "KEWR", "iata": "EWR", "name": "Newark Liberty", "shortName": "Liberty", "municipalityName": "Newark", "location": {"lat": 40.6925, "lon": -74.1687}, "countryCode": "US"}, "averageDailyFlights": 0.14, "operators": [{"name": "MTN"}]}, {"destination": {"icao": "KORF", "iata": "ORF", "name": "Norfolk ", "shortName": "Norfolk", "municipalityName": "Norfolk", "location": {"lat": 36.8946, "lon": -76.2012}, "countryCode": "US"}, "averageDailyFlights": 0.14, "operators": [{"name": "NetJets Aviation", "iata": "1I", "icao": "EJA"}]}]}