{"routes": [{"destination": {"icao": "LEPA", "iata": "PMI", "name": "Palma De Mallorca ", "shortName": "Palma De Mallorca", "municipalityName": "Palma De Mallorca", "location": {"lat": 39.5517, "lon": 2.73881}, "countryCode": "ES"}, "averageDailyFlights": 1.57, "operators": [{"name": "Vueling", "iata": "VY", "icao": "VLG"}, {"name": "Ryanair", "iata": "FR", "icao": "RYR"}]}, {"destination": {"icao": "GCXO", "iata": "TFN", "name": "Tenerife Island Tenerife Norte", "shortName": "Tenerife Norte", "municipalityName": "Tenerife Island", "location": {"lat": 28.4827, "lon": -16.3415}, "countryCode": "ES"}, "averageDailyFlights": 0.71, "operators": [{"name": "Binter Canarias", "iata": "NT", "icao": "IBB"}, {"name": "Vueling", "iata": "VY", "icao": "VLG"}]}, {"destination": {"icao": "LRCL", "iata": "CLJ", "name": "Cluj-Napoca ", "shortName": "Cluj-Napoca", "municipalityName": "Cluj-Napoca", "location": {"lat": 46.7852, "lon": 23.6862}, "countryCode": "RO"}, "averageDailyFlights": 0.57, "operators": [{"name": "WMT"}, {"name": "Ulendo Airlink", "iata": "W4"}]}, {"destination": {"icao": "EGSS", "iata": "STN", "name": "London Stansted", "shortName": "Stansted", "municipalityName": "London", "location": {"lat": 51.885, "lon": 0.234999}, "countryCode": "GB"}, "averageDailyFlights": 0.57, "operators": [{"name": "Ryanair", "iata": "FR", "icao": "RYR"}]}, {"destination": {"icao": "LFOB", "iata": "BVA", "name": "Beauvais/Till\u00e9 Paris Beauvais Till\u00e9", "shortName": "Paris Beauvais Till\u00e9", "municipalityName": "Beauvais/Till\u00e9", "location": {"lat": 49.4544, "lon": 2.11278}, "countryCode": "FR"}, "averageDailyFlights": 0.43, "operators": [{"name": "Ryanair", "iata": "FR", "icao": "RYR"}]}, {"destination": {"icao": "LIME", "iata": "BGY", "name": "Bergamo Orio al Serio", "shortName": "Orio al Serio", "municipalityName": "Bergamo", "location": {"lat": 45.6739, "lon": 9.70417}, "countryCode": "IT"}, "averageDailyFlights": 0.43, "operators": [{"name": "Ryanair", "iata": "FR", "icao": "RYR"}]}, {"destination": {"icao": "LROP", "iata": "OTP", "name": "Bucharest Henri Coand\u0103", "shortName": "Henri Coand\u0103", "municipalityName": "Bucharest", "location": {"lat": 44.5722, "lon": 26.1022}, "countryCode": "RO"}, "averageDailyFlights": 0.43, "operators": [{"name": "Ulendo Airlink", "iata": "W4"}]}, {"destination": {"icao": "LEMH", "iata": "MAH", "name": "Menorca Island Menorca", "shortName": "Menorca", "municipalityName": "Menorca Island", "location": {"lat": 39.8626, "lon": 4.218649}, "countryCode": "ES"}, "averageDailyFlights": 0.43, "operators": [{"name": "Volotea", "iata": "V7", "icao": "VOE"}]}, {"destination": {"icao": "LIPE", "iata": "BLQ", "name": "Bologna Guglielmo Marconi", "shortName": "Guglielmo Marconi", "municipalityName": "Bologna", "location": {"lat": 44.5354, "lon": 11.2887}, "countryCode": "IT"}, "averageDailyFlights": 0.29, "operators": [{"name": "Ryanair", "iata": "FR", "icao": "RYR"}]}, {"destination": {"icao": "EBCI", "iata": "CRL", "name": "Brussels South Charleroi", "shortName": "South Charleroi", "municipalityName": "Brussels", "location": {"lat": 50.4592, "lon": 4.45382}, "countryCode": "BE"}, "averageDailyFlights": 0.29, "operators": [{"name": "Ryanair", "iata": "FR", "icao": "RYR"}]}, {"destination": {"icao": "GCLP", "iata": "LPA", "name": "Gran Canaria Island Gran Canaria", "shortName": "Gran Canaria", "municipalityName": "Gran Canaria Island", "location": {"lat": 27.9319, "lon": -15.386599}, "countryCode": "ES"}, "averageDailyFlights": 0.29, "operators": [{"name": "Binter Canarias", "iata": "NT", "icao": "IBB"}]}, {"destination": {"icao": "GCRR", "iata": "ACE", "name": "Lanzarote Island Lanzarote", "shortName": "Lanzarote", "municipalityName": "Lanzarote Island", "location": {"lat": 28.9455, "lon": -13.605199}, "countryCode": "ES"}, "averageDailyFlights": 0.29, "operators": [{"name": "AlbaStar", "iata": "AP", "icao": "LAV"}, {"name": "Vueling", "iata": "VY", "icao": "VLG"}]}, {"destination": {"icao": "GMMX", "iata": "RAK", "name": "Marrakech Menara", "shortName": "Menara", "municipalityName": "Marrakech", "location": {"lat": 31.6069, "lon": -8.036299}, "countryCode": "MA"}, "averageDailyFlights": 0.29, "operators": [{"name": "Ryanair", "iata": "FR", "icao": "RYR"}]}, {"destination": {"icao": "LEST", "iata": "SCQ", "name": "Santiago de Compostela ", "shortName": "Santiago de Compostela", "municipalityName": "Santiago de Compostela", "location": {"lat": 42.8963, "lon": -8.41514}, "countryCode": "ES"}, "averageDailyFlights": 0.29, "operators": [{"name": "Ryanair", "iata": "FR", "icao": "RYR"}]}, {"destination": {"icao": "LIPH", "iata": "TSF", "name": "Treviso -Sant'Angelo", "shortName": "-Sant'Angelo", "municipalityName": "Treviso", "location": {"lat": 45.6484, "lon": 12.194399}, "countryCode": "IT"}, "averageDailyFlights": 0.29, "operators": [{"name": "Ryanair", "iata": "FR", "icao": "RYR"}]}, {"destination": {"icao": "OJAI", "iata": "AMM", "name": "Amman Queen Alia", "shortName": "Queen Alia", "municipalityName": "Amman", "location": {"lat": 31.7226, "lon": 35.9932}, "countryCode": "JO"}, "averageDailyFlights": 0.14, "operators": [{"name": "Evelop Airlines", "iata": "E9", "icao": "EVE"}]}, {"destination": {"icao": "LEBL", "iata": "BCN", "name": "Barcelona ", "shortName": "Barcelona", "municipalityName": "Barcelona", "location": {"lat": 41.2971, "lon": 2.078459}, "countryCode": "ES"}, "averageDailyFlights": 0.14, "operators": [{"name": "Ulendo Airlink", "iata": "W4"}]}, {"destination": {"icao": "EGPH", "iata": "EDI", "name": "Edinburgh ", "shortName": "Edinburgh", "municipalityName": "Edinburgh", "location": {"lat": 55.95, "lon": -3.372499}, "countryCode": "GB"}, "averageDailyFlights": 0.14, "operators": [{"name": "Evelop Airlines", "iata": "E9", "icao": "EVE"}]}, {"destination": {"icao": "LEMD", "iata": "MAD", "name": "Madrid Adolfo Su\u00e1rez \u2013Barajas", "shortName": "Adolfo Su\u00e1rez \u2013Barajas", "municipalityName": "Madrid", "location": {"lat": 40.4936, "lon": -3.56676}, "countryCode": "ES"}, "averageDailyFlights": 0.14, "operators": [{"name": "Evelop Airlines", "iata": "E9", "icao": "EVE"}]}]}