{"routes": [{"destination": {"icao": "LGAV", "iata": "ATH", "name": "Athens Eleftherios Venizelos", "shortName": "Eleftherios Venizelos", "municipalityName": "Athens", "location": {"lat": 37.9364, "lon": 23.944498}, "countryCode": "GR"}, "averageDailyFlights": 2.43, "operators": [{"name": "Aegean Airlines", "iata": "A3", "icao": "AEE"}, {"name": "Sky Express", "iata": "GQ", "icao": "SEH"}]}, {"destination": {"icao": "EGCC", "iata": "MAN", "name": "Manchester ", "shortName": "Manchester", "municipalityName": "Manchester", "location": {"lat": 53.3537, "lon": -2.27495}, "countryCode": "GB"}, "averageDailyFlights": 1.43, "operators": [{"name": "easyJet", "iata": "U2", "icao": "EZY"}, {"name": "Jet2", "iata": "LS", "icao": "EXS"}]}, {"destination": {"icao": "EGSS", "iata": "STN", "name": "London Stansted", "shortName": "Stansted", "municipalityName": "London", "location": {"lat": 51.885, "lon": 0.234999}, "countryCode": "GB"}, "averageDailyFlights": 1.4, "operators": [{"name": "Jet2", "iata": "LS", "icao": "EXS"}, {"name": "Ryanair", "iata": "FR", "icao": "RYR"}, {"name": "easyJet", "iata": "U2", "icao": "EZY"}]}, {"destination": {"icao": "EHAM", "iata": "AMS", "name": "Amsterdam Schiphol", "shortName": "Schiphol", "municipalityName": "Amsterdam", "location": {"lat": 52.3086, "lon": 4.763889}, "countryCode": "NL"}, "averageDailyFlights": 0.86, "operators": [{"name": "Transavia", "iata": "HV", "icao": "TRA"}, {"name": "TUI Airlines Nederland (Netherlands)", "iata": "OR", "icao": "TFL"}, {"name": "easyJet", "iata": "U2", "icao": "EZY"}]}, {"destination": {"icao": "LIME", "iata": "BGY", "name": "Bergamo Orio al Serio", "shortName": "Orio al Serio", "municipalityName": "Bergamo", "location": {"lat": 45.6739, "lon": 9.70417}, "countryCode": "IT"}, "averageDailyFlights": 0.86, "operators": [{"name": "Ryanair", "iata": "FR", "icao": "RYR"}]}, {"destination": {"icao": "EGGD", "iata": "BRS", "name": "Bristol ", "shortName": "Bristol", "municipalityName": "Bristol", "location": {"lat": 51.3827, "lon": -2.719089}, "countryCode": "GB"}, "averageDailyFlights": 0.57, "operators": [{"name": "easyJet", "iata": "U2", "icao": "EZY"}, {"name": "Jet2", "iata": "LS", "icao": "EXS"}]}, {"destination": {"icao": "EGNM", "iata": "LBA", "name": "Leeds Bradford", "shortName": "Bradford", "municipalityName": "Leeds", "location": {"lat": 53.8659, "lon": -1.66057}, "countryCode": "GB"}, "averageDailyFlights": 0.57, "operators": [{"name": "Jet2", "iata": "LS", "icao": "EXS"}]}, {"destination": {"icao": "LIMC", "iata": "MXP", "name": "Milan Malpensa", "shortName": "Malpensa", "municipalityName": "Milan", "location": {"lat": 45.6306, "lon": 8.72811}, "countryCode": "IT"}, "averageDailyFlights": 0.57, "operators": [{"name": "easyJet", "iata": "U2", "icao": "EZY"}]}, {"destination": {"icao": "LIRN", "iata": "NAP", "name": "N\u00e1poli Naples", "shortName": "Naples", "municipalityName": "N\u00e1poli", "location": {"lat": 40.886, "lon": 14.2908}, "countryCode": "IT"}, "averageDailyFlights": 0.57, "operators": [{"name": "easyJet", "iata": "U2", "icao": "EZY"}, {"name": "Volotea", "iata": "V7", "icao": "VOE"}]}, {"destination": {"icao": "LKPR", "iata": "PRG", "name": "Prague Ruzyn\u011b", "shortName": "Ruzyn\u011b", "municipalityName": "Prague", "location": {"lat": 50.1008, "lon": 14.26}, "countryCode": "CZ"}, "averageDailyFlights": 0.57, "operators": [{"name": "SmartWings", "iata": "QS", "icao": "TVS"}]}, {"destination": {"icao": "LIRF", "iata": "FCO", "name": "Rome Leonardo da Vinci\u2013Fiumicino", "shortName": "Leonardo da Vinci\u2013Fiumicino", "municipalityName": "Rome", "location": {"lat": 41.8045, "lon": 12.2508}, "countryCode": "IT"}, "averageDailyFlights": 0.57, "operators": [{"name": "Wizz Air", "iata": "W6", "icao": "WZZ"}, {"name": "Ryanair", "iata": "FR", "icao": "RYR"}]}, {"destination": {"icao": "LOWW", "iata": "VIE", "name": "Vienna Schwechat", "shortName": "Schwechat", "municipalityName": "Vienna", "location": {"lat": 48.1103, "lon": 16.5697}, "countryCode": "AT"}, "averageDailyFlights": 0.57, "operators": [{"name": "Austrian", "iata": "OS", "icao": "AUA"}, {"name": "Ryanair", "iata": "FR", "icao": "RYR"}]}, {"destination": {"icao": "EGBB", "iata": "BHX", "name": "Birmingham ", "shortName": "Birmingham", "municipalityName": "Birmingham", "location": {"lat": 52.4539, "lon": -1.748029}, "countryCode": "GB"}, "averageDailyFlights": 0.43, "operators": [{"name": "Jet2", "iata": "LS", "icao": "EXS"}]}, {"destination": {"icao": "EGLL", "iata": "LHR", "name": "London Heathrow", "shortName": "Heathrow", "municipalityName": "London", "location": {"lat": 51.4706, "lon": -0.461941}, "countryCode": "GB"}, "averageDailyFlights": 0.43, "operators": [{"name": "British Airways", "iata": "BA", "icao": "BAW"}]}, {"destination": {"icao": "EGNT", "iata": "NCL", "name": "Newcastle upon Tyne Newcastle", "shortName": "Newcastle", "municipalityName": "Newcastle upon Tyne", "location": {"lat": 55.0375, "lon": -1.691669}, "countryCode": "GB"}, "averageDailyFlights": 0.43, "operators": [{"name": "Jet2", "iata": "LS", "icao": "EXS"}]}, {"destination": {"icao": "EGNX", "iata": "EMA", "name": "Nottingham East Midlands", "shortName": "East Midlands", "municipalityName": "Nottingham", "location": {"lat": 52.8311, "lon": -1.32806}, "countryCode": "GB"}, "averageDailyFlights": 0.29, "operators": [{"name": "Jet2", "iata": "LS", "icao": "EXS"}]}, {"destination": {"icao": "LFPO", "iata": "ORY", "name": "Paris -Orly", "shortName": "-Orly", "municipalityName": "Paris", "location": {"lat": 48.7253, "lon": 2.35944}, "countryCode": "FR"}, "averageDailyFlights": 0.29, "operators": [{"name": "Transavia France", "iata": "TO", "icao": "TVF"}]}, {"destination": {"icao": "LIRP", "iata": "PSA", "name": "Pisa ", "shortName": "Pisa", "municipalityName": "Pisa", "location": {"lat": 43.6839, "lon": 10.3927}, "countryCode": "IT"}, "averageDailyFlights": 0.29, "operators": [{"name": "Ryanair", "iata": "FR", "icao": "RYR"}]}, {"destination": {"icao": "LIPZ", "iata": "VCE", "name": "Venice Marco Polo", "shortName": "Marco Polo", "municipalityName": "Venice", "location": {"lat": 45.5053, "lon": 12.3519}, "countryCode": "IT"}, "averageDailyFlights": 0.29, "operators": [{"name": "easyJet", "iata": "U2", "icao": "EZY"}]}, {"destination": {"icao": "LROP", "iata": "OTP", "name": "Bucharest Henri Coand\u0103", "shortName": "Henri Coand\u0103", "municipalityName": "Bucharest", "location": {"lat": 44.5722, "lon": 26.1022}, "countryCode": "RO"}, "averageDailyFlights": 0.14, "operators": [{"name": "Astra Airlines"}]}, {"destination": {"icao": "EDDL", "iata": "DUS", "name": "Duesseldorf D\u00fcsseldorf", "shortName": "D\u00fcsseldorf", "municipalityName": "Duesseldorf", "location": {"lat": 51.2895, "lon": 6.766779}, "countryCode": "DE"}, "averageDailyFlights": 0.14, "operators": [{"name": "Condor", "iata": "DE", "icao": "CFG"}]}, {"destination": {"icao": "EGPH", "iata": "EDI", "name": "Edinburgh ", "shortName": "Edinburgh", "municipalityName": "Edinburgh", "location": {"lat": 55.95, "lon": -3.372499}, "countryCode": "GB"}, "averageDailyFlights": 0.14, "operators": [{"name": "easyJet", "iata": "U2", "icao": "EZY"}]}, {"destination": {"icao": "EDDF", "iata": "FRA", "name": "Frankfurt-am-Main ", "shortName": "Frankfurt-am-Main", "municipalityName": "Frankfurt-am-Main", "location": {"lat": 50.0264, "lon": 8.543129}, "countryCode": "DE"}, "averageDailyFlights": 0.14, "operators": [{"name": "Condor", "iata": "DE", "icao": "CFG"}]}, {"destination": {"icao": "EGPF", "iata": "GLA", "name": "Glasgow ", "shortName": "Glasgow", "municipalityName": "Glasgow", "location": {"lat": 55.8719, "lon": -4.43306}, "countryCode": "GB"}, "averageDailyFlights": 0.14, "operators": [{"name": "Jet2", "iata": "LS", "icao": "EXS"}]}, {"destination": {"icao": "LGKP", "iata": "AOK", "name": "Karpathos Island Karpathos", "shortName": "Karpathos", "municipalityName": "Karpathos Island", "location": {"lat": 35.4214, "lon": 27.146}, "countryCode": "GR"}, "averageDailyFlights": 0.14, "operators": [{"name": "TUI Airlines Nederland (Netherlands)", "iata": "OR", "icao": "TFL"}]}, {"destination": {"icao": "LCLK", "iata": "LCA", "name": "Larnarca Larnaca", "shortName": "Larnaca", "municipalityName": "Larnarca", "location": {"lat": 34.8751, "lon": 33.6249}, "countryCode": "CY"}, "averageDailyFlights": 0.14, "operators": [{"name": "Tus Airways", "iata": "U8", "icao": "CYF"}]}, {"destination": {"icao": "ENGM", "iata": "OSL", "name": "Oslo Gardermoen", "shortName": "Gardermoen", "municipalityName": "Oslo", "location": {"lat": 60.1939, "lon": 11.100399}, "countryCode": "NO"}, "averageDailyFlights": 0.14, "operators": [{"name": "Norwegian Air Shuttle", "iata": "DY", "icao": "NOZ"}]}, {"destination": {"icao": "EPPO", "iata": "POZ", "name": "Pozna\u0144 -\u0141awica", "shortName": "-\u0141awica", "municipalityName": "Pozna\u0144", "location": {"lat": 52.421, "lon": 16.8263}, "countryCode": "PL"}, "averageDailyFlights": 0.14, "operators": [{"name": "Sky Express", "iata": "GQ", "icao": "SEH"}]}, {"destination": {"name": "Munich"}, "averageDailyFlights": 0.14, "operators": [{"name": "Norwegian Air UK", "iata": "DI", "icao": "NRS"}]}]}