{"routes": [{"destination": {"icao": "KJFK", "iata": "JFK", "name": "New York John F Kennedy", "shortName": "John F Kennedy", "municipalityName": "New York", "location": {"lat": 40.6398, "lon": -73.7789}, "countryCode": "US"}, "averageDailyFlights": 10.14, "operators": [{"name": "JetBlue Airways", "iata": "B6", "icao": "JBU"}, {"name": "Delta Air Lines", "iata": "DL", "icao": "DAL"}]}, {"destination": {"icao": "KMIA", "iata": "MIA", "name": "Miami ", "shortName": "Miami", "municipalityName": "Miami", "location": {"lat": 25.7932, "lon": -80.2906}, "countryCode": "US"}, "averageDailyFlights": 7.71, "operators": [{"name": "American Airlines", "iata": "AA", "icao": "AAL"}, {"name": "Sky High Aviation", "iata": "DO", "icao": "SHH"}, {"name": "Eastern Airlines", "iata": "2D", "icao": "EAL"}]}, {"destination": {"icao": "MPTO", "iata": "PTY", "name": "Tocumen ", "shortName": "Tocumen", "municipalityName": "Tocumen", "location": {"lat": 9.071359, "lon": -79.3835}, "countryCode": "PA"}, "averageDailyFlights": 5.14, "operators": [{"name": "Copa Airlines", "iata": "CM", "icao": "CMP"}, {"name": "WDL Aviation", "iata": "WH", "icao": "WDL"}]}, {"destination": {"icao": "KEWR", "iata": "EWR", "name": "Newark Liberty", "shortName": "Liberty", "municipalityName": "Newark", "location": {"lat": 40.6925, "lon": -74.1687}, "countryCode": "US"}, "averageDailyFlights": 4.86, "operators": [{"name": "JetBlue Airways", "iata": "B6", "icao": "JBU"}, {"name": "United Airlines", "iata": "UA", "icao": "UAL"}]}, {"destination": {"icao": "KMCO", "iata": "MCO", "name": "Orlando ", "shortName": "Orlando", "municipalityName": "Orlando", "location": {"lat": 28.4294, "lon": -81.309}, "countryCode": "US"}, "averageDailyFlights": 4.29, "operators": [{"name": "Spirit Airlines", "iata": "NK", "icao": "NKS"}, {"name": "JetBlue Airways", "iata": "B6", "icao": "JBU"}, {"name": "Frontier Airlines", "iata": "F9", "icao": "FFT"}]}, {"destination": {"icao": "TJSJ", "iata": "SJU", "name": "San Juan Luis Munoz Marin", "shortName": "Luis Munoz Marin", "municipalityName": "San Juan", "location": {"lat": 18.4394, "lon": -66.0018}, "countryCode": "PR"}, "averageDailyFlights": 4.0, "operators": [{"name": "JetBlue Airways", "iata": "B6", "icao": "JBU"}, {"name": "Frontier Airlines", "iata": "F9", "icao": "FFT"}]}, {"destination": {"icao": "SVMI", "iata": "CCS", "name": "Caracas Sim\u00f3n Bol\u00edvar", "shortName": "Sim\u00f3n Bol\u00edvar", "municipalityName": "Caracas", "location": {"lat": 10.603116, "lon": -66.990585}, "countryCode": "VE"}, "averageDailyFlights": 3.43, "operators": [{"name": "LASER Airlines", "iata": "QL", "icao": "LER"}, {"name": "Avior", "iata": "9V", "icao": "ROI"}, {"name": "Sky High Aviation", "iata": "DO", "icao": "SHH"}]}, {"destination": {"icao": "KFLL", "iata": "FLL", "name": "Fort Lauderdale Hollywood", "shortName": "Hollywood", "municipalityName": "Fort Lauderdale", "location": {"lat": 26.0726, "lon": -80.1527}, "countryCode": "US"}, "averageDailyFlights": 3.14, "operators": [{"name": "Spirit Airlines", "iata": "NK", "icao": "NKS"}, {"name": "JetBlue Airways", "iata": "B6", "icao": "JBU"}]}, {"destination": {"icao": "SKBO", "iata": "BOG", "name": "Bogot\u00e1 El Dorado", "shortName": "El Dorado", "municipalityName": "Bogot\u00e1", "location": {"lat": 4.70159, "lon": -74.1469}, "countryCode": "CO"}, "averageDailyFlights": 2.45, "operators": [{"name": "Dominican Wings", "iata": "DW", "icao": "DWI"}, {"name": "Avianca", "iata": "AV", "icao": "AVA"}, {"name": "Copa Airlines Colombia", "iata": "P5", "icao": "RPB"}]}, {"destination": {"icao": "KBOS", "iata": "BOS", "name": "Boston General Edward Lawrence Logan", "shortName": "General Edward Lawrence Logan", "municipalityName": "Boston", "location": {"lat": 42.3643, "lon": -71.0052}, "countryCode": "US"}, "averageDailyFlights": 2.14, "operators": [{"name": "JetBlue Airways", "iata": "B6", "icao": "JBU"}]}, {"destination": {"icao": "MBPV", "iata": "PLS", "name": "Providenciales Island Providenciales", "shortName": "Providenciales", "municipalityName": "Providenciales Island", "location": {"lat": 21.7736, "lon": -72.2659}, "countryCode": "TC"}, "averageDailyFlights": 1.86, "operators": [{"name": "VQTJM"}, {"name": "VQTGG"}, {"name": "Caicos Express Airways", "iata": "9Q", "icao": "CXE"}, {"name": "interCaribbean Airways", "iata": "JY", "icao": "IWY"}]}, {"destination": {"icao": "MSLP", "iata": "SAL", "name": "Santa Clara El Salvador", "shortName": "El Salvador", "municipalityName": "Santa Clara", "location": {"lat": 13.440899, "lon": -89.0557}, "countryCode": "SV"}, "averageDailyFlights": 1.86, "operators": [{"name": "Dominican Wings", "iata": "DW", "icao": "DWI"}]}, {"destination": {"icao": "LEMD", "iata": "MAD", "name": "Madrid Adolfo Su\u00e1rez \u2013Barajas", "shortName": "Adolfo Su\u00e1rez \u2013Barajas", "municipalityName": "Madrid", "location": {"lat": 40.4936, "lon": -3.56676}, "countryCode": "ES"}, "averageDailyFlights": 1.44, "operators": [{"name": "Air Europa", "iata": "UX", "icao": "AEA"}, {"name": "Multiple Solutions Limited", "iata": "2W"}, {"name": "Iberia", "iata": "IB", "icao": "IBE"}]}, {"destination": {"icao": "KATL", "iata": "ATL", "name": "Atlanta Hartsfield Jackson", "shortName": "Hartsfield Jackson", "municipalityName": "Atlanta", "location": {"lat": 33.6367, "lon": -84.4281}, "countryCode": "US"}, "averageDailyFlights": 1.43, "operators": [{"name": "Delta Air Lines", "iata": "DL", "icao": "DAL"}, {"name": "Frontier Airlines", "iata": "F9", "icao": "FFT"}]}, {"destination": {"icao": "TUPJ", "iata": "EIS", "name": "Road Town Terrance B. Lettsome", "shortName": "Terrance B. Lettsome", "municipalityName": "Road Town", "location": {"lat": 18.4448, "lon": -64.543}, "countryCode": "VG"}, "averageDailyFlights": 1.43, "operators": [{"name": "interCaribbean Airways", "iata": "JY", "icao": "IWY"}, {"name": "Sky High Aviation", "iata": "DO", "icao": "SHH"}]}, {"destination": {"icao": "TFFR", "iata": "PTP", "name": "Pointe-\u00e0-Pitre Le Raizet ", "shortName": "Pointe-\u00e0-Pitre Le Raizet", "municipalityName": "Pointe-\u00e0-Pitre Le Raizet", "location": {"lat": 16.2653, "lon": -61.5318}, "countryCode": "GP"}, "averageDailyFlights": 1.0, "operators": [{"name": "Sky High Aviation", "iata": "DO", "icao": "SHH"}, {"name": "Air Antilles Express", "iata": "3S", "icao": "GUY"}, {"name": "Air Caraibes", "iata": "TX", "icao": "FWI"}]}, {"destination": {"icao": "SKRG", "iata": "MDE", "name": "Rionegro Jose Maria C\u00f3rdova", "shortName": "Jose Maria C\u00f3rdova", "municipalityName": "Rionegro", "location": {"lat": 6.16454, "lon": -75.4231}, "countryCode": "CO"}, "averageDailyFlights": 1.0, "operators": [{"name": "Dominican Wings", "iata": "DW", "icao": "DWI"}, {"name": "Copa Airlines Colombia", "iata": "P5", "icao": "RPB"}]}, {"destination": {"icao": "TNCM", "iata": "SXM", "name": "Saint Martin Princess Juliana", "shortName": "Princess Juliana", "municipalityName": "Saint Martin", "location": {"lat": 18.041, "lon": -63.1089}, "countryCode": "SX"}, "averageDailyFlights": 0.86, "operators": [{"name": "Sky High Aviation", "iata": "DO", "icao": "SHH"}, {"name": "Dominican Wings", "iata": "DW", "icao": "DWI"}, {"name": "FlexFlight", "iata": "W2", "icao": "FXT"}]}, {"destination": {"icao": "MKJP", "iata": "KIN", "name": "Kingston Norman Manley", "shortName": "Norman Manley", "municipalityName": "Kingston", "location": {"lat": 17.9357, "lon": -76.7875}, "countryCode": "JM"}, "averageDailyFlights": 0.71, "operators": [{"name": "Dominican Wings", "iata": "DW", "icao": "DWI"}]}, {"destination": {"icao": "SVMC", "iata": "MAR", "name": "Maracaibo La Chinita", "shortName": "La Chinita", "municipalityName": "Maracaibo", "location": {"lat": 10.558208, "lon": -71.72786}, "countryCode": "VE"}, "averageDailyFlights": 0.71, "operators": [{"name": "Rutaca Airlines", "iata": "5R", "icao": "RUC"}]}, {"destination": {"icao": "MROC", "iata": "SJO", "name": "San Jos\u00e9 Juan Santamaria", "shortName": "Juan Santamaria", "municipalityName": "San Jos\u00e9", "location": {"lat": 9.99386, "lon": -84.2088}, "countryCode": "CR"}, "averageDailyFlights": 0.71, "operators": [{"name": "Dominican Wings", "iata": "DW", "icao": "DWI"}]}, {"destination": {"icao": "MPPA", "iata": "BLB", "name": "Panam\u00e1 City Panama Pacific", "shortName": "Panama Pacific", "municipalityName": "Panam\u00e1 City", "location": {"lat": 8.91479, "lon": -79.5996}, "countryCode": "PA"}, "averageDailyFlights": 0.61, "operators": [{"name": "Copa Airlines Colombia", "iata": "P5", "icao": "RPB"}, {"name": "Aeromexico", "iata": "AM", "icao": "AMX"}]}, {"destination": {"icao": "MGGT", "iata": "GUA", "name": "Guatemala City La Aurora", "shortName": "La Aurora", "municipalityName": "Guatemala City", "location": {"lat": 14.583299, "lon": -90.5275}, "countryCode": "GT"}, "averageDailyFlights": 0.57, "operators": [{"name": "Dominican Wings", "iata": "DW", "icao": "DWI"}]}, {"destination": {"icao": "TNCC", "iata": "CUR", "name": "Willemstad Hato", "shortName": "Hato", "municipalityName": "Willemstad", "location": {"lat": 12.188899, "lon": -68.9598}, "countryCode": "CW"}, "averageDailyFlights": 0.57, "operators": [{"name": "Dominican Wings", "iata": "DW", "icao": "DWI"}, {"name": "Sky High Aviation", "iata": "DO", "icao": "SHH"}]}, {"destination": {"icao": "SKBQ", "iata": "BAQ", "name": "Barranquilla Ernesto Cortissoz", "shortName": "Ernesto Cortissoz", "municipalityName": "Barranquilla", "location": {"lat": 10.8896, "lon": -74.7808}, "countryCode": "CO"}, "averageDailyFlights": 0.43, "operators": [{"name": "Dominican Wings", "iata": "DW", "icao": "DWI"}]}, {"destination": {"icao": "MMUN", "iata": "CUN", "name": "Canc\u00fan ", "shortName": "Canc\u00fan", "municipalityName": "Canc\u00fan", "location": {"lat": 21.0365, "lon": -86.8771}, "countryCode": "MX"}, "averageDailyFlights": 0.43, "operators": [{"name": "Dominican Wings", "iata": "DW", "icao": "DWI"}]}, {"destination": {"icao": "SKCG", "iata": "CTG", "name": "Cartagena de Indias Rafael Nu\u00f1ez", "shortName": "Rafael Nu\u00f1ez", "municipalityName": "Cartagena de Indias", "location": {"lat": 10.4424, "lon": -75.513}, "countryCode": "CO"}, "averageDailyFlights": 0.43, "operators": [{"name": "Dominican Wings", "iata": "DW", "icao": "DWI"}]}, {"destination": {"icao": "SOCA", "iata": "CAY", "name": "Cayenne / Rochambeau Cayenne-Rochambeau", "shortName": "Cayenne-Rochambeau", "municipalityName": "Cayenne / Rochambeau", "location": {"lat": 4.819809, "lon": -52.3604}, "countryCode": "GF"}, "averageDailyFlights": 0.43, "operators": [{"name": "Sky High Aviation", "iata": "DO", "icao": "SHH"}]}, {"destination": {"icao": "MUHA", "iata": "HAV", "name": "Havana Jos\u00e9 Mart\u00ed", "shortName": "Jos\u00e9 Mart\u00ed", "municipalityName": "Havana", "location": {"lat": 22.9892, "lon": -82.4091}, "countryCode": "CU"}, "averageDailyFlights": 0.43, "operators": [{"name": "Sky High Aviation", "iata": "DO", "icao": "SHH"}]}, {"destination": {"icao": "MTPP", "iata": "PAP", "name": "Port-au-Prince Toussaint Louverture", "shortName": "Toussaint Louverture", "municipalityName": "Port-au-Prince", "location": {"lat": 18.58, "lon": -72.2925}, "countryCode": "HT"}, "averageDailyFlights": 0.43, "operators": [{"name": "Sunrise Airways", "iata": "S6", "icao": "KSZ"}]}, {"destination": {"icao": "KTPA", "iata": "TPA", "name": "Tampa ", "shortName": "Tampa", "municipalityName": "Tampa", "location": {"lat": 27.9755, "lon": -82.5332}, "countryCode": "US"}, "averageDailyFlights": 0.43, "operators": [{"name": "Frontier Airlines", "iata": "F9", "icao": "FFT"}]}, {"destination": {"icao": "TQPF", "iata": "AXA", "name": "The Valley Wallblake", "shortName": "Wallblake", "municipalityName": "The Valley", "location": {"lat": 18.2048, "lon": -63.0551}, "countryCode": "AI"}, "averageDailyFlights": 0.43, "operators": [{"name": "Sky High Aviation", "iata": "DO", "icao": "SHH"}]}, {"destination": {"icao": "SVVA", "iata": "VLN", "name": "Valencia Arturo Michelena", "shortName": "Arturo Michelena", "municipalityName": "Valencia", "location": {"lat": 10.149732, "lon": -67.9284}, "countryCode": "VE"}, "averageDailyFlights": 0.43, "operators": [{"name": "Turpial Airlines", "iata": "T9", "icao": "VTU"}]}, {"destination": {"icao": "TKPK", "iata": "SKB", "name": "Basseterre Robert L. Bradshaw", "shortName": "Robert L. Bradshaw", "municipalityName": "Basseterre", "location": {"lat": 17.3112, "lon": -62.7187}, "countryCode": "KN"}, "averageDailyFlights": 0.29, "operators": [{"name": "Sky High Aviation", "iata": "DO", "icao": "SHH"}]}, {"destination": {"icao": "TFFF", "iata": "FDF", "name": "Fort-de-France Martinique Aim\u00e9 C\u00e9saire", "shortName": "Martinique Aim\u00e9 C\u00e9saire", "municipalityName": "Fort-de-France", "location": {"lat": 14.590999, "lon": -61.0032}, "countryCode": "MQ"}, "averageDailyFlights": 0.29, "operators": [{"name": "Sky High Aviation", "iata": "DO", "icao": "SHH"}]}, {"destination": {"icao": "EDDF", "iata": "FRA", "name": "Frankfurt-am-Main ", "shortName": "Frankfurt-am-Main", "municipalityName": "Frankfurt-am-Main", "location": {"lat": 50.0264, "lon": 8.543129}, "countryCode": "DE"}, "averageDailyFlights": 0.29, "operators": [{"name": "Condor", "iata": "DE", "icao": "CFG"}]}, {"destination": {"icao": "TNCB", "iata": "BON", "name": "Kralendijk Flamingo", "shortName": "Flamingo", "municipalityName": "Kralendijk", "location": {"lat": 12.130999, "lon": -68.2685}, "countryCode": "BQ"}, "averageDailyFlights": 0.29, "operators": [{"name": "Sky High Aviation", "iata": "DO", "icao": "SHH"}]}, {"destination": {"icao": "TNCA", "iata": "AUA", "name": "Oranjestad Queen Beatrix", "shortName": "Queen Beatrix", "municipalityName": "Oranjestad", "location": {"lat": 12.501399, "lon": -70.0152}, "countryCode": "AW"}, "averageDailyFlights": 0.29, "operators": [{"name": "Sky High Aviation", "iata": "DO", "icao": "SHH"}]}, {"destination": {"icao": "SEQM", "iata": "UIO", "name": "Quito Mariscal Sucre", "shortName": "Mariscal Sucre", "municipalityName": "Quito", "location": {"lat": -0.129166, "lon": -78.3575}, "countryCode": "EC"}, "averageDailyFlights": 0.29, "operators": [{"name": "Dominican Wings", "iata": "DW", "icao": "DWI"}]}, {"destination": {"icao": "MUCU", "iata": "SCU", "name": "Santiago Antonio Maceo", "shortName": "Antonio Maceo", "municipalityName": "Santiago", "location": {"lat": 19.9698, "lon": -75.8354}, "countryCode": "CU"}, "averageDailyFlights": 0.29, "operators": [{"name": "Sky High Aviation", "iata": "DO", "icao": "SHH"}]}, {"destination": {"icao": "SKCL", "iata": "CLO", "name": "Santiago de Cali Alfonso Bonilla Aragon", "shortName": "Alfonso Bonilla Aragon", "municipalityName": "Santiago de Cali", "location": {"lat": 3.54322, "lon": -76.3816}, "countryCode": "CO"}, "averageDailyFlights": 0.29, "operators": [{"name": "Dominican Wings", "iata": "DW", "icao": "DWI"}]}, {"destination": {"icao": "TAPA", "iata": "ANU", "name": "St. George V.C. Bird", "shortName": "V.C. Bird", "municipalityName": "St. George", "location": {"lat": 17.1367, "lon": -61.7927}, "countryCode": "AG"}, "averageDailyFlights": 0.29, "operators": [{"name": "Sky High Aviation", "iata": "DO", "icao": "SHH"}]}, {"destination": {"name": "Lima"}, "averageDailyFlights": 0.29, "operators": [{"name": "Dominican Wings", "iata": "DW", "icao": "DWI"}]}, {"destination": {"icao": "SYCJ", "iata": "GEO", "name": "Georgetown Cheddi Jagan", "shortName": "Cheddi Jagan", "municipalityName": "Georgetown", "location": {"lat": 6.498549, "lon": -58.2541}, "countryCode": "GY"}, "averageDailyFlights": 0.14, "operators": [{"name": "LATAM Ecuador", "iata": "XL", "icao": "LNE"}]}, {"destination": {"icao": "MYNN", "iata": "NAS", "name": "Nassau Lynden Pindling", "shortName": "Lynden Pindling", "municipalityName": "Nassau", "location": {"lat": 25.039, "lon": -77.4662}, "countryCode": "BS"}, "averageDailyFlights": 0.14, "operators": [{"name": "Nordwind Airlines", "iata": "N4", "icao": "NWS"}]}, {"destination": {"name": "Medellin"}, "averageDailyFlights": 0.14, "operators": [{"name": "Copa Airlines Colombia", "iata": "P5", "icao": "RPB"}]}]}