{"routes": [{"destination": {"icao": "RCQC", "iata": "MZG", "name": "Makung City Makung", "shortName": "Makung", "municipalityName": "Makung City", "location": {"lat": 23.5687, "lon": 119.628}, "countryCode": "TW"}, "averageDailyFlights": 12.86, "operators": [{"name": "Mandarin Airlines", "iata": "AE", "icao": "MDA"}, {"name": "UNI Air", "iata": "B7", "icao": "UIA"}]}, {"destination": {"icao": "RCBS", "iata": "KNH", "name": "Shang-I Kinmen", "shortName": "Kinmen", "municipalityName": "Shang-I", "location": {"lat": 24.4279, "lon": 118.359}, "countryCode": "TW"}, "averageDailyFlights": 10.57, "operators": [{"name": "Mandarin Airlines", "iata": "AE", "icao": "MDA"}, {"name": "UNI Air", "iata": "B7", "icao": "UIA"}]}, {"destination": {"icao": "RCFG", "iata": "LZN", "name": "Nangang Island Matsu Nangan", "shortName": "Matsu Nangan", "municipalityName": "Nangang Island", "location": {"lat": 26.1598, "lon": 119.958}, "countryCode": "TW"}, "averageDailyFlights": 3.43, "operators": [{"name": "UNI Air", "iata": "B7", "icao": "UIA"}]}, {"destination": {"icao": "VVTS", "iata": "SGN", "name": "Ho Chi Minh City Tan Son Nhat", "shortName": "Tan Son Nhat", "municipalityName": "Ho Chi Minh City", "location": {"lat": 10.818799, "lon": 106.652}, "countryCode": "VN"}, "averageDailyFlights": 2.14, "operators": [{"name": "Mandarin Airlines", "iata": "AE", "icao": "MDA"}, {"name": "VietJetAir", "iata": "VJ", "icao": "VJC"}]}, {"destination": {"name": "Hong Kong"}, "averageDailyFlights": 2.14, "operators": [{"name": "Mandarin Airlines", "iata": "AE", "icao": "MDA"}, {"name": "Hong Kong Express", "iata": "UO", "icao": "HKE"}]}, {"destination": {"icao": "VVNB", "iata": "HAN", "name": "Hanoi Noi Bai", "shortName": "Noi Bai", "municipalityName": "Hanoi", "location": {"lat": 21.2212, "lon": 105.807}, "countryCode": "VN"}, "averageDailyFlights": 1.0, "operators": [{"name": "VietJetAir", "iata": "VJ", "icao": "VJC"}]}, {"destination": {"icao": "RCYU", "iata": "HUN", "name": "Hualien City Hualien", "shortName": "Hualien", "municipalityName": "Hualien City", "location": {"lat": 24.0231, "lon": 121.618}, "countryCode": "TW"}, "averageDailyFlights": 0.57, "operators": [{"name": "Mandarin Airlines", "iata": "AE", "icao": "MDA"}]}, {"destination": {"icao": "ROAH", "iata": "OKA", "name": "Naha ", "shortName": "Naha", "municipalityName": "Naha", "location": {"lat": 26.1958, "lon": 127.646}, "countryCode": "JP"}, "averageDailyFlights": 0.43, "operators": [{"name": "China Airlines", "iata": "CI", "icao": "CAL"}]}, {"destination": {"icao": "VMMC", "iata": "MFM", "name": "Taipa Macau", "shortName": "Macau", "municipalityName": "Taipa", "location": {"lat": 22.1496, "lon": 113.592}, "countryCode": "MO"}, "averageDailyFlights": 0.43, "operators": [{"name": "Tigerair Taiwan", "iata": "IT", "icao": "TTW"}]}]}