{"routes": [{"destination": {"icao": "VTBS", "iata": "BKK", "name": "Bangkok Suvarnabhumi", "shortName": "Suvarnabhumi", "municipalityName": "Bangkok", "location": {"lat": 13.681099, "lon": 100.747}, "countryCode": "TH"}, "averageDailyFlights": 14.86, "operators": [{"name": "China Airlines", "iata": "CI", "icao": "CAL"}, {"name": "EVA Air", "iata": "BR", "icao": "EVA"}, {"name": "Starlux Airlines", "iata": "JX", "icao": "SJX"}, {"name": "Thai Airways International", "iata": "TG", "icao": "THA"}, {"name": "Thai Vietjet Air", "iata": "VZ", "icao": "TVJ"}]}, {"destination": {"icao": "RJAA", "iata": "NRT", "name": "Tokyo Narita", "shortName": "Narita", "municipalityName": "Tokyo", "location": {"lat": 35.7647, "lon": 140.386}, "countryCode": "JP"}, "averageDailyFlights": 14.46, "operators": [{"name": "Peach Aviation", "iata": "MM", "icao": "APJ"}, {"name": "Jetstar Japan", "iata": "GK", "icao": "JJP"}, {"name": "Tigerair Taiwan", "iata": "IT", "icao": "TTW"}, {"name": "Tibet Airlines", "iata": "TV", "icao": "TBA"}, {"name": "EVA Air", "iata": "BR", "icao": "EVA"}, {"name": "Starlux Airlines", "iata": "JX", "icao": "SJX"}, {"name": "JAL", "iata": "JL", "icao": "JAL"}, {"name": "Cathay Pacific", "iata": "CX", "icao": "CPA"}, {"name": "China Airlines", "iata": "CI", "icao": "CAL"}]}, {"destination": {"icao": "RKSI", "iata": "ICN", "name": "Seoul Incheon", "shortName": "Incheon", "municipalityName": "Seoul", "location": {"lat": 37.4691, "lon": 126.451}, "countryCode": "KR"}, "averageDailyFlights": 14.22, "operators": [{"name": "Cathay Pacific", "iata": "CX", "icao": "CPA"}, {"name": "EVA Air", "iata": "BR", "icao": "EVA"}, {"name": "China Airlines", "iata": "CI", "icao": "CAL"}, {"name": "Jin Air", "iata": "LJ", "icao": "JNA"}, {"name": "Jeju Air", "iata": "7C", "icao": "JJA"}, {"name": "Korean Air", "iata": "KE", "icao": "KAL"}, {"name": "Asiana Airlines", "iata": "OZ", "icao": "AAR"}, {"name": "Tibet Airlines", "iata": "TV", "icao": "TBA"}, {"name": "Tigerair Taiwan", "iata": "IT", "icao": "TTW"}, {"name": "KLM", "iata": "KL", "icao": "KLM"}]}, {"destination": {"icao": "RJBB", "iata": "KIX", "name": "Osaka Kansai", "shortName": "Kansai", "municipalityName": "Osaka", "location": {"lat": 34.4273, "lon": 135.244}, "countryCode": "JP"}, "averageDailyFlights": 14.0, "operators": [{"name": "Tigerair Taiwan", "iata": "IT", "icao": "TTW"}, {"name": "EVA Air", "iata": "BR", "icao": "EVA"}, {"name": "Malindo Air", "iata": "OD", "icao": "MXD"}, {"name": "China Airlines", "iata": "CI", "icao": "CAL"}, {"name": "JAL", "iata": "JL", "icao": "JAL"}, {"name": "Starlux Airlines", "iata": "JX", "icao": "SJX"}, {"name": "Cathay Pacific", "iata": "CX", "icao": "CPA"}, {"name": "Peach Aviation", "iata": "MM", "icao": "APJ"}]}, {"destination": {"icao": "RPLL", "iata": "MNL", "name": "Manila Ninoy Aquino", "shortName": "Ninoy Aquino", "municipalityName": "Manila", "location": {"lat": 14.5086, "lon": 121.02}, "countryCode": "PH"}, "averageDailyFlights": 11.76, "operators": [{"name": "Cebu Pacific Air", "iata": "5J", "icao": "CEB"}, {"name": "Philippines AirAsia", "iata": "Z2", "icao": "APG"}, {"name": "China Airlines", "iata": "CI", "icao": "CAL"}, {"name": "EVA Air", "iata": "BR", "icao": "EVA"}, {"name": "Starlux Airlines", "iata": "JX", "icao": "SJX"}, {"name": "KLM", "iata": "KL", "icao": "KLM"}, {"name": "Philippine Airlines", "iata": "PR", "icao": "PAL"}]}, {"destination": {"icao": "WSSS", "iata": "SIN", "name": "Singapore Changi", "shortName": "Changi", "municipalityName": "Singapore", "location": {"lat": 1.35019, "lon": 103.994}, "countryCode": "SG"}, "averageDailyFlights": 11.43, "operators": [{"name": "Tibet Airlines", "iata": "TV", "icao": "TBA"}, {"name": "EVA Air", "iata": "BR", "icao": "EVA"}, {"name": "China Airlines", "iata": "CI", "icao": "CAL"}, {"name": "Starlux Airlines", "iata": "JX", "icao": "SJX"}, {"name": "Singapore Airlines", "iata": "SQ", "icao": "SIA"}]}, {"destination": {"icao": "VVNB", "iata": "HAN", "name": "Hanoi Noi Bai", "shortName": "Noi Bai", "municipalityName": "Hanoi", "location": {"lat": 21.2212, "lon": 105.807}, "countryCode": "VN"}, "averageDailyFlights": 9.43, "operators": [{"name": "Vietnam Airlines", "iata": "VN", "icao": "HVN"}, {"name": "China Airlines", "iata": "CI", "icao": "CAL"}, {"name": "Starlux Airlines", "iata": "JX", "icao": "SJX"}, {"name": "EVA Air", "iata": "BR", "icao": "EVA"}, {"name": "VietJetAir", "iata": "VJ", "icao": "VJC"}, {"name": "Bamboo Airways", "iata": "QH", "icao": "BAV"}]}, {"destination": {"icao": "VVTS", "iata": "SGN", "name": "Ho Chi Minh City Tan Son Nhat", "shortName": "Tan Son Nhat", "municipalityName": "Ho Chi Minh City", "location": {"lat": 10.818799, "lon": 106.652}, "countryCode": "VN"}, "averageDailyFlights": 9.43, "operators": [{"name": "EVA Air", "iata": "BR", "icao": "EVA"}, {"name": "VietJetAir", "iata": "VJ", "icao": "VJC"}, {"name": "Starlux Airlines", "iata": "JX", "icao": "SJX"}, {"name": "Vietnam Airlines", "iata": "VN", "icao": "HVN"}, {"name": "China Airlines", "iata": "CI", "icao": "CAL"}]}, {"destination": {"icao": "ZSPD", "iata": "PVG", "name": "Shanghai Pudong", "shortName": "Pudong", "municipalityName": "Shanghai", "location": {"lat": 31.1434, "lon": 121.805}, "countryCode": "CN"}, "averageDailyFlights": 8.9, "operators": [{"name": "China Airlines", "iata": "CI", "icao": "CAL"}, {"name": "Spring Airlines", "iata": "9C", "icao": "CQH"}, {"name": "Juneyao Airlines", "iata": "HO", "icao": "DKH"}, {"name": "Air China", "iata": "CA", "icao": "CCA"}, {"name": "China Eastern Airlines", "iata": "MU", "icao": "CES"}, {"name": "China Southern Airlines", "iata": "CZ", "icao": "CSN"}, {"name": "EVA Air", "iata": "BR", "icao": "EVA"}]}, {"destination": {"icao": "VMMC", "iata": "MFM", "name": "Taipa Macau", "shortName": "Macau", "municipalityName": "Taipa", "location": {"lat": 22.1496, "lon": 113.592}, "countryCode": "MO"}, "averageDailyFlights": 8.0, "operators": [{"name": "Starlux Airlines", "iata": "JX", "icao": "SJX"}, {"name": "EVA Air", "iata": "BR", "icao": "EVA"}, {"name": "Air Macau", "iata": "NX", "icao": "AMU"}, {"name": "Tigerair Taiwan", "iata": "IT", "icao": "TTW"}]}, {"destination": {"icao": "VHHH", "iata": "HKG", "name": "Hong Kong Chek Lap Kok", "shortName": "Chek Lap Kok", "municipalityName": "Hong Kong", "location": {"lat": 22.3089, "lon": 113.915}, "countryCode": "HK"}, "averageDailyFlights": 7.79, "operators": [{"name": "Hong Kong Airlines", "iata": "HX", "icao": "CRK"}, {"name": "Hong Kong Express", "iata": "UO", "icao": "HKE"}, {"name": "China Airlines", "iata": "CI", "icao": "CAL"}, {"name": "EVA Air", "iata": "BR", "icao": "EVA"}, {"name": "Cathay Pacific", "iata": "CX", "icao": "CPA"}]}, {"destination": {"icao": "WMKK", "iata": "KUL", "name": "Kuala Lumpur ", "shortName": "Kuala Lumpur", "municipalityName": "Kuala Lumpur", "location": {"lat": 2.745579, "lon": 101.71}, "countryCode": "MY"}, "averageDailyFlights": 7.57, "operators": [{"name": "EVA Air", "iata": "BR", "icao": "EVA"}, {"name": "China Airlines", "iata": "CI", "icao": "CAL"}, {"name": "Starlux Airlines", "iata": "JX", "icao": "SJX"}, {"name": "Malindo Air", "iata": "OD", "icao": "MXD"}, {"name": "AirAsia X", "iata": "D7", "icao": "XAX"}, {"name": "Malaysia Airlines", "iata": "MH", "icao": "MAS"}]}, {"destination": {"icao": "RJFF", "iata": "FUK", "name": "Fukuoka ", "shortName": "Fukuoka", "municipalityName": "Fukuoka", "location": {"lat": 33.5859, "lon": 130.451}, "countryCode": "JP"}, "averageDailyFlights": 7.29, "operators": [{"name": "China Airlines", "iata": "CI", "icao": "CAL"}, {"name": "Tigerair Taiwan", "iata": "IT", "icao": "TTW"}, {"name": "Starlux Airlines", "iata": "JX", "icao": "SJX"}, {"name": "EVA Air", "iata": "BR", "icao": "EVA"}]}, {"destination": {"icao": "ROAH", "iata": "OKA", "name": "Naha ", "shortName": "Naha", "municipalityName": "Naha", "location": {"lat": 26.1958, "lon": 127.646}, "countryCode": "JP"}, "averageDailyFlights": 7.29, "operators": [{"name": "EVA Air", "iata": "BR", "icao": "EVA"}, {"name": "Tigerair Taiwan", "iata": "IT", "icao": "TTW"}, {"name": "China Airlines", "iata": "CI", "icao": "CAL"}, {"name": "Starlux Airlines", "iata": "JX", "icao": "SJX"}, {"name": "Peach Aviation", "iata": "MM", "icao": "APJ"}]}, {"destination": {"icao": "VVDN", "iata": "DAD", "name": "Da Nang ", "shortName": "Da Nang", "municipalityName": "Da Nang", "location": {"lat": 16.0439, "lon": 108.199}, "countryCode": "VN"}, "averageDailyFlights": 6.0, "operators": [{"name": "Starlux Airlines", "iata": "JX", "icao": "SJX"}, {"name": "EVA Air", "iata": "BR", "icao": "EVA"}, {"name": "China Airlines", "iata": "CI", "icao": "CAL"}, {"name": "Tigerair Taiwan", "iata": "IT", "icao": "TTW"}]}, {"destination": {"icao": "KLAX", "iata": "LAX", "name": "Los Angeles ", "shortName": "Los Angeles", "municipalityName": "Los Angeles", "location": {"lat": 33.9425, "lon": -118.408}, "countryCode": "US"}, "averageDailyFlights": 6.0, "operators": [{"name": "EVA Air", "iata": "BR", "icao": "EVA"}, {"name": "China Airlines", "iata": "CI", "icao": "CAL"}, {"name": "Starlux Airlines", "iata": "JX", "icao": "SJX"}]}, {"destination": {"icao": "KSFO", "iata": "SFO", "name": "San Francisco ", "shortName": "San Francisco", "municipalityName": "San Francisco", "location": {"lat": 37.619, "lon": -122.375}, "countryCode": "US"}, "averageDailyFlights": 6.0, "operators": [{"name": "EVA Air", "iata": "BR", "icao": "EVA"}, {"name": "United Airlines", "iata": "UA", "icao": "UAL"}, {"name": "China Airlines", "iata": "CI", "icao": "CAL"}]}, {"destination": {"icao": "RJCC", "iata": "CTS", "name": "Chitose / Tomakomai New Chitose", "shortName": "New Chitose", "municipalityName": "Chitose / Tomakomai", "location": {"lat": 42.7752, "lon": 141.692}, "countryCode": "JP"}, "averageDailyFlights": 5.71, "operators": [{"name": "Tigerair Taiwan", "iata": "IT", "icao": "TTW"}, {"name": "China Airlines", "iata": "CI", "icao": "CAL"}, {"name": "EVA Air", "iata": "BR", "icao": "EVA"}, {"name": "Starlux Airlines", "iata": "JX", "icao": "SJX"}, {"name": "Malindo Air", "iata": "OD", "icao": "MXD"}, {"name": "Tibet Airlines", "iata": "TV", "icao": "TBA"}]}, {"destination": {"icao": "RJGG", "iata": "NGO", "name": "Tokoname Chubu Centrair", "shortName": "Chubu Centrair", "municipalityName": "Tokoname", "location": {"lat": 34.8584, "lon": 136.805}, "countryCode": "JP"}, "averageDailyFlights": 5.14, "operators": [{"name": "Peach Aviation", "iata": "MM", "icao": "APJ"}, {"name": "Tigerair Taiwan", "iata": "IT", "icao": "TTW"}, {"name": "Cathay Pacific", "iata": "CX", "icao": "CPA"}, {"name": "China Airlines", "iata": "CI", "icao": "CAL"}, {"name": "StarFlyer", "iata": "7G", "icao": "SFJ"}, {"name": "Malindo Air", "iata": "OD", "icao": "MXD"}]}, {"destination": {"icao": "RPVM", "iata": "CEB", "name": "Lapu-Lapu City Mactan Cebu", "shortName": "Mactan Cebu", "municipalityName": "Lapu-Lapu City", "location": {"lat": 10.307499, "lon": 123.979}, "countryCode": "PH"}, "averageDailyFlights": 4.71, "operators": [{"name": "EVA Air", "iata": "BR", "icao": "EVA"}, {"name": "Starlux Airlines", "iata": "JX", "icao": "SJX"}, {"name": "Cebu Pacific Air", "iata": "5J", "icao": "CEB"}, {"name": "China Airlines", "iata": "CI", "icao": "CAL"}, {"name": "Philippines AirAsia", "iata": "Z2", "icao": "APG"}]}, {"destination": {"icao": "RKPK", "iata": "PUS", "name": "Busan-si Gimhae", "shortName": "Gimhae", "municipalityName": "Busan-si", "location": {"lat": 35.1795, "lon": 128.938}, "countryCode": "KR"}, "averageDailyFlights": 4.57, "operators": [{"name": "China Airlines", "iata": "CI", "icao": "CAL"}, {"name": "Korean Air", "iata": "KE", "icao": "KAL"}, {"name": "Air Busan", "iata": "BX", "icao": "ABL"}, {"name": "Tigerair Taiwan", "iata": "IT", "icao": "TTW"}]}, {"destination": {"icao": "VTBD", "iata": "DMK", "name": "Bangkok Don Mueang", "shortName": "Don Mueang", "municipalityName": "Bangkok", "location": {"lat": 13.912599, "lon": 100.607}, "countryCode": "TH"}, "averageDailyFlights": 4.0, "operators": [{"name": "Thai Lion Air", "iata": "SL", "icao": "TLM"}, {"name": "Thai AirAsia", "iata": "FD", "icao": "AIQ"}, {"name": "Tigerair Taiwan", "iata": "IT", "icao": "TTW"}]}, {"destination": {"icao": "ZBAA", "iata": "PEK", "name": "Beijing Capital", "shortName": "Capital", "municipalityName": "Beijing", "location": {"lat": 40.0801, "lon": 116.585}, "countryCode": "CN"}, "averageDailyFlights": 3.86, "operators": [{"name": "China Airlines", "iata": "CI", "icao": "CAL"}, {"name": "Air China", "iata": "CA", "icao": "CCA"}, {"name": "Hainan Airlines", "iata": "HU", "icao": "CHH"}, {"name": "EVA Air", "iata": "BR", "icao": "EVA"}]}, {"destination": {"icao": "ZGSZ", "iata": "SZX", "name": "Shenzhen Bao'an", "shortName": "Bao'an", "municipalityName": "Shenzhen", "location": {"lat": 22.6393, "lon": 113.811}, "countryCode": "CN"}, "averageDailyFlights": 3.43, "operators": [{"name": "China Southern Airlines", "iata": "CZ", "icao": "CSN"}, {"name": "China Airlines", "iata": "CI", "icao": "CAL"}, {"name": "Shenzhen Airlines", "iata": "ZH", "icao": "CSZ"}, {"name": "UNI Air", "iata": "B7", "icao": "UIA"}]}, {"destination": {"icao": "VTCC", "iata": "CNX", "name": "Chiangmai Chiang Mai", "shortName": "Chiang Mai", "municipalityName": "Chiangmai", "location": {"lat": 18.7668, "lon": 98.9626}, "countryCode": "TH"}, "averageDailyFlights": 3.0, "operators": [{"name": "EVA Air", "iata": "BR", "icao": "EVA"}, {"name": "China Airlines", "iata": "CI", "icao": "CAL"}, {"name": "Thai AirAsia", "iata": "FD", "icao": "AIQ"}]}, {"destination": {"icao": "ZGGG", "iata": "CAN", "name": "Guangzhou Baiyun", "shortName": "Baiyun", "municipalityName": "Guangzhou", "location": {"lat": 23.3924, "lon": 113.299}, "countryCode": "CN"}, "averageDailyFlights": 3.0, "operators": [{"name": "EVA Air", "iata": "BR", "icao": "EVA"}, {"name": "China Airlines", "iata": "CI", "icao": "CAL"}, {"name": "China Southern Airlines", "iata": "CZ", "icao": "CSN"}, {"name": "Hainan Airlines", "iata": "HU", "icao": "CHH"}]}, {"destination": {"icao": "RJSS", "iata": "SDJ", "name": "Sendai ", "shortName": "Sendai", "municipalityName": "Sendai", "location": {"lat": 38.1397, "lon": 140.917}, "countryCode": "JP"}, "averageDailyFlights": 2.71, "operators": [{"name": "EVA Air", "iata": "BR", "icao": "EVA"}, {"name": "Starlux Airlines", "iata": "JX", "icao": "SJX"}, {"name": "Tigerair Taiwan", "iata": "IT", "icao": "TTW"}]}, {"destination": {"icao": "WIII", "iata": "CGK", "name": "Jakarta Soekarno-Hatta", "shortName": "Soekarno-Hatta", "municipalityName": "Jakarta", "location": {"lat": -6.125569, "lon": 106.656}, "countryCode": "ID"}, "averageDailyFlights": 2.57, "operators": [{"name": "EVA Air", "iata": "BR", "icao": "EVA"}, {"name": "China Airlines", "iata": "CI", "icao": "CAL"}]}, {"destination": {"icao": "RKTN", "iata": "TAE", "name": "Daegu-si Daegu", "shortName": "Daegu", "municipalityName": "Daegu-si", "location": {"lat": 35.8941, "lon": 128.659}, "countryCode": "KR"}, "averageDailyFlights": 2.52, "operators": [{"name": "Jin Air", "iata": "LJ", "icao": "JNA"}, {"name": "T'Way Air", "iata": "TW", "icao": "TWB"}, {"name": "Tigerair Taiwan", "iata": "IT", "icao": "TTW"}, {"name": "Jeju Air", "iata": "7C", "icao": "JJA"}]}, {"destination": {"icao": "WADD", "iata": "DPS", "name": "Denpasar-Bali Island Ngurah Rai (Bali)", "shortName": "Ngurah Rai (Bali)", "municipalityName": "Denpasar-Bali Island", "location": {"lat": -8.748169, "lon": 115.167}, "countryCode": "ID"}, "averageDailyFlights": 2.29, "operators": [{"name": "China Airlines", "iata": "CI", "icao": "CAL"}, {"name": "EVA Air", "iata": "BR", "icao": "EVA"}]}, {"destination": {"icao": "CYVR", "iata": "YVR", "name": "Vancouver ", "shortName": "Vancouver", "municipalityName": "Vancouver", "location": {"lat": 49.1939, "lon": -123.184}, "countryCode": "CA"}, "averageDailyFlights": 2.29, "operators": [{"name": "EVA Air", "iata": "BR", "icao": "EVA"}, {"name": "China Airlines", "iata": "CI", "icao": "CAL"}]}, {"destination": {"icao": "ZSAM", "iata": "XMN", "name": "Xiamen Gaoqi", "shortName": "Gaoqi", "municipalityName": "Xiamen", "location": {"lat": 24.544, "lon": 118.128}, "countryCode": "CN"}, "averageDailyFlights": 2.14, "operators": [{"name": "Mandarin Airlines", "iata": "AE", "icao": "MDA"}, {"name": "Xiamen Airlines", "iata": "MF", "icao": "CXA"}]}, {"destination": {"icao": "VDPP", "iata": "PNH", "name": "Phnom Penh ", "shortName": "Phnom Penh", "municipalityName": "Phnom Penh", "location": {"lat": 11.5466, "lon": 104.844}, "countryCode": "KH"}, "averageDailyFlights": 2.0, "operators": [{"name": "China Airlines", "iata": "CI", "icao": "CAL"}, {"name": "EVA Air", "iata": "BR", "icao": "EVA"}]}, {"destination": {"icao": "RPLC", "iata": "CRK", "name": "Angeles City Clark", "shortName": "Clark", "municipalityName": "Angeles City", "location": {"lat": 15.185999, "lon": 120.56}, "countryCode": "PH"}, "averageDailyFlights": 1.86, "operators": [{"name": "Cebu Pacific Air", "iata": "5J", "icao": "CEB"}, {"name": "EVA Air", "iata": "BR", "icao": "EVA"}]}, {"destination": {"icao": "ZSHC", "iata": "HGH", "name": "Hangzhou Xiaoshan", "shortName": "Xiaoshan", "municipalityName": "Hangzhou", "location": {"lat": 30.2295, "lon": 120.434}, "countryCode": "CN"}, "averageDailyFlights": 1.86, "operators": [{"name": "EVA Air", "iata": "BR", "icao": "EVA"}, {"name": "Air China", "iata": "CA", "icao": "CCA"}, {"name": "Xiamen Airlines", "iata": "MF", "icao": "CXA"}]}, {"destination": {"icao": "KJFK", "iata": "JFK", "name": "New York John F Kennedy", "shortName": "John F Kennedy", "municipalityName": "New York", "location": {"lat": 40.6398, "lon": -73.7789}, "countryCode": "US"}, "averageDailyFlights": 1.71, "operators": [{"name": "EVA Air", "iata": "BR", "icao": "EVA"}, {"name": "China Airlines", "iata": "CI", "icao": "CAL"}]}, {"destination": {"icao": "WBKK", "iata": "BKI", "name": "Kota Kinabalu ", "shortName": "Kota Kinabalu", "municipalityName": "Kota Kinabalu", "location": {"lat": 5.93721, "lon": 116.051}, "countryCode": "MY"}, "averageDailyFlights": 1.57, "operators": [{"name": "AirAsia", "iata": "AK", "icao": "AXM"}, {"name": "Malaysia Airlines", "iata": "MH", "icao": "MAS"}]}, {"destination": {"icao": "RKPC", "iata": "CJU", "name": "Jeju City Jeju", "shortName": "Jeju", "municipalityName": "Jeju City", "location": {"lat": 33.5113, "lon": 126.493}, "countryCode": "KR"}, "averageDailyFlights": 1.43, "operators": [{"name": "Tigerair Taiwan", "iata": "IT", "icao": "TTW"}, {"name": "T'Way Air", "iata": "TW", "icao": "TWB"}]}, {"destination": {"icao": "RJNK", "iata": "KMQ", "name": "Kanazawa Komatsu", "shortName": "Komatsu", "municipalityName": "Kanazawa", "location": {"lat": 36.3946, "lon": 136.407}, "countryCode": "JP"}, "averageDailyFlights": 1.43, "operators": [{"name": "EVA Air", "iata": "BR", "icao": "EVA"}, {"name": "Tigerair Taiwan", "iata": "IT", "icao": "TTW"}]}, {"destination": {"icao": "WMKP", "iata": "PEN", "name": "Penang ", "shortName": "Penang", "municipalityName": "Penang", "location": {"lat": 5.29714, "lon": 100.277}, "countryCode": "MY"}, "averageDailyFlights": 1.3, "operators": [{"name": "Starlux Airlines", "iata": "JX", "icao": "SJX"}, {"name": "China Airlines", "iata": "CI", "icao": "CAL"}]}, {"destination": {"icao": "YBBN", "iata": "BNE", "name": "Brisbane City Brisbane", "shortName": "Brisbane", "municipalityName": "Brisbane City", "location": {"lat": -27.3842, "lon": 153.117}, "countryCode": "AU"}, "averageDailyFlights": 1.29, "operators": [{"name": "China Airlines", "iata": "CI", "icao": "CAL"}, {"name": "EVA Air", "iata": "BR", "icao": "EVA"}]}, {"destination": {"icao": "ZSNJ", "iata": "NKG", "name": "Nanjing Lukou", "shortName": "Lukou", "municipalityName": "Nanjing", "location": {"lat": 31.742, "lon": 118.862}, "countryCode": "CN"}, "averageDailyFlights": 1.29, "operators": [{"name": "China Eastern Airlines", "iata": "MU", "icao": "CES"}]}, {"destination": {"icao": "LOWW", "iata": "VIE", "name": "Vienna Schwechat", "shortName": "Schwechat", "municipalityName": "Vienna", "location": {"lat": 48.1103, "lon": 16.5697}, "countryCode": "AT"}, "averageDailyFlights": 1.29, "operators": [{"name": "EVA Air", "iata": "BR", "icao": "EVA"}, {"name": "China Airlines", "iata": "CI", "icao": "CAL"}]}, {"destination": {"icao": "KORD", "iata": "ORD", "name": "Chicago O'Hare", "shortName": "O'Hare", "municipalityName": "Chicago", "location": {"lat": 41.9786, "lon": -87.9048}, "countryCode": "US"}, "averageDailyFlights": 1.14, "operators": [{"name": "EVA Air", "iata": "BR", "icao": "EVA"}]}, {"destination": {"icao": "OMDB", "iata": "DXB", "name": "Dubai ", "shortName": "Dubai", "municipalityName": "Dubai", "location": {"lat": 25.252798, "lon": 55.3644}, "countryCode": "AE"}, "averageDailyFlights": 1.14, "operators": [{"name": "Emirates", "iata": "EK", "icao": "UAE"}]}, {"destination": {"icao": "KIAH", "iata": "IAH", "name": "Houston George Bush", "shortName": "George Bush", "municipalityName": "Houston", "location": {"lat": 29.9844, "lon": -95.3414}, "countryCode": "US"}, "averageDailyFlights": 1.14, "operators": [{"name": "EVA Air", "iata": "BR", "icao": "EVA"}]}, {"destination": {"icao": "LTFM", "iata": "IST", "name": "Istanbul ", "shortName": "Istanbul", "municipalityName": "Istanbul", "location": {"lat": 41.275276, "lon": 28.751944}, "countryCode": "TR"}, "averageDailyFlights": 1.14, "operators": [{"name": "Turkish Airlines", "iata": "TK", "icao": "THY"}]}, {"destination": {"icao": "RJFR", "iata": "KKJ", "name": "Kitaky\u016bsh\u016b ", "shortName": "Kitaky\u016bsh\u016b", "municipalityName": "Kitaky\u016bsh\u016b", "location": {"lat": 33.8459, "lon": 131.035}, "countryCode": "JP"}, "averageDailyFlights": 1.14, "operators": [{"name": "StarFlyer", "iata": "7G", "icao": "SFJ"}]}, {"destination": {"icao": "RJOB", "iata": "OKJ", "name": "Okayama City Okayama", "shortName": "Okayama", "municipalityName": "Okayama City", "location": {"lat": 34.7569, "lon": 133.855}, "countryCode": "JP"}, "averageDailyFlights": 1.14, "operators": [{"name": "Tigerair Taiwan", "iata": "IT", "icao": "TTW"}]}, {"destination": {"icao": "KONT", "iata": "ONT", "name": "Ontario ", "shortName": "Ontario", "municipalityName": "Ontario", "location": {"lat": 34.056, "lon": -117.601}, "countryCode": "US"}, "averageDailyFlights": 1.14, "operators": [{"name": "China Airlines", "iata": "CI", "icao": "CAL"}]}, {"destination": {"icao": "LFPG", "iata": "CDG", "name": "Paris Charles de Gaulle", "shortName": "Charles de Gaulle", "municipalityName": "Paris", "location": {"lat": 49.0128, "lon": 2.549999}, "countryCode": "FR"}, "averageDailyFlights": 1.14, "operators": [{"name": "EVA Air", "iata": "BR", "icao": "EVA"}]}, {"destination": {"icao": "KSEA", "iata": "SEA", "name": "Seattle Tacoma", "shortName": "Tacoma", "municipalityName": "Seattle", "location": {"lat": 47.449, "lon": -122.309}, "countryCode": "US"}, "averageDailyFlights": 1.14, "operators": [{"name": "EVA Air", "iata": "BR", "icao": "EVA"}]}, {"destination": {"icao": "RKNY", "iata": "YNY", "name": "Sokcho / Gangneung Yangyang", "shortName": "Yangyang", "municipalityName": "Sokcho / Gangneung", "location": {"lat": 38.0613, "lon": 128.669}, "countryCode": "KR"}, "averageDailyFlights": 1.14, "operators": [{"name": "Fly Gangwon", "iata": "4V", "icao": "FGW"}]}, {"destination": {"icao": "CYYZ", "iata": "YYZ", "name": "Toronto Pearson", "shortName": "Pearson", "municipalityName": "Toronto", "location": {"lat": 43.6772, "lon": -79.6306}, "countryCode": "CA"}, "averageDailyFlights": 1.14, "operators": [{"name": "EVA Air", "iata": "BR", "icao": "EVA"}]}, {"destination": {"icao": "EGLL", "iata": "LHR", "name": "London Heathrow", "shortName": "Heathrow", "municipalityName": "London", "location": {"lat": 51.4706, "lon": -0.461941}, "countryCode": "GB"}, "averageDailyFlights": 1.02, "operators": [{"name": "China Airlines", "iata": "CI", "icao": "CAL"}, {"name": "EVA Air", "iata": "BR", "icao": "EVA"}]}, {"destination": {"name": "Amsterdam"}, "averageDailyFlights": 1.0, "operators": [{"name": "KLM", "iata": "KL", "icao": "KLM"}, {"name": "China Airlines", "iata": "CI", "icao": "CAL"}, {"name": "EVA Air", "iata": "BR", "icao": "EVA"}]}, {"destination": {"icao": "ZUUU", "iata": "CTU", "name": "Chengdu Shuangliu", "shortName": "Shuangliu", "municipalityName": "Chengdu", "location": {"lat": 30.5785, "lon": 103.947}, "countryCode": "CN"}, "averageDailyFlights": 0.93, "operators": [{"name": "EVA Air", "iata": "BR", "icao": "EVA"}, {"name": "China Airlines", "iata": "CI", "icao": "CAL"}, {"name": "Air China", "iata": "CA", "icao": "CCA"}]}, {"destination": {"icao": "ZUCK", "iata": "CKG", "name": "Chongqing Jiangbei", "shortName": "Jiangbei", "municipalityName": "Chongqing", "location": {"lat": 29.7192, "lon": 106.642}, "countryCode": "CN"}, "averageDailyFlights": 0.86, "operators": [{"name": "Air China", "iata": "CA", "icao": "CCA"}]}, {"destination": {"icao": "RJCH", "iata": "HKD", "name": "Hakodate ", "shortName": "Hakodate", "municipalityName": "Hakodate", "location": {"lat": 41.77, "lon": 140.822}, "countryCode": "JP"}, "averageDailyFlights": 0.86, "operators": [{"name": "Tigerair Taiwan", "iata": "IT", "icao": "TTW"}]}, {"destination": {"icao": "RPVE", "iata": "MPH", "name": "Malay Godofredo P. Ramos", "shortName": "Godofredo P. Ramos", "municipalityName": "Malay", "location": {"lat": 11.9245, "lon": 121.954}, "countryCode": "PH"}, "averageDailyFlights": 0.86, "operators": [{"name": "Royal Air Charter", "iata": "RW", "icao": "RYL"}]}, {"destination": {"icao": "ZSQD", "iata": "TAO", "name": "Qingdao Liuting", "shortName": "Liuting", "municipalityName": "Qingdao", "location": {"lat": 36.2661, "lon": 120.374}, "countryCode": "CN"}, "averageDailyFlights": 0.86, "operators": [{"name": "China Eastern Airlines", "iata": "MU", "icao": "CES"}, {"name": "Shandong Airlines", "iata": "SC", "icao": "CDG"}]}, {"destination": {"icao": "RJOT", "iata": "TAK", "name": "Takamatsu ", "shortName": "Takamatsu", "municipalityName": "Takamatsu", "location": {"lat": 34.2142, "lon": 134.016}, "countryCode": "JP"}, "averageDailyFlights": 0.86, "operators": [{"name": "China Airlines", "iata": "CI", "icao": "CAL"}]}, {"destination": {"icao": "EDDM", "iata": "MUC", "name": "Munich ", "shortName": "Munich", "municipalityName": "Munich", "location": {"lat": 48.3538, "lon": 11.7861}, "countryCode": "DE"}, "averageDailyFlights": 0.71, "operators": [{"name": "EVA Air", "iata": "BR", "icao": "EVA"}]}, {"destination": {"icao": "YSSY", "iata": "SYD", "name": "Sydney City Sydney Kingsford Smith", "shortName": "Sydney Kingsford Smith", "municipalityName": "Sydney City", "location": {"lat": -33.9461, "lon": 151.177}, "countryCode": "AU"}, "averageDailyFlights": 0.71, "operators": [{"name": "China Airlines", "iata": "CI", "icao": "CAL"}]}, {"destination": {"icao": "LIMC", "iata": "MXP", "name": "Milan Malpensa", "shortName": "Malpensa", "municipalityName": "Milan", "location": {"lat": 45.6306, "lon": 8.72811}, "countryCode": "IT"}, "averageDailyFlights": 0.6, "operators": [{"name": "EVA Air", "iata": "BR", "icao": "EVA"}, {"name": "Cronos Airlines", "iata": "C8", "icao": "CRA"}]}, {"destination": {"icao": "RJOA", "iata": "HIJ", "name": "Hiroshima ", "shortName": "Hiroshima", "municipalityName": "Hiroshima", "location": {"lat": 34.4361, "lon": 132.919}, "countryCode": "JP"}, "averageDailyFlights": 0.57, "operators": [{"name": "China Airlines", "iata": "CI", "icao": "CAL"}]}, {"destination": {"icao": "YMML", "iata": "MEL", "name": "Melbourne City Melbourne", "shortName": "Melbourne", "municipalityName": "Melbourne City", "location": {"lat": -37.6733, "lon": 144.843}, "countryCode": "AU"}, "averageDailyFlights": 0.57, "operators": [{"name": "China Airlines", "iata": "CI", "icao": "CAL"}]}, {"destination": {"icao": "NZAA", "iata": "AKL", "name": "Auckland ", "shortName": "Auckland", "municipalityName": "Auckland", "location": {"lat": -37.0081, "lon": 174.792}, "countryCode": "NZ"}, "averageDailyFlights": 0.43, "operators": [{"name": "Air New Zealand", "iata": "NZ", "icao": "ANZ"}]}, {"destination": {"icao": "WBSB", "iata": "BWN", "name": "Bandar Seri Begawan Brunei", "shortName": "Brunei", "municipalityName": "Bandar Seri Begawan", "location": {"lat": 4.9442, "lon": 114.928}, "countryCode": "BN"}, "averageDailyFlights": 0.43, "operators": [{"name": "Royal Brunei Airlines", "iata": "BI", "icao": "RBA"}]}, {"destination": {"icao": "PGUM", "iata": "GUM", "name": "Hag\u00e5t\u00f1a, Guam International Airport Antonio B. Won Pat", "shortName": "Antonio B. Won Pat", "municipalityName": "Hag\u00e5t\u00f1a, Guam International Airport", "location": {"lat": 13.4834, "lon": 144.796}, "countryCode": "GU"}, "averageDailyFlights": 0.43, "operators": [{"name": "China Airlines", "iata": "CI", "icao": "CAL"}]}, {"destination": {"icao": "RJSN", "iata": "KIJ", "name": "Niigata ", "shortName": "Niigata", "municipalityName": "Niigata", "location": {"lat": 37.9559, "lon": 139.121}, "countryCode": "JP"}, "averageDailyFlights": 0.43, "operators": [{"name": "Tigerair Taiwan", "iata": "IT", "icao": "TTW"}]}, {"destination": {"icao": "LIRF", "iata": "FCO", "name": "Rome Leonardo da Vinci\u2013Fiumicino", "shortName": "Leonardo da Vinci\u2013Fiumicino", "municipalityName": "Rome", "location": {"lat": 41.8045, "lon": 12.2508}, "countryCode": "IT"}, "averageDailyFlights": 0.43, "operators": [{"name": "China Airlines", "iata": "CI", "icao": "CAL"}]}, {"destination": {"icao": "VYYY", "iata": "RGN", "name": "Yangon ", "shortName": "Yangon", "municipalityName": "Yangon", "location": {"lat": 16.9073, "lon": 96.1332}, "countryCode": "MM"}, "averageDailyFlights": 0.43, "operators": [{"name": "China Airlines", "iata": "CI", "icao": "CAL"}]}, {"destination": {"name": "Frankfurt-am-Main"}, "averageDailyFlights": 0.43, "operators": [{"name": "China Airlines", "iata": "CI", "icao": "CAL"}]}, {"destination": {"icao": "RJEC", "iata": "AKJ", "name": "Asahikawa / Hokkaid\u014d Asahikawa", "shortName": "Asahikawa", "municipalityName": "Asahikawa / Hokkaid\u014d", "location": {"lat": 43.6708, "lon": 142.447}, "countryCode": "JP"}, "averageDailyFlights": 0.29, "operators": [{"name": "Tigerair Taiwan", "iata": "IT", "icao": "TTW"}]}, {"destination": {"icao": "PTRO", "iata": "ROR", "name": "Babelthuap Island Babelthuap", "shortName": "Babelthuap", "municipalityName": "Babelthuap Island", "location": {"lat": 7.36765, "lon": 134.544}, "countryCode": "PW"}, "averageDailyFlights": 0.29, "operators": [{"name": "China Airlines", "iata": "CI", "icao": "CAL"}]}, {"destination": {"icao": "RJFK", "iata": "KOJ", "name": "Kagoshima ", "shortName": "Kagoshima", "municipalityName": "Kagoshima", "location": {"lat": 31.8034, "lon": 130.719}, "countryCode": "JP"}, "averageDailyFlights": 0.29, "operators": [{"name": "China Airlines", "iata": "CI", "icao": "CAL"}]}, {"destination": {"icao": "RPVK", "iata": "KLO", "name": "Kalibo ", "shortName": "Kalibo", "municipalityName": "Kalibo", "location": {"lat": 11.6794, "lon": 122.376}, "countryCode": "PH"}, "averageDailyFlights": 0.29, "operators": [{"name": "Tigerair Taiwan", "iata": "IT", "icao": "TTW"}]}, {"destination": {"icao": "RJNS", "iata": "FSZ", "name": "Makinohara / Shimada Mt. Fuji Shizuoka", "shortName": "Mt. Fuji Shizuoka", "municipalityName": "Makinohara / Shimada", "location": {"lat": 34.796043, "lon": 138.18774}, "countryCode": "JP"}, "averageDailyFlights": 0.29, "operators": [{"name": "China Airlines", "iata": "CI", "icao": "CAL"}]}, {"destination": {"icao": "RJOK", "iata": "KCZ", "name": "Nankoku K\u014dchi Ry\u014dma", "shortName": "K\u014dchi Ry\u014dma", "municipalityName": "Nankoku", "location": {"lat": 33.5461, "lon": 133.669}, "countryCode": "JP"}, "averageDailyFlights": 0.29, "operators": [{"name": "Tigerair Taiwan", "iata": "IT", "icao": "TTW"}]}, {"destination": {"icao": "RJAH", "iata": "IBR", "name": "Omitama Hyakuri", "shortName": "Hyakuri", "municipalityName": "Omitama", "location": {"lat": 36.1811, "lon": 140.415}, "countryCode": "JP"}, "averageDailyFlights": 0.29, "operators": [{"name": "Tigerair Taiwan", "iata": "IT", "icao": "TTW"}]}, {"destination": {"icao": "VTSP", "iata": "HKT", "name": "Phuket ", "shortName": "Phuket", "municipalityName": "Phuket", "location": {"lat": 8.1132, "lon": 98.3169}, "countryCode": "TH"}, "averageDailyFlights": 0.29, "operators": [{"name": "Tigerair Taiwan", "iata": "IT", "icao": "TTW"}]}, {"destination": {"icao": "RJFS", "iata": "HSG", "name": "Saga ", "shortName": "Saga", "municipalityName": "Saga", "location": {"lat": 33.1497, "lon": 130.302}, "countryCode": "JP"}, "averageDailyFlights": 0.29, "operators": [{"name": "Tigerair Taiwan", "iata": "IT", "icao": "TTW"}]}, {"destination": {"icao": "RJNT", "iata": "TOY", "name": "Toyama ", "shortName": "Toyama", "municipalityName": "Toyama", "location": {"lat": 36.6483, "lon": 137.188}, "countryCode": "JP"}, "averageDailyFlights": 0.29, "operators": [{"name": "China Airlines", "iata": "CI", "icao": "CAL"}]}, {"destination": {"icao": "ZSWX", "iata": "WUX", "name": "Wuxi Sunan Shuofang", "shortName": "Sunan Shuofang", "municipalityName": "Wuxi", "location": {"lat": 31.4944, "lon": 120.429}, "countryCode": "CN"}, "averageDailyFlights": 0.29, "operators": [{"name": "China Airlines", "iata": "CI", "icao": "CAL"}]}, {"destination": {"icao": "ZHCC", "iata": "CGO", "name": "Zhengzhou Xinzheng", "shortName": "Xinzheng", "municipalityName": "Zhengzhou", "location": {"lat": 34.5197, "lon": 113.841}, "countryCode": "CN"}, "averageDailyFlights": 0.29, "operators": [{"name": "Mandarin Airlines", "iata": "AE", "icao": "MDA"}]}, {"destination": {"name": "Chiangmay"}, "averageDailyFlights": 0.29, "operators": [{"name": "Thai AirAsia", "iata": "FD", "icao": "AIQ"}]}, {"destination": {"name": "Prague"}, "averageDailyFlights": 0.29, "operators": [{"name": "China Airlines", "iata": "CI", "icao": "CAL"}]}, {"destination": {"name": "Xi'an"}, "averageDailyFlights": 0.29, "operators": [{"name": "China Airlines", "iata": "CI", "icao": "CAL"}]}, {"destination": {"icao": "ZSFZ", "iata": "FOC", "name": "Fuzhou Changle", "shortName": "Changle", "municipalityName": "Fuzhou", "location": {"lat": 25.9351, "lon": 119.663}, "countryCode": "CN"}, "averageDailyFlights": 0.14, "operators": [{"name": "Xiamen Airlines", "iata": "MF", "icao": "CXA"}]}, {"destination": {"icao": "ZSNB", "iata": "NGB", "name": "Ningbo Lishe", "shortName": "Lishe", "municipalityName": "Ningbo", "location": {"lat": 29.8267, "lon": 121.462}, "countryCode": "CN"}, "averageDailyFlights": 0.14, "operators": [{"name": "Mandarin Airlines", "iata": "AE", "icao": "MDA"}]}, {"destination": {"icao": "RPVP", "iata": "PPS", "name": "Puerto Princesa City Puerto Princesa", "shortName": "Puerto Princesa", "municipalityName": "Puerto Princesa City", "location": {"lat": 9.742119, "lon": 118.759}, "countryCode": "PH"}, "averageDailyFlights": 0.14, "operators": [{"name": "Tigerair Taiwan", "iata": "IT", "icao": "TTW"}]}]}