{"routes": [{"destination": {"icao": "RJCK", "iata": "KUH", "name": "Kushiro ", "shortName": "Kushiro", "municipalityName": "Kushiro", "location": {"lat": 43.041, "lon": 144.193}, "countryCode": "JP"}, "averageDailyFlights": 4.0, "operators": [{"name": "JAL", "iata": "JL", "icao": "JAL"}]}, {"destination": {"icao": "RJCM", "iata": "MMB", "name": "\u014czora Memanbetsu", "shortName": "Memanbetsu", "municipalityName": "\u014czora", "location": {"lat": 43.8806, "lon": 144.164}, "countryCode": "JP"}, "averageDailyFlights": 2.86, "operators": [{"name": "JAL", "iata": "JL", "icao": "JAL"}]}, {"destination": {"icao": "RJNA", "iata": "NKM", "name": "Nagoya ", "shortName": "Nagoya", "municipalityName": "Nagoya", "location": {"lat": 35.255, "lon": 136.924}, "countryCode": "JP"}, "averageDailyFlights": 2.29, "operators": [{"name": "Fuji Dream Airlines", "iata": "JH", "icao": "FDA"}]}, {"destination": {"icao": "RJER", "iata": "RIS", "name": "Rishiri ", "shortName": "Rishiri", "municipalityName": "Rishiri", "location": {"lat": 45.242, "lon": 141.186}, "countryCode": "JP"}, "averageDailyFlights": 1.71, "operators": [{"name": "JAL", "iata": "JL", "icao": "JAL"}]}, {"destination": {"icao": "RJNS", "iata": "FSZ", "name": "Makinohara / Shimada Mt. Fuji Shizuoka", "shortName": "Mt. Fuji Shizuoka", "municipalityName": "Makinohara / Shimada", "location": {"lat": 34.796043, "lon": 138.18774}, "countryCode": "JP"}, "averageDailyFlights": 1.14, "operators": [{"name": "Fuji Dream Airlines", "iata": "JH", "icao": "FDA"}]}, {"destination": {"icao": "RJAF", "iata": "MMJ", "name": "Matsumoto ", "shortName": "Matsumoto", "municipalityName": "Matsumoto", "location": {"lat": 36.1668, "lon": 137.923}, "countryCode": "JP"}, "averageDailyFlights": 1.14, "operators": [{"name": "Fuji Dream Airlines", "iata": "JH", "icao": "FDA"}]}, {"destination": {"icao": "RJSM", "iata": "MSJ", "name": "Misawa Air Base", "shortName": "Air Base", "municipalityName": "Misawa", "location": {"lat": 40.7032, "lon": 141.368}, "countryCode": "JP"}, "averageDailyFlights": 0.57, "operators": [{"name": "JAL", "iata": "JL", "icao": "JAL"}]}, {"destination": {"icao": "RJEO", "iata": "OIR", "name": "Okushiri Island Okushiri", "shortName": "Okushiri", "municipalityName": "Okushiri Island", "location": {"lat": 42.0717, "lon": 139.433}, "countryCode": "JP"}, "averageDailyFlights": 0.43, "operators": [{"name": "JAL", "iata": "JL", "icao": "JAL"}]}, {"destination": {"name": "Hakodate"}, "averageDailyFlights": 0.29, "operators": [{"name": "JAL", "iata": "JL", "icao": "JAL"}]}]}