{"routes": [{"destination": {"icao": "RJCC", "iata": "CTS", "name": "Chitose / Tomakomai New Chitose", "shortName": "New Chitose", "municipalityName": "Chitose / Tomakomai", "location": {"lat": 42.7752, "lon": 141.692}, "countryCode": "JP"}, "averageDailyFlights": 15.0, "operators": [{"name": "Skymark Airlines", "iata": "BC", "icao": "SKY"}, {"name": "Peach Aviation", "iata": "MM", "icao": "APJ"}, {"name": "ANA", "iata": "NH", "icao": "ANA"}, {"name": "JAL", "iata": "JL", "icao": "JAL"}, {"name": "Air Do", "iata": "HD", "icao": "ADO"}]}, {"destination": {"icao": "RJFF", "iata": "FUK", "name": "Fukuoka ", "shortName": "Fukuoka", "municipalityName": "Fukuoka", "location": {"lat": 33.5859, "lon": 130.451}, "countryCode": "JP"}, "averageDailyFlights": 14.86, "operators": [{"name": "StarFlyer", "iata": "7G", "icao": "SFJ"}, {"name": "Jetstar Japan", "iata": "GK", "icao": "JJP"}, {"name": "IBEX Airlines", "iata": "FW", "icao": "IBX"}, {"name": "ANA", "iata": "NH", "icao": "ANA"}]}, {"destination": {"icao": "ROAH", "iata": "OKA", "name": "Naha ", "shortName": "Naha", "municipalityName": "Naha", "location": {"lat": 26.1958, "lon": 127.646}, "countryCode": "JP"}, "averageDailyFlights": 14.14, "operators": [{"name": "Skymark Airlines", "iata": "BC", "icao": "SKY"}, {"name": "Peach Aviation", "iata": "MM", "icao": "APJ"}, {"name": "Japan Transocean Air", "iata": "NU", "icao": "JTA"}, {"name": "Jetstar Japan", "iata": "GK", "icao": "JJP"}, {"name": "ANA", "iata": "NH", "icao": "ANA"}, {"name": "Solaseed Air", "iata": "6J", "icao": "SNJ"}]}, {"destination": {"icao": "RKSI", "iata": "ICN", "name": "Seoul Incheon", "shortName": "Incheon", "municipalityName": "Seoul", "location": {"lat": 37.4691, "lon": 126.451}, "countryCode": "KR"}, "averageDailyFlights": 7.14, "operators": [{"name": "Jeju Air", "iata": "7C", "icao": "JJA"}, {"name": "Korean Air", "iata": "KE", "icao": "KAL"}, {"name": "Asiana Airlines", "iata": "OZ", "icao": "AAR"}]}, {"destination": {"icao": "RJSS", "iata": "SDJ", "name": "Sendai ", "shortName": "Sendai", "municipalityName": "Sendai", "location": {"lat": 38.1397, "lon": 140.917}, "countryCode": "JP"}, "averageDailyFlights": 6.86, "operators": [{"name": "Peach Aviation", "iata": "MM", "icao": "APJ"}, {"name": "ANA", "iata": "NH", "icao": "ANA"}, {"name": "IBEX Airlines", "iata": "FW", "icao": "IBX"}]}, {"destination": {"icao": "RJFK", "iata": "KOJ", "name": "Kagoshima ", "shortName": "Kagoshima", "municipalityName": "Kagoshima", "location": {"lat": 31.8034, "lon": 130.719}, "countryCode": "JP"}, "averageDailyFlights": 5.71, "operators": [{"name": "Solaseed Air", "iata": "6J", "icao": "SNJ"}, {"name": "Skymark Airlines", "iata": "BC", "icao": "SKY"}, {"name": "ANA", "iata": "NH", "icao": "ANA"}]}, {"destination": {"icao": "RCTP", "iata": "TPE", "name": "Taipei Taiwan Taoyuan", "shortName": "Taiwan Taoyuan", "municipalityName": "Taipei", "location": {"lat": 25.0777, "lon": 121.233}, "countryCode": "TW"}, "averageDailyFlights": 4.0, "operators": [{"name": "China Airlines", "iata": "CI", "icao": "CAL"}, {"name": "Tigerair Taiwan", "iata": "IT", "icao": "TTW"}, {"name": "Peach Aviation", "iata": "MM", "icao": "APJ"}, {"name": "Malindo Air", "iata": "OD", "icao": "MXD"}]}, {"destination": {"icao": "RJOM", "iata": "MYJ", "name": "Matsuyama ", "shortName": "Matsuyama", "municipalityName": "Matsuyama", "location": {"lat": 33.8272, "lon": 132.7}, "countryCode": "JP"}, "averageDailyFlights": 3.43, "operators": [{"name": "ANA", "iata": "NH", "icao": "ANA"}]}, {"destination": {"icao": "RJFM", "iata": "KMI", "name": "Miyazaki ", "shortName": "Miyazaki", "municipalityName": "Miyazaki", "location": {"lat": 31.8772, "lon": 131.449}, "countryCode": "JP"}, "averageDailyFlights": 3.43, "operators": [{"name": "Solaseed Air", "iata": "6J", "icao": "SNJ"}, {"name": "Oriental Air Bridge", "iata": "OC", "icao": "ORC"}]}, {"destination": {"icao": "RJSK", "iata": "AXT", "name": "Akita ", "shortName": "Akita", "municipalityName": "Akita", "location": {"lat": 39.6156, "lon": 140.219}, "countryCode": "JP"}, "averageDailyFlights": 2.29, "operators": [{"name": "Oriental Air Bridge", "iata": "OC", "icao": "ORC"}, {"name": "ANA", "iata": "NH", "icao": "ANA"}]}, {"destination": {"icao": "ROIG", "iata": "ISG", "name": "Ishigaki ", "shortName": "Ishigaki", "municipalityName": "Ishigaki", "location": {"lat": 24.3445, "lon": 124.187}, "countryCode": "JP"}, "averageDailyFlights": 2.29, "operators": [{"name": "ANA", "iata": "NH", "icao": "ANA"}, {"name": "Peach Aviation", "iata": "MM", "icao": "APJ"}]}, {"destination": {"icao": "RJFT", "iata": "KMJ", "name": "Kumamoto ", "shortName": "Kumamoto", "municipalityName": "Kumamoto", "location": {"lat": 32.8373, "lon": 130.855}, "countryCode": "JP"}, "averageDailyFlights": 2.29, "operators": [{"name": "ANA", "iata": "NH", "icao": "ANA"}]}, {"destination": {"icao": "RJFU", "iata": "NGS", "name": "Nagasaki ", "shortName": "Nagasaki", "municipalityName": "Nagasaki", "location": {"lat": 32.9169, "lon": 129.914}, "countryCode": "JP"}, "averageDailyFlights": 2.29, "operators": [{"name": "ANA", "iata": "NH", "icao": "ANA"}]}, {"destination": {"icao": "RJOK", "iata": "KCZ", "name": "Nankoku K\u014dchi Ry\u014dma", "shortName": "K\u014dchi Ry\u014dma", "municipalityName": "Nankoku", "location": {"lat": 33.5461, "lon": 133.669}, "countryCode": "JP"}, "averageDailyFlights": 2.29, "operators": [{"name": "Fuji Dream Airlines", "iata": "JH", "icao": "FDA"}]}, {"destination": {"icao": "RJFO", "iata": "OIT", "name": "\u014cita Oita", "shortName": "Oita", "municipalityName": "\u014cita", "location": {"lat": 33.4794, "lon": 131.737}, "countryCode": "JP"}, "averageDailyFlights": 2.29, "operators": [{"name": "IBEX Airlines", "iata": "FW", "icao": "IBX"}]}, {"destination": {"icao": "VVNB", "iata": "HAN", "name": "Hanoi Noi Bai", "shortName": "Noi Bai", "municipalityName": "Hanoi", "location": {"lat": 21.2212, "lon": 105.807}, "countryCode": "VN"}, "averageDailyFlights": 1.86, "operators": [{"name": "VietJetAir", "iata": "VJ", "icao": "VJC"}, {"name": "Vietnam Airlines", "iata": "VN", "icao": "HVN"}]}, {"destination": {"icao": "RPLL", "iata": "MNL", "name": "Manila Ninoy Aquino", "shortName": "Ninoy Aquino", "municipalityName": "Manila", "location": {"lat": 14.5086, "lon": 121.02}, "countryCode": "PH"}, "averageDailyFlights": 1.48, "operators": [{"name": "Cebu Pacific Air", "iata": "5J", "icao": "CEB"}, {"name": "Jetstar Japan", "iata": "GK", "icao": "JJP"}, {"name": "Philippine Airlines", "iata": "PR", "icao": "PAL"}]}, {"destination": {"icao": "ZBAA", "iata": "PEK", "name": "Beijing Capital", "shortName": "Capital", "municipalityName": "Beijing", "location": {"lat": 40.0801, "lon": 116.585}, "countryCode": "CN"}, "averageDailyFlights": 1.3, "operators": [{"name": "Air China", "iata": "CA", "icao": "CCA"}, {"name": "Juneyao Airlines", "iata": "HO", "icao": "DKH"}]}, {"destination": {"icao": "RJAA", "iata": "NRT", "name": "Tokyo Narita", "shortName": "Narita", "municipalityName": "Tokyo", "location": {"lat": 35.7647, "lon": 140.386}, "countryCode": "JP"}, "averageDailyFlights": 1.16, "operators": [{"name": "ANA", "iata": "NH", "icao": "ANA"}, {"name": "JAL", "iata": "JL", "icao": "JAL"}]}, {"destination": {"icao": "VTBS", "iata": "BKK", "name": "Bangkok Suvarnabhumi", "shortName": "Suvarnabhumi", "municipalityName": "Bangkok", "location": {"lat": 13.681099, "lon": 100.747}, "countryCode": "TH"}, "averageDailyFlights": 1.14, "operators": [{"name": "Thai Airways International", "iata": "TG", "icao": "THA"}]}, {"destination": {"icao": "PGUM", "iata": "GUM", "name": "Hag\u00e5t\u00f1a, Guam International Airport Antonio B. Won Pat", "shortName": "Antonio B. Won Pat", "municipalityName": "Hag\u00e5t\u00f1a, Guam International Airport", "location": {"lat": 13.4834, "lon": 144.796}, "countryCode": "GU"}, "averageDailyFlights": 1.14, "operators": [{"name": "United Airlines", "iata": "UA", "icao": "UAL"}]}, {"destination": {"icao": "RJCH", "iata": "HKD", "name": "Hakodate ", "shortName": "Hakodate", "municipalityName": "Hakodate", "location": {"lat": 41.77, "lon": 140.822}, "countryCode": "JP"}, "averageDailyFlights": 1.14, "operators": [{"name": "Air Do", "iata": "HD", "icao": "ADO"}]}, {"destination": {"icao": "ROMY", "iata": "MMY", "name": "Miyako City Miyako", "shortName": "Miyako", "municipalityName": "Miyako City", "location": {"lat": 24.7828, "lon": 125.295}, "countryCode": "JP"}, "averageDailyFlights": 1.14, "operators": [{"name": "ANA", "iata": "NH", "icao": "ANA"}]}, {"destination": {"icao": "ZBTJ", "iata": "TSN", "name": "Tianjin Binhai", "shortName": "Binhai", "municipalityName": "Tianjin", "location": {"lat": 39.1244, "lon": 117.346}, "countryCode": "CN"}, "averageDailyFlights": 1.0, "operators": [{"name": "Tianjin Airlines", "iata": "GS", "icao": "GCR"}, {"name": "JAL", "iata": "JL", "icao": "JAL"}]}, {"destination": {"icao": "ZSPD", "iata": "PVG", "name": "Shanghai Pudong", "shortName": "Pudong", "municipalityName": "Shanghai", "location": {"lat": 31.1434, "lon": 121.805}, "countryCode": "CN"}, "averageDailyFlights": 0.71, "operators": [{"name": "Spring Airlines", "iata": "9C", "icao": "CQH"}, {"name": "China Eastern Airlines", "iata": "MU", "icao": "CES"}]}, {"destination": {"name": "Hong Kong"}, "averageDailyFlights": 0.71, "operators": [{"name": "Cathay Pacific", "iata": "CX", "icao": "CPA"}, {"name": "Hong Kong Express", "iata": "UO", "icao": "HKE"}]}, {"destination": {"icao": "VVTS", "iata": "SGN", "name": "Ho Chi Minh City Tan Son Nhat", "shortName": "Tan Son Nhat", "municipalityName": "Ho Chi Minh City", "location": {"lat": 10.818799, "lon": 106.652}, "countryCode": "VN"}, "averageDailyFlights": 0.57, "operators": [{"name": "Vietnam Airlines", "iata": "VN", "icao": "HVN"}]}, {"destination": {"icao": "WSSS", "iata": "SIN", "name": "Singapore Changi", "shortName": "Changi", "municipalityName": "Singapore", "location": {"lat": 1.35019, "lon": 103.994}, "countryCode": "SG"}, "averageDailyFlights": 0.57, "operators": [{"name": "Singapore Airlines", "iata": "SQ", "icao": "SIA"}]}, {"destination": {"icao": "RCKH", "iata": "KHH", "name": "Kaohsiung City Kaohsiung", "shortName": "Kaohsiung", "municipalityName": "Kaohsiung City", "location": {"lat": 22.5771, "lon": 120.35}, "countryCode": "TW"}, "averageDailyFlights": 0.43, "operators": [{"name": "Tigerair Taiwan", "iata": "IT", "icao": "TTW"}]}, {"destination": {"icao": "ZYTL", "iata": "DLC", "name": "Dalian Zhoushuizi", "shortName": "Zhoushuizi", "municipalityName": "Dalian", "location": {"lat": 38.9657, "lon": 121.539}, "countryCode": "CN"}, "averageDailyFlights": 0.29, "operators": [{"name": "China Southern Airlines", "iata": "CZ", "icao": "CSN"}]}, {"destination": {"name": "Frankfurt-am-Main"}, "averageDailyFlights": 0.29, "operators": [{"name": "Lufthansa", "iata": "LH", "icao": "DLH"}]}, {"destination": {"icao": "MMMX", "iata": "MEX", "name": "Mexico City Licenciado Benito Juarez", "shortName": "Licenciado Benito Juarez", "municipalityName": "Mexico City", "location": {"lat": 19.4363, "lon": -99.0721}, "countryCode": "MX"}, "averageDailyFlights": 0.14, "operators": [{"name": "Qatar Airways", "iata": "QR", "icao": "QTR"}]}, {"destination": {"name": "Santa-Lyuchiya"}, "averageDailyFlights": 0.14, "operators": [{"name": "Qatar Airways", "iata": "QR", "icao": "QTR"}]}]}