{"routes": [{"destination": {"icao": "RJTT", "iata": "HND", "name": "Tokyo ", "shortName": "Tokyo", "municipalityName": "Tokyo", "location": {"lat": 35.5523, "lon": 139.78}, "countryCode": "JP"}, "averageDailyFlights": 17.14, "operators": [{"name": "JAL", "iata": "JL", "icao": "JAL"}, {"name": "ANA", "iata": "NH", "icao": "ANA"}]}, {"destination": {"icao": "RJSS", "iata": "SDJ", "name": "Sendai ", "shortName": "Sendai", "municipalityName": "Sendai", "location": {"lat": 38.1397, "lon": 140.917}, "countryCode": "JP"}, "averageDailyFlights": 3.43, "operators": [{"name": "IBEX Airlines", "iata": "FW", "icao": "IBX"}]}, {"destination": {"icao": "RJAA", "iata": "NRT", "name": "Tokyo Narita", "shortName": "Narita", "municipalityName": "Tokyo", "location": {"lat": 35.7647, "lon": 140.386}, "countryCode": "JP"}, "averageDailyFlights": 2.43, "operators": [{"name": "Spring Airlines Japan", "iata": "IJ", "icao": "SJO"}]}, {"destination": {"icao": "RJCC", "iata": "CTS", "name": "Chitose / Tomakomai New Chitose", "shortName": "New Chitose", "municipalityName": "Chitose / Tomakomai", "location": {"lat": 42.7752, "lon": 141.692}, "countryCode": "JP"}, "averageDailyFlights": 2.29, "operators": [{"name": "ANA", "iata": "NH", "icao": "ANA"}, {"name": "JAL", "iata": "JL", "icao": "JAL"}]}, {"destination": {"icao": "ROAH", "iata": "OKA", "name": "Naha ", "shortName": "Naha", "municipalityName": "Naha", "location": {"lat": 26.1958, "lon": 127.646}, "countryCode": "JP"}, "averageDailyFlights": 1.14, "operators": [{"name": "ANA", "iata": "NH", "icao": "ANA"}]}, {"destination": {"icao": "RCTP", "iata": "TPE", "name": "Taipei Taiwan Taoyuan", "shortName": "Taiwan Taoyuan", "municipalityName": "Taipei", "location": {"lat": 25.0777, "lon": 121.233}, "countryCode": "TW"}, "averageDailyFlights": 0.71, "operators": [{"name": "China Airlines", "iata": "CI", "icao": "CAL"}]}]}