{"routes": [{"destination": {"icao": "RKSS", "iata": "GMP", "name": "Seoul-si Gimpo", "shortName": "Gimpo", "municipalityName": "Seoul-si", "location": {"lat": 37.5583, "lon": 126.791}, "countryCode": "KR"}, "averageDailyFlights": 106.29, "operators": [{"name": "Asiana Airlines", "iata": "OZ", "icao": "AAR"}, {"name": "Jeju Air", "iata": "7C", "icao": "JJA"}, {"name": "Korean Air", "iata": "KE", "icao": "KAL"}, {"name": "Air Seoul", "iata": "RS", "icao": "ASV"}, {"name": "Jin Air", "iata": "LJ", "icao": "JNA"}, {"name": "T'Way Air", "iata": "TW", "icao": "TWB"}, {"name": "EASTAR JET", "iata": "ZE", "icao": "ESR"}, {"name": "Air Busan", "iata": "BX", "icao": "ABL"}]}, {"destination": {"icao": "RKTU", "iata": "CJJ", "name": "Cheongju ", "shortName": "Cheongju", "municipalityName": "Cheongju", "location": {"lat": 36.7166, "lon": 127.499}, "countryCode": "KR"}, "averageDailyFlights": 32.86, "operators": [{"name": "Korean Air", "iata": "KE", "icao": "KAL"}, {"name": "Jeju Air", "iata": "7C", "icao": "JJA"}, {"name": "Jin Air", "iata": "LJ", "icao": "JNA"}, {"name": "Aero K Airlines", "iata": "RF", "icao": "EOK"}, {"name": "T'Way Air", "iata": "TW", "icao": "TWB"}, {"name": "Asiana Airlines", "iata": "OZ", "icao": "AAR"}]}, {"destination": {"icao": "RKPK", "iata": "PUS", "name": "Busan-si Gimhae", "shortName": "Gimhae", "municipalityName": "Busan-si", "location": {"lat": 35.1795, "lon": 128.938}, "countryCode": "KR"}, "averageDailyFlights": 31.86, "operators": [{"name": "Air Busan", "iata": "BX", "icao": "ABL"}, {"name": "Korean Air", "iata": "KE", "icao": "KAL"}, {"name": "Jeju Air", "iata": "7C", "icao": "JJA"}, {"name": "Jin Air", "iata": "LJ", "icao": "JNA"}]}, {"destination": {"icao": "RKJJ", "iata": "KWJ", "name": "Gwangju ", "shortName": "Gwangju", "municipalityName": "Gwangju", "location": {"lat": 35.1264, "lon": 126.809}, "countryCode": "KR"}, "averageDailyFlights": 21.57, "operators": [{"name": "Jin Air", "iata": "LJ", "icao": "JNA"}, {"name": "Jeju Air", "iata": "7C", "icao": "JJA"}, {"name": "Asiana Airlines", "iata": "OZ", "icao": "AAR"}, {"name": "Korean Air", "iata": "KE", "icao": "KAL"}, {"name": "T'Way Air", "iata": "TW", "icao": "TWB"}]}, {"destination": {"icao": "RKTN", "iata": "TAE", "name": "Daegu-si Daegu", "shortName": "Daegu", "municipalityName": "Daegu-si", "location": {"lat": 35.8941, "lon": 128.659}, "countryCode": "KR"}, "averageDailyFlights": 20.14, "operators": [{"name": "Jin Air", "iata": "LJ", "icao": "JNA"}, {"name": "Asiana Airlines", "iata": "OZ", "icao": "AAR"}, {"name": "T'Way Air", "iata": "TW", "icao": "TWB"}, {"name": "Jeju Air", "iata": "7C", "icao": "JJA"}]}, {"destination": {"icao": "ZSPD", "iata": "PVG", "name": "Shanghai Pudong", "shortName": "Pudong", "municipalityName": "Shanghai", "location": {"lat": 31.1434, "lon": 121.805}, "countryCode": "CN"}, "averageDailyFlights": 6.43, "operators": [{"name": "Spring Airlines", "iata": "9C", "icao": "CQH"}, {"name": "China Eastern Airlines", "iata": "MU", "icao": "CES"}, {"name": "Jin Air", "iata": "LJ", "icao": "JNA"}, {"name": "Juneyao Airlines", "iata": "HO", "icao": "DKH"}]}, {"destination": {"icao": "RKJY", "iata": "RSU", "name": "Yeosu ", "shortName": "Yeosu", "municipalityName": "Yeosu", "location": {"lat": 34.8423, "lon": 127.617}, "countryCode": "KR"}, "averageDailyFlights": 3.43, "operators": [{"name": "Asiana Airlines", "iata": "OZ", "icao": "AAR"}, {"name": "Jin Air", "iata": "LJ", "icao": "JNA"}]}, {"destination": {"icao": "RKTH", "iata": "KPO", "name": "Pohang ", "shortName": "Pohang", "municipalityName": "Pohang", "location": {"lat": 35.9879, "lon": 129.42}, "countryCode": "KR"}, "averageDailyFlights": 2.29, "operators": [{"name": "Jin Air", "iata": "LJ", "icao": "JNA"}]}, {"destination": {"icao": "RKNY", "iata": "YNY", "name": "Sokcho / Gangneung Yangyang", "shortName": "Yangyang", "municipalityName": "Sokcho / Gangneung", "location": {"lat": 38.0613, "lon": 128.669}, "countryCode": "KR"}, "averageDailyFlights": 2.29, "operators": [{"name": "Fly Gangwon", "iata": "4V", "icao": "FGW"}]}, {"destination": {"icao": "RKNW", "iata": "WJU", "name": "Wonju ", "shortName": "Wonju", "municipalityName": "Wonju", "location": {"lat": 37.4381, "lon": 127.96}, "countryCode": "KR"}, "averageDailyFlights": 2.29, "operators": [{"name": "Jin Air", "iata": "LJ", "icao": "JNA"}]}, {"destination": {"icao": "RCTP", "iata": "TPE", "name": "Taipei Taiwan Taoyuan", "shortName": "Taiwan Taoyuan", "municipalityName": "Taipei", "location": {"lat": 25.0777, "lon": 121.233}, "countryCode": "TW"}, "averageDailyFlights": 1.43, "operators": [{"name": "Tigerair Taiwan", "iata": "IT", "icao": "TTW"}, {"name": "T'Way Air", "iata": "TW", "icao": "TWB"}]}, {"destination": {"icao": "ZSNB", "iata": "NGB", "name": "Ningbo Lishe", "shortName": "Lishe", "municipalityName": "Ningbo", "location": {"lat": 29.8267, "lon": 121.462}, "countryCode": "CN"}, "averageDailyFlights": 1.14, "operators": [{"name": "Spring Airlines", "iata": "9C", "icao": "CQH"}]}, {"destination": {"icao": "RJBB", "iata": "KIX", "name": "Osaka Kansai", "shortName": "Kansai", "municipalityName": "Osaka", "location": {"lat": 34.4273, "lon": 135.244}, "countryCode": "JP"}, "averageDailyFlights": 1.14, "operators": [{"name": "T'Way Air", "iata": "TW", "icao": "TWB"}]}, {"destination": {"icao": "RKPU", "iata": "USN", "name": "Ulsan-si Ulsan", "shortName": "Ulsan", "municipalityName": "Ulsan-si", "location": {"lat": 35.5935, "lon": 129.352}, "countryCode": "KR"}, "averageDailyFlights": 1.14, "operators": [{"name": "Korean Air", "iata": "KE", "icao": "KAL"}]}, {"destination": {"icao": "WSSS", "iata": "SIN", "name": "Singapore Changi", "shortName": "Changi", "municipalityName": "Singapore", "location": {"lat": 1.35019, "lon": 103.994}, "countryCode": "SG"}, "averageDailyFlights": 0.86, "operators": [{"name": "Tibet Airlines", "iata": "TV", "icao": "TBA"}]}, {"destination": {"icao": "ZBAA", "iata": "PEK", "name": "Beijing Capital", "shortName": "Capital", "municipalityName": "Beijing", "location": {"lat": 40.0801, "lon": 116.585}, "countryCode": "CN"}, "averageDailyFlights": 0.79, "operators": [{"name": "Korean Air", "iata": "KE", "icao": "KAL"}, {"name": "Juneyao Airlines", "iata": "HO", "icao": "DKH"}]}, {"destination": {"icao": "ZSHC", "iata": "HGH", "name": "Hangzhou Xiaoshan", "shortName": "Xiaoshan", "municipalityName": "Hangzhou", "location": {"lat": 30.2295, "lon": 120.434}, "countryCode": "CN"}, "averageDailyFlights": 0.71, "operators": [{"name": "Loong Air", "iata": "GJ", "icao": "CDC"}]}, {"destination": {"icao": "VHHH", "iata": "HKG", "name": "Hong Kong Chek Lap Kok", "shortName": "Chek Lap Kok", "municipalityName": "Hong Kong", "location": {"lat": 22.3089, "lon": 113.915}, "countryCode": "HK"}, "averageDailyFlights": 0.43, "operators": [{"name": "Hong Kong Express", "iata": "UO", "icao": "HKE"}]}, {"destination": {"icao": "ZYTX", "iata": "SHE", "name": "Shenyang Taoxian", "shortName": "Taoxian", "municipalityName": "Shenyang", "location": {"lat": 41.6398, "lon": 123.483}, "countryCode": "CN"}, "averageDailyFlights": 0.29, "operators": [{"name": "Spring Airlines", "iata": "9C", "icao": "CQH"}]}, {"destination": {"icao": "VVDN", "iata": "DAD", "name": "Da Nang ", "shortName": "Da Nang", "municipalityName": "Da Nang", "location": {"lat": 16.0439, "lon": 108.199}, "countryCode": "VN"}, "averageDailyFlights": 0.14, "operators": [{"name": "T'Way Air", "iata": "TW", "icao": "TWB"}]}, {"destination": {"icao": "ZSNJ", "iata": "NKG", "name": "Nanjing Lukou", "shortName": "Lukou", "municipalityName": "Nanjing", "location": {"lat": 31.742, "lon": 118.862}, "countryCode": "CN"}, "averageDailyFlights": 0.14, "operators": [{"name": "Juneyao Airlines", "iata": "HO", "icao": "DKH"}]}]}