{"routes": [{"destination": {"icao": "RKPC", "iata": "CJU", "name": "Jeju City Jeju", "shortName": "Jeju", "municipalityName": "Jeju City", "location": {"lat": 33.5113, "lon": 126.493}, "countryCode": "KR"}, "averageDailyFlights": 31.57, "operators": [{"name": "Jeju Air", "iata": "7C", "icao": "JJA"}, {"name": "Jin Air", "iata": "LJ", "icao": "JNA"}, {"name": "Asiana Airlines", "iata": "OZ", "icao": "AAR"}, {"name": "Aero K Airlines", "iata": "RF", "icao": "EOK"}, {"name": "T'Way Air", "iata": "TW", "icao": "TWB"}, {"name": "Korean Air", "iata": "KE", "icao": "KAL"}]}, {"destination": {"icao": "VTBD", "iata": "DMK", "name": "Bangkok Don Mueang", "shortName": "Don Mueang", "municipalityName": "Bangkok", "location": {"lat": 13.912599, "lon": 100.607}, "countryCode": "TH"}, "averageDailyFlights": 1.14, "operators": [{"name": "T'Way Air", "iata": "TW", "icao": "TWB"}]}, {"destination": {"icao": "VVDN", "iata": "DAD", "name": "Da Nang ", "shortName": "Da Nang", "municipalityName": "Da Nang", "location": {"lat": 16.0439, "lon": 108.199}, "countryCode": "VN"}, "averageDailyFlights": 1.14, "operators": [{"name": "T'Way Air", "iata": "TW", "icao": "TWB"}]}, {"destination": {"icao": "RJBB", "iata": "KIX", "name": "Osaka Kansai", "shortName": "Kansai", "municipalityName": "Osaka", "location": {"lat": 34.4273, "lon": 135.244}, "countryCode": "JP"}, "averageDailyFlights": 1.14, "operators": [{"name": "T'Way Air", "iata": "TW", "icao": "TWB"}]}, {"destination": {"icao": "VVCR", "iata": "CXR", "name": "Nha Trang Cam Ranh", "shortName": "Cam Ranh", "municipalityName": "Nha Trang", "location": {"lat": 11.9982, "lon": 109.219}, "countryCode": "VN"}, "averageDailyFlights": 0.57, "operators": [{"name": "T'Way Air", "iata": "TW", "icao": "TWB"}]}, {"destination": {"icao": "ZGDY", "iata": "DYG", "name": "Dayong ", "shortName": "Dayong", "municipalityName": "Dayong", "location": {"lat": 29.1028, "lon": 110.443}, "countryCode": "CN"}, "averageDailyFlights": 0.29, "operators": [{"name": "Sichuan Airlines", "iata": "3U", "icao": "CSC"}]}]}