{"routes": [{"destination": {"icao": "SABE", "iata": "AEP", "name": "Buenos Aires Jorge Newbery Airpark", "shortName": "Jorge Newbery Airpark", "municipalityName": "Buenos Aires", "location": {"lat": -34.5592, "lon": -58.4156}, "countryCode": "AR"}, "averageDailyFlights": 2.14, "operators": [{"name": "Aerolineas Argentinas", "iata": "AR", "icao": "ARG"}]}, {"destination": {"icao": "MPTO", "iata": "PTY", "name": "Tocumen ", "shortName": "Tocumen", "municipalityName": "Tocumen", "location": {"lat": 9.071359, "lon": -79.3835}, "countryCode": "PA"}, "averageDailyFlights": 1.14, "operators": [{"name": "Copa Airlines", "iata": "CM", "icao": "CMP"}]}, {"destination": {"icao": "SAME", "iata": "MDZ", "name": "Mendoza El Plumerillo", "shortName": "El Plumerillo", "municipalityName": "Mendoza", "location": {"lat": -32.8317, "lon": -68.7929}, "countryCode": "AR"}, "averageDailyFlights": 0.71, "operators": [{"name": "Aerolineas Argentinas", "iata": "AR", "icao": "ARG"}]}, {"destination": {"icao": "SAZS", "iata": "BRC", "name": "San Carlos de Bariloche ", "shortName": "San Carlos de Bariloche", "municipalityName": "San Carlos de Bariloche", "location": {"lat": -41.1512, "lon": -71.1575}, "countryCode": "AR"}, "averageDailyFlights": 0.71, "operators": [{"name": "Aerolineas Argentinas", "iata": "AR", "icao": "ARG"}]}, {"destination": {"icao": "SARI", "iata": "IGR", "name": "Puerto Iguaz\u00fa Cataratas Del Iguaz\u00fa", "shortName": "Cataratas Del Iguaz\u00fa", "municipalityName": "Puerto Iguaz\u00fa", "location": {"lat": -25.7373, "lon": -54.4734}, "countryCode": "AR"}, "averageDailyFlights": 0.43, "operators": [{"name": "Aerolineas Argentinas", "iata": "AR", "icao": "ARG"}]}, {"destination": {"icao": "SAZY", "iata": "CPC", "name": "Chapelco/San Martin de los Andes Aviador C. Campos", "shortName": "Aviador C. Campos", "municipalityName": "Chapelco/San Martin de los Andes", "location": {"lat": -40.0754, "lon": -71.1373}, "countryCode": "AR"}, "averageDailyFlights": 0.29, "operators": [{"name": "Aerolineas Argentinas", "iata": "AR", "icao": "ARG"}]}, {"destination": {"icao": "SBGL", "iata": "GIG", "name": "Rio de Janeiro RIOgale\u00e3o \u2013 Tom Jobim", "shortName": "RIOgale\u00e3o \u2013 Tom Jobim", "municipalityName": "Rio de Janeiro", "location": {"lat": -22.81, "lon": -43.250557}, "countryCode": "BR"}, "averageDailyFlights": 0.29, "operators": [{"name": "Gol", "iata": "G3", "icao": "GLO"}]}, {"destination": {"icao": "SASA", "iata": "SLA", "name": "Salta Martin Miguel De Guemes", "shortName": "Martin Miguel De Guemes", "municipalityName": "Salta", "location": {"lat": -24.856, "lon": -65.4862}, "countryCode": "AR"}, "averageDailyFlights": 0.29, "operators": [{"name": "Aerolineas Argentinas", "iata": "AR", "icao": "ARG"}]}, {"destination": {"icao": "SBGR", "iata": "GRU", "name": "S\u00e3o Paulo Guarulhos - Governador Andr\u00e9 Franco Montoro", "shortName": "Guarulhos - Governador Andr\u00e9 Franco Montoro", "municipalityName": "S\u00e3o Paulo", "location": {"lat": -23.435556, "lon": -46.473057}, "countryCode": "BR"}, "averageDailyFlights": 0.29, "operators": [{"name": "Gol"}]}, {"destination": {"name": "Rekonkista"}, "averageDailyFlights": 0.14, "operators": [{"name": "Aerolineas Argentinas", "iata": "AR", "icao": "ARG"}]}]}