{"routes": [{"destination": {"name": "S\u00e3o Paulo"}, "averageDailyFlights": 4.71, "operators": [{"name": "LATAM", "iata": "LA", "icao": "LAN"}, {"name": "Gol", "iata": "G3", "icao": "GLO"}]}, {"destination": {"icao": "SBCT", "iata": "CWB", "name": "Curitiba Afonso Pena", "shortName": "Afonso Pena", "municipalityName": "Curitiba", "location": {"lat": -25.5285, "lon": -49.1758}, "countryCode": "BR"}, "averageDailyFlights": 3.29, "operators": [{"name": "Azul", "iata": "AD", "icao": "AZU"}, {"name": "LATAM", "iata": "LA", "icao": "LAN"}]}, {"destination": {"icao": "SBKP", "iata": "VCP", "name": "Campinas Viracopos", "shortName": "Viracopos", "municipalityName": "Campinas", "location": {"lat": -23.0074, "lon": -47.1345}, "countryCode": "BR"}, "averageDailyFlights": 3.14, "operators": [{"name": "Azul", "iata": "AD", "icao": "AZU"}]}, {"destination": {"icao": "SBGL", "iata": "GIG", "name": "Rio de Janeiro RIOgale\u00e3o \u2013 Tom Jobim", "shortName": "RIOgale\u00e3o \u2013 Tom Jobim", "municipalityName": "Rio de Janeiro", "location": {"lat": -22.81, "lon": -43.250557}, "countryCode": "BR"}, "averageDailyFlights": 1.71, "operators": [{"name": "Gol", "iata": "G3", "icao": "GLO"}, {"name": "LATAM", "iata": "LA", "icao": "LAN"}]}, {"destination": {"icao": "SBFL", "iata": "FLN", "name": "Florian\u00f3polis Herc\u00edlio Luz", "shortName": "Herc\u00edlio Luz", "municipalityName": "Florian\u00f3polis", "location": {"lat": -27.670279, "lon": -48.5525}, "countryCode": "BR"}, "averageDailyFlights": 1.0, "operators": [{"name": "Azul", "iata": "AD", "icao": "AZU"}]}, {"destination": {"icao": "SBPA", "iata": "POA", "name": "Porto Alegre Salgado Filho", "shortName": "Salgado Filho", "municipalityName": "Porto Alegre", "location": {"lat": -29.9944, "lon": -51.1714}, "countryCode": "BR"}, "averageDailyFlights": 1.0, "operators": [{"name": "Azul", "iata": "AD", "icao": "AZU"}]}, {"destination": {"icao": "SCEL", "iata": "SCL", "name": "Santiago Comodoro Arturo Merino Ben\u00edtez", "shortName": "Comodoro Arturo Merino Ben\u00edtez", "municipalityName": "Santiago", "location": {"lat": -33.393, "lon": -70.7858}, "countryCode": "CL"}, "averageDailyFlights": 0.43, "operators": [{"name": "JetSMART", "iata": "JA", "icao": "JAT"}]}, {"destination": {"icao": "SBCF", "iata": "CNF", "name": "Belo Horizonte Tancredo Neves", "shortName": "Tancredo Neves", "municipalityName": "Belo Horizonte", "location": {"lat": -19.624443, "lon": -43.971943}, "countryCode": "BR"}, "averageDailyFlights": 0.14, "operators": [{"name": "Azul", "iata": "AD", "icao": "AZU"}]}, {"destination": {"icao": "SBRF", "iata": "REC", "name": "Recife Guararapes - Gilberto Freyre", "shortName": "Guararapes - Gilberto Freyre", "municipalityName": "Recife", "location": {"lat": -8.126489, "lon": -34.9236}, "countryCode": "BR"}, "averageDailyFlights": 0.14, "operators": [{"name": "Azul", "iata": "AD", "icao": "AZU"}]}]}