{"routes": [{"destination": {"icao": "SBBR", "iata": "BSB", "name": "Bras\u00edlia Presidente Juscelino Kubistschek", "shortName": "Presidente Juscelino Kubistschek", "municipalityName": "Bras\u00edlia", "location": {"lat": -15.869167, "lon": -47.920834}, "countryCode": "BR"}, "averageDailyFlights": 3.29, "operators": [{"name": "LATAM", "iata": "LA", "icao": "LAN"}, {"name": "Gol", "iata": "G3", "icao": "GLO"}]}, {"destination": {"icao": "SBGR", "iata": "GRU", "name": "S\u00e3o Paulo Guarulhos - Governador Andr\u00e9 Franco Montoro", "shortName": "Guarulhos - Governador Andr\u00e9 Franco Montoro", "municipalityName": "S\u00e3o Paulo", "location": {"lat": -23.435556, "lon": -46.473057}, "countryCode": "BR"}, "averageDailyFlights": 2.86, "operators": [{"name": "Gol", "iata": "G3", "icao": "GLO"}, {"name": "LATAM", "iata": "LA", "icao": "LAN"}]}, {"destination": {"icao": "SBFZ", "iata": "FOR", "name": "Fortaleza Pinto Martins", "shortName": "Pinto Martins", "municipalityName": "Fortaleza", "location": {"lat": -3.776279, "lon": -38.5326}, "countryCode": "BR"}, "averageDailyFlights": 2.29, "operators": [{"name": "LATAM", "iata": "LA", "icao": "LAN"}]}, {"destination": {"icao": "SBRF", "iata": "REC", "name": "Recife Guararapes - Gilberto Freyre", "shortName": "Guararapes - Gilberto Freyre", "municipalityName": "Recife", "location": {"lat": -8.126489, "lon": -34.9236}, "countryCode": "BR"}, "averageDailyFlights": 2.0, "operators": [{"name": "Azul", "iata": "AD", "icao": "AZU"}]}, {"destination": {"icao": "SBKP", "iata": "VCP", "name": "Campinas Viracopos", "shortName": "Viracopos", "municipalityName": "Campinas", "location": {"lat": -23.0074, "lon": -47.1345}, "countryCode": "BR"}, "averageDailyFlights": 1.29, "operators": [{"name": "Azul", "iata": "AD", "icao": "AZU"}]}, {"destination": {"icao": "SBBE", "iata": "BEL", "name": "Bel\u00e9m J\u00falio Cezar Ribeiro", "shortName": "J\u00falio Cezar Ribeiro", "municipalityName": "Bel\u00e9m", "location": {"lat": -1.37925, "lon": -48.4763}, "countryCode": "BR"}, "averageDailyFlights": 0.71, "operators": [{"name": "Azul", "iata": "AD", "icao": "AZU"}]}, {"destination": {"icao": "SBSL", "iata": "SLZ", "name": "S\u00e3o Lu\u00eds Marechal Cunha Machado", "shortName": "Marechal Cunha Machado", "municipalityName": "S\u00e3o Lu\u00eds", "location": {"lat": -2.58536, "lon": -44.2341}, "countryCode": "BR"}, "averageDailyFlights": 0.14, "operators": [{"name": "LATAM", "iata": "LA", "icao": "LAN"}]}]}