{"routes": [{"destination": {"icao": "SCEL", "iata": "SCL", "name": "Santiago Comodoro Arturo Merino Ben\u00edtez", "shortName": "Comodoro Arturo Merino Ben\u00edtez", "municipalityName": "Santiago", "location": {"lat": -33.393, "lon": -70.7858}, "countryCode": "CL"}, "averageDailyFlights": 16.29, "operators": [{"name": "Sky Airline", "iata": "H2", "icao": "SKU"}, {"name": "LATAM", "iata": "LA", "icao": "LAN"}, {"name": "JetSMART", "iata": "JA", "icao": "JAT"}]}, {"destination": {"icao": "SCSE", "iata": "LSC", "name": "La Serena-Coquimbo La Florida", "shortName": "La Florida", "municipalityName": "La Serena-Coquimbo", "location": {"lat": -29.9162, "lon": -71.1995}, "countryCode": "CL"}, "averageDailyFlights": 1.57, "operators": [{"name": "Sky Airline", "iata": "H2", "icao": "SKU"}, {"name": "JetSMART", "iata": "JA", "icao": "JAT"}]}, {"destination": {"icao": "SCAR", "iata": "ARI", "name": "Arica Chacalluta", "shortName": "Chacalluta", "municipalityName": "Arica", "location": {"lat": -18.3485, "lon": -70.3387}, "countryCode": "CL"}, "averageDailyFlights": 1.0, "operators": [{"name": "JetSMART", "iata": "JA", "icao": "JAT"}]}, {"destination": {"icao": "SCIE", "iata": "CCP", "name": "Concepci\u00f3n Carriel Sur", "shortName": "Carriel Sur", "municipalityName": "Concepci\u00f3n", "location": {"lat": -36.7727, "lon": -73.0631}, "countryCode": "CL"}, "averageDailyFlights": 1.0, "operators": [{"name": "JetSMART", "iata": "JA", "icao": "JAT"}, {"name": "LATAM", "iata": "LA", "icao": "LAN"}]}, {"destination": {"icao": "SCFA", "iata": "ANF", "name": "Antofagasta Cerro Moreno", "shortName": "Cerro Moreno", "municipalityName": "Antofagasta", "location": {"lat": -23.444498, "lon": -70.4451}, "countryCode": "CL"}, "averageDailyFlights": 0.14, "operators": [{"name": "JetSMART", "iata": "JA", "icao": "JAT"}]}, {"destination": {"icao": "LYBE", "iata": "BEG", "name": "Belgrade Nikola Tesla", "shortName": "Nikola Tesla", "municipalityName": "Belgrade", "location": {"lat": 44.8184, "lon": 20.3091}, "countryCode": "RS"}, "averageDailyFlights": 0.14, "operators": [{"name": "JetSMART", "iata": "JA", "icao": "JAT"}]}, {"destination": {"icao": "LWOH", "iata": "OHD", "name": "Ohrid St. Paul the Apostle", "shortName": "St. Paul the Apostle", "municipalityName": "Ohrid", "location": {"lat": 41.18, "lon": 20.7423}, "countryCode": "MK"}, "averageDailyFlights": 0.14, "operators": [{"name": "JetSMART", "iata": "JA", "icao": "JAT"}]}, {"destination": {"icao": "SLVR", "iata": "VVI", "name": "Santa Cruz de la Sierra Viru Viru", "shortName": "Viru Viru", "municipalityName": "Santa Cruz de la Sierra", "location": {"lat": -17.6448, "lon": -63.1354}, "countryCode": "BO"}, "averageDailyFlights": 0.14, "operators": [{"name": "Amaszonas SA", "iata": "Z8", "icao": "AZN"}]}]}