{"routes": [{"destination": {"icao": "SKBO", "iata": "BOG", "name": "Bogot\u00e1 El Dorado", "shortName": "El Dorado", "municipalityName": "Bogot\u00e1", "location": {"lat": 4.70159, "lon": -74.1469}, "countryCode": "CO"}, "averageDailyFlights": 19.57, "operators": [{"name": "LATAM", "iata": "LA", "icao": "LAN"}, {"name": "Avianca", "iata": "AV", "icao": "AVA"}, {"name": "Copa Airlines Colombia", "iata": "P5", "icao": "RPB"}]}, {"destination": {"icao": "SKRG", "iata": "MDE", "name": "Rionegro Jose Maria C\u00f3rdova", "shortName": "Jose Maria C\u00f3rdova", "municipalityName": "Rionegro", "location": {"lat": 6.16454, "lon": -75.4231}, "countryCode": "CO"}, "averageDailyFlights": 4.0, "operators": [{"name": "Avianca", "iata": "AV", "icao": "AVA"}, {"name": "LATAM", "iata": "LA", "icao": "LAN"}]}, {"destination": {"icao": "SKCL", "iata": "CLO", "name": "Santiago de Cali Alfonso Bonilla Aragon", "shortName": "Alfonso Bonilla Aragon", "municipalityName": "Santiago de Cali", "location": {"lat": 3.54322, "lon": -76.3816}, "countryCode": "CO"}, "averageDailyFlights": 1.86, "operators": [{"name": "Avianca", "iata": "AV", "icao": "AVA"}, {"name": "LATAM", "iata": "LA", "icao": "LAN"}]}, {"destination": {"icao": "MPTO", "iata": "PTY", "name": "Tocumen ", "shortName": "Tocumen", "municipalityName": "Tocumen", "location": {"lat": 9.071359, "lon": -79.3835}, "countryCode": "PA"}, "averageDailyFlights": 0.57, "operators": [{"name": "Copa Airlines", "iata": "CM", "icao": "CMP"}]}, {"destination": {"icao": "KMIA", "iata": "MIA", "name": "Miami ", "shortName": "Miami", "municipalityName": "Miami", "location": {"lat": 25.7932, "lon": -80.2906}, "countryCode": "US"}, "averageDailyFlights": 0.29, "operators": [{"name": "Avianca", "iata": "AV", "icao": "AVA"}]}]}