{"routes": [{"destination": {"icao": "SPQU", "iata": "AQP", "name": "Arequipa Rodr\u00edguez Ball\u00f3n", "shortName": "Rodr\u00edguez Ball\u00f3n", "municipalityName": "Arequipa", "location": {"lat": -16.3411, "lon": -71.5831}, "countryCode": "PE"}, "averageDailyFlights": 20.0, "operators": [{"name": "Sky Airline", "iata": "H2", "icao": "SKU"}, {"name": "LATAM", "iata": "LA", "icao": "LAN"}, {"name": "JetSMART", "iata": "JA", "icao": "JAT"}]}, {"destination": {"icao": "SCEL", "iata": "SCL", "name": "Santiago Comodoro Arturo Merino Ben\u00edtez", "shortName": "Comodoro Arturo Merino Ben\u00edtez", "municipalityName": "Santiago", "location": {"lat": -33.393, "lon": -70.7858}, "countryCode": "CL"}, "averageDailyFlights": 11.93, "operators": [{"name": "Sky Airline", "iata": "H2", "icao": "SKU"}, {"name": "LATAM", "iata": "LA", "icao": "LAN"}, {"name": "JetSMART", "iata": "JA", "icao": "JAT"}]}, {"destination": {"icao": "SPZO", "iata": "CUZ", "name": "Cusco Alejandro Velasco Astete", "shortName": "Alejandro Velasco Astete", "municipalityName": "Cusco", "location": {"lat": -13.535699, "lon": -71.9388}, "countryCode": "PE"}, "averageDailyFlights": 10.87, "operators": [{"name": "Sky Airline", "iata": "H2", "icao": "SKU"}, {"name": "JetSMART", "iata": "JA", "icao": "JAT"}, {"name": "LATAM", "iata": "LA", "icao": "LAN"}]}, {"destination": {"icao": "SPUR", "iata": "PIU", "name": "Piura Capit\u00e1n FAP Guillermo Concha Iberico", "shortName": "Capit\u00e1n FAP Guillermo Concha Iberico", "municipalityName": "Piura", "location": {"lat": -5.205749, "lon": -80.6164}, "countryCode": "PE"}, "averageDailyFlights": 10.71, "operators": [{"name": "LATAM", "iata": "LA", "icao": "LAN"}, {"name": "Sky Airline", "iata": "H2", "icao": "SKU"}, {"name": "JetSMART", "iata": "JA", "icao": "JAT"}]}, {"destination": {"icao": "SPST", "iata": "TPP", "name": "Tarapoto Cadete FAP Guillermo Del Castillo Paredes", "shortName": "Cadete FAP Guillermo Del Castillo Paredes", "municipalityName": "Tarapoto", "location": {"lat": -6.508739, "lon": -76.3732}, "countryCode": "PE"}, "averageDailyFlights": 10.57, "operators": [{"name": "LATAM", "iata": "LA", "icao": "LAN"}, {"name": "Sky Airline", "iata": "H2", "icao": "SKU"}, {"name": "Star Peru", "iata": "2I", "icao": "SRU"}, {"name": "JetSMART", "iata": "JA", "icao": "JAT"}]}, {"destination": {"icao": "SPHI", "iata": "CIX", "name": "Chiclayo Capitan FAP Jose A Quinones Gonzales", "shortName": "Capitan FAP Jose A Quinones Gonzales", "municipalityName": "Chiclayo", "location": {"lat": -6.787479, "lon": -79.8281}, "countryCode": "PE"}, "averageDailyFlights": 9.43, "operators": [{"name": "LATAM", "iata": "LA", "icao": "LAN"}, {"name": "Star Peru", "iata": "2I", "icao": "SRU"}, {"name": "JetSMART", "iata": "JA", "icao": "JAT"}]}, {"destination": {"icao": "SKBO", "iata": "BOG", "name": "Bogot\u00e1 El Dorado", "shortName": "El Dorado", "municipalityName": "Bogot\u00e1", "location": {"lat": 4.70159, "lon": -74.1469}, "countryCode": "CO"}, "averageDailyFlights": 8.43, "operators": [{"name": "Avianca", "iata": "AV", "icao": "AVA"}, {"name": "LATAM", "iata": "LA", "icao": "LAN"}, {"name": "Copa Airlines Colombia", "iata": "P5", "icao": "RPB"}]}, {"destination": {"icao": "SPQT", "iata": "IQT", "name": "Iquitos Coronel FAP Francisco Secada Vignetta", "shortName": "Coronel FAP Francisco Secada Vignetta", "municipalityName": "Iquitos", "location": {"lat": -3.784739, "lon": -73.3088}, "countryCode": "PE"}, "averageDailyFlights": 8.43, "operators": [{"name": "Sky Airline", "iata": "H2", "icao": "SKU"}, {"name": "LATAM", "iata": "LA", "icao": "LAN"}, {"name": "JetSMART", "iata": "JA", "icao": "JAT"}]}, {"destination": {"icao": "SPRU", "iata": "TRU", "name": "Trujillo Capitan FAP Carlos Martinez De Pinillos", "shortName": "Capitan FAP Carlos Martinez De Pinillos", "municipalityName": "Trujillo", "location": {"lat": -8.08141, "lon": -79.1088}, "countryCode": "PE"}, "averageDailyFlights": 8.43, "operators": [{"name": "LATAM", "iata": "LA", "icao": "LAN"}, {"name": "JetSMART", "iata": "JA", "icao": "JAT"}, {"name": "Sky Airline", "iata": "H2", "icao": "SKU"}]}, {"destination": {"icao": "SPCL", "iata": "PCL", "name": "Pucallpa Cap FAP David Abenzur Rengifo", "shortName": "Cap FAP David Abenzur Rengifo", "municipalityName": "Pucallpa", "location": {"lat": -8.37794, "lon": -74.5743}, "countryCode": "PE"}, "averageDailyFlights": 7.86, "operators": [{"name": "LATAM", "iata": "LA", "icao": "LAN"}, {"name": "Star Peru", "iata": "2I", "icao": "SRU"}, {"name": "Sky Airline", "iata": "H2", "icao": "SKU"}]}, {"destination": {"icao": "MPTO", "iata": "PTY", "name": "Tocumen ", "shortName": "Tocumen", "municipalityName": "Tocumen", "location": {"lat": 9.071359, "lon": -79.3835}, "countryCode": "PA"}, "averageDailyFlights": 6.86, "operators": [{"name": "Copa Airlines", "iata": "CM", "icao": "CMP"}]}, {"destination": {"icao": "SPJR", "iata": "CJA", "name": "Cajamarca Mayor General FAP Armando Revoredo Iglesias", "shortName": "Mayor General FAP Armando Revoredo Iglesias", "municipalityName": "Cajamarca", "location": {"lat": -7.13918, "lon": -78.4894}, "countryCode": "PE"}, "averageDailyFlights": 6.43, "operators": [{"name": "LATAM", "iata": "LA", "icao": "LAN"}, {"name": "JetSMART", "iata": "JA", "icao": "JAT"}, {"name": "Star Peru", "iata": "2I", "icao": "SRU"}]}, {"destination": {"icao": "MMUN", "iata": "CUN", "name": "Canc\u00fan ", "shortName": "Canc\u00fan", "municipalityName": "Canc\u00fan", "location": {"lat": 21.0365, "lon": -86.8771}, "countryCode": "MX"}, "averageDailyFlights": 5.29, "operators": [{"name": "Volaris", "iata": "Y4", "icao": "VOI"}, {"name": "LATAM", "iata": "LA", "icao": "LAN"}, {"name": "Sky Airline", "iata": "H2", "icao": "SKU"}]}, {"destination": {"icao": "SPJL", "iata": "JUL", "name": "Juliaca Inca Manco Capac", "shortName": "Inca Manco Capac", "municipalityName": "Juliaca", "location": {"lat": -15.4671, "lon": -70.1582}, "countryCode": "PE"}, "averageDailyFlights": 5.14, "operators": [{"name": "LATAM", "iata": "LA", "icao": "LAN"}, {"name": "Sky Airline", "iata": "H2", "icao": "SKU"}]}, {"destination": {"icao": "SPME", "iata": "TBP", "name": "Tumbes Capitan FAP Pedro Canga Rodriguez", "shortName": "Capitan FAP Pedro Canga Rodriguez", "municipalityName": "Tumbes", "location": {"lat": -3.55253, "lon": -80.3814}, "countryCode": "PE"}, "averageDailyFlights": 4.57, "operators": [{"name": "LATAM", "iata": "LA", "icao": "LAN"}, {"name": "Sky Airline", "iata": "H2", "icao": "SKU"}]}, {"destination": {"icao": "SPNC", "iata": "HUU", "name": "Hu\u00e1nuco Alferez Fap David Figueroa Fernandini", "shortName": "Alferez Fap David Figueroa Fernandini", "municipalityName": "Hu\u00e1nuco", "location": {"lat": -9.878809, "lon": -76.2048}, "countryCode": "PE"}, "averageDailyFlights": 4.43, "operators": [{"name": "Star Peru", "iata": "2I", "icao": "SRU"}, {"name": "Aerodynamics, Inc."}]}, {"destination": {"icao": "SPJJ", "iata": "JAU", "name": "Jauja Francisco Carle", "shortName": "Francisco Carle", "municipalityName": "Jauja", "location": {"lat": -11.7831, "lon": -75.4734}, "countryCode": "PE"}, "averageDailyFlights": 4.29, "operators": [{"name": "LATAM", "iata": "LA", "icao": "LAN"}, {"name": "Sky Airline", "iata": "H2", "icao": "SKU"}]}, {"destination": {"icao": "LEMD", "iata": "MAD", "name": "Madrid Adolfo Su\u00e1rez \u2013Barajas", "shortName": "Adolfo Su\u00e1rez \u2013Barajas", "municipalityName": "Madrid", "location": {"lat": 40.4936, "lon": -3.56676}, "countryCode": "ES"}, "averageDailyFlights": 4.1, "operators": [{"name": "Air Europa", "iata": "UX", "icao": "AEA"}, {"name": "Iberia", "iata": "IB", "icao": "IBE"}, {"name": "Plus Ultra", "iata": "PU", "icao": "PUE"}, {"name": "LATAM", "iata": "LA", "icao": "LAN"}]}, {"destination": {"icao": "SPHO", "iata": "AYP", "name": "Ayacucho Coronel FAP Alfredo Mendivil Duarte", "shortName": "Coronel FAP Alfredo Mendivil Duarte", "municipalityName": "Ayacucho", "location": {"lat": -13.1548, "lon": -74.2044}, "countryCode": "PE"}, "averageDailyFlights": 3.86, "operators": [{"name": "LATAM", "iata": "LA", "icao": "LAN"}, {"name": "Sky Airline", "iata": "H2", "icao": "SKU"}]}, {"destination": {"icao": "SPYL", "iata": "TYL", "name": "Talara Capitan Montes", "shortName": "Capitan Montes", "municipalityName": "Talara", "location": {"lat": -4.57664, "lon": -81.2541}, "countryCode": "PE"}, "averageDailyFlights": 3.71, "operators": [{"name": "LATAM", "iata": "LA", "icao": "LAN"}, {"name": "Sky Airline", "iata": "H2", "icao": "SKU"}]}, {"destination": {"icao": "SBGR", "iata": "GRU", "name": "S\u00e3o Paulo Guarulhos - Governador Andr\u00e9 Franco Montoro", "shortName": "Guarulhos - Governador Andr\u00e9 Franco Montoro", "municipalityName": "S\u00e3o Paulo", "location": {"lat": -23.435556, "lon": -46.473057}, "countryCode": "BR"}, "averageDailyFlights": 3.57, "operators": [{"name": "Sky Airline", "iata": "H2", "icao": "SKU"}, {"name": "LATAM", "iata": "LA", "icao": "LAN"}]}, {"destination": {"icao": "MMMX", "iata": "MEX", "name": "Mexico City Licenciado Benito Juarez", "shortName": "Licenciado Benito Juarez", "municipalityName": "Mexico City", "location": {"lat": 19.4363, "lon": -99.0721}, "countryCode": "MX"}, "averageDailyFlights": 3.43, "operators": [{"name": "LATAM", "iata": "LA", "icao": "LAN"}, {"name": "Aeromexico", "iata": "AM", "icao": "AMX"}, {"name": "Volaris", "iata": "Y4", "icao": "VOI"}]}, {"destination": {"icao": "SPTU", "iata": "PEM", "name": "Puerto Maldonado Padre Aldamiz", "shortName": "Padre Aldamiz", "municipalityName": "Puerto Maldonado", "location": {"lat": -12.613599, "lon": -69.2286}, "countryCode": "PE"}, "averageDailyFlights": 3.29, "operators": [{"name": "LATAM", "iata": "LA", "icao": "LAN"}]}, {"destination": {"icao": "MDPC", "iata": "PUJ", "name": "Punta Cana ", "shortName": "Punta Cana", "municipalityName": "Punta Cana", "location": {"lat": 18.567398, "lon": -68.3634}, "countryCode": "DO"}, "averageDailyFlights": 3.29, "operators": [{"name": "LATAM", "iata": "LA", "icao": "LAN"}, {"name": "Sky Airline", "iata": "H2", "icao": "SKU"}]}, {"destination": {"icao": "KMIA", "iata": "MIA", "name": "Miami ", "shortName": "Miami", "municipalityName": "Miami", "location": {"lat": 25.7932, "lon": -80.2906}, "countryCode": "US"}, "averageDailyFlights": 3.14, "operators": [{"name": "American Airlines", "iata": "AA", "icao": "AAL"}]}, {"destination": {"icao": "SAEZ", "iata": "EZE", "name": "Buenos Aires Ministro Pistarini", "shortName": "Ministro Pistarini", "municipalityName": "Buenos Aires", "location": {"lat": -34.8222, "lon": -58.5358}, "countryCode": "AR"}, "averageDailyFlights": 2.44, "operators": [{"name": "Air Labrador", "iata": "WJ", "icao": "LAL"}, {"name": "Sky Airline", "iata": "H2", "icao": "SKU"}, {"name": "LATAM", "iata": "LA", "icao": "LAN"}]}, {"destination": {"icao": "SEQM", "iata": "UIO", "name": "Quito Mariscal Sucre", "shortName": "Mariscal Sucre", "municipalityName": "Quito", "location": {"lat": -0.129166, "lon": -78.3575}, "countryCode": "EC"}, "averageDailyFlights": 2.43, "operators": [{"name": "LATAM", "iata": "LA", "icao": "LAN"}]}, {"destination": {"icao": "KATL", "iata": "ATL", "name": "Atlanta Hartsfield Jackson", "shortName": "Hartsfield Jackson", "municipalityName": "Atlanta", "location": {"lat": 33.6367, "lon": -84.4281}, "countryCode": "US"}, "averageDailyFlights": 2.14, "operators": [{"name": "Delta Air Lines", "iata": "DL", "icao": "DAL"}, {"name": "LATAM", "iata": "LA", "icao": "LAN"}]}, {"destination": {"icao": "SLVR", "iata": "VVI", "name": "Santa Cruz de la Sierra Viru Viru", "shortName": "Viru Viru", "municipalityName": "Santa Cruz de la Sierra", "location": {"lat": -17.6448, "lon": -63.1354}, "countryCode": "BO"}, "averageDailyFlights": 2.14, "operators": [{"name": "LATAM", "iata": "LA", "icao": "LAN"}, {"name": "BoA", "iata": "OB", "icao": "BOV"}]}, {"destination": {"icao": "KFLL", "iata": "FLL", "name": "Fort Lauderdale Hollywood", "shortName": "Hollywood", "municipalityName": "Fort Lauderdale", "location": {"lat": 26.0726, "lon": -80.1527}, "countryCode": "US"}, "averageDailyFlights": 2.0, "operators": [{"name": "Spirit Airlines", "iata": "NK", "icao": "NKS"}, {"name": "JetBlue Airways", "iata": "B6", "icao": "JBU"}]}, {"destination": {"icao": "SEGU", "iata": "GYE", "name": "Guayaquil Jos\u00e9 Joaqu\u00edn de Olmedo", "shortName": "Jos\u00e9 Joaqu\u00edn de Olmedo", "municipalityName": "Guayaquil", "location": {"lat": -2.157419, "lon": -79.8836}, "countryCode": "EC"}, "averageDailyFlights": 1.57, "operators": [{"name": "LATAM", "iata": "LA", "icao": "LAN"}]}, {"destination": {"icao": "SPTN", "iata": "TCQ", "name": "Tacna Coronel FAP Carlos Ciriani Santa Rosa", "shortName": "Coronel FAP Carlos Ciriani Santa Rosa", "municipalityName": "Tacna", "location": {"lat": -18.0533, "lon": -70.2758}, "countryCode": "PE"}, "averageDailyFlights": 1.16, "operators": [{"name": "Sky Airline", "iata": "H2", "icao": "SKU"}, {"name": "LATAM", "iata": "LA", "icao": "LAN"}]}, {"destination": {"icao": "SBBR", "iata": "BSB", "name": "Bras\u00edlia Presidente Juscelino Kubistschek", "shortName": "Presidente Juscelino Kubistschek", "municipalityName": "Bras\u00edlia", "location": {"lat": -15.869167, "lon": -47.920834}, "countryCode": "BR"}, "averageDailyFlights": 1.14, "operators": [{"name": "LATAM", "iata": "LA", "icao": "LAN"}]}, {"destination": {"icao": "SABE", "iata": "AEP", "name": "Buenos Aires Jorge Newbery Airpark", "shortName": "Jorge Newbery Airpark", "municipalityName": "Buenos Aires", "location": {"lat": -34.5592, "lon": -58.4156}, "countryCode": "AR"}, "averageDailyFlights": 1.14, "operators": [{"name": "Aerolineas Argentinas", "iata": "AR", "icao": "ARG"}]}, {"destination": {"icao": "SACO", "iata": "COR", "name": "C\u00f3rdoba Ingeniero Ambrosio Taravella", "shortName": "Ingeniero Ambrosio Taravella", "municipalityName": "C\u00f3rdoba", "location": {"lat": -31.3236, "lon": -64.208}, "countryCode": "AR"}, "averageDailyFlights": 1.14, "operators": [{"name": "LATAM", "iata": "LA", "icao": "LAN"}]}, {"destination": {"icao": "KIAH", "iata": "IAH", "name": "Houston George Bush", "shortName": "George Bush", "municipalityName": "Houston", "location": {"lat": 29.9844, "lon": -95.3414}, "countryCode": "US"}, "averageDailyFlights": 1.14, "operators": [{"name": "United Airlines", "iata": "UA", "icao": "UAL"}]}, {"destination": {"icao": "KLAX", "iata": "LAX", "name": "Los Angeles ", "shortName": "Los Angeles", "municipalityName": "Los Angeles", "location": {"lat": 33.9425, "lon": -118.408}, "countryCode": "US"}, "averageDailyFlights": 1.14, "operators": [{"name": "LATAM", "iata": "LA", "icao": "LAN"}]}, {"destination": {"icao": "SBGL", "iata": "GIG", "name": "Rio de Janeiro RIOgale\u00e3o \u2013 Tom Jobim", "shortName": "RIOgale\u00e3o \u2013 Tom Jobim", "municipalityName": "Rio de Janeiro", "location": {"lat": -22.81, "lon": -43.250557}, "countryCode": "BR"}, "averageDailyFlights": 1.14, "operators": [{"name": "LATAM", "iata": "LA", "icao": "LAN"}]}, {"destination": {"icao": "SKRG", "iata": "MDE", "name": "Rionegro Jose Maria C\u00f3rdova", "shortName": "Jose Maria C\u00f3rdova", "municipalityName": "Rionegro", "location": {"lat": 6.16454, "lon": -75.4231}, "countryCode": "CO"}, "averageDailyFlights": 1.14, "operators": [{"name": "LATAM", "iata": "LA", "icao": "LAN"}]}, {"destination": {"icao": "MROC", "iata": "SJO", "name": "San Jos\u00e9 Juan Santamaria", "shortName": "Juan Santamaria", "municipalityName": "San Jos\u00e9", "location": {"lat": 9.99386, "lon": -84.2088}, "countryCode": "CR"}, "averageDailyFlights": 1.14, "operators": [{"name": "LATAM", "iata": "LA", "icao": "LAN"}, {"name": "Volaris Costa Rica", "iata": "Q6", "icao": "VOC"}]}, {"destination": {"icao": "EHAM", "iata": "AMS", "name": "Amsterdam Schiphol", "shortName": "Schiphol", "municipalityName": "Amsterdam", "location": {"lat": 52.3086, "lon": 4.763889}, "countryCode": "NL"}, "averageDailyFlights": 1.0, "operators": [{"name": "KLM", "iata": "KL", "icao": "KLM"}]}, {"destination": {"icao": "SLLP", "iata": "LPB", "name": "La Paz / El Alto El Alto", "shortName": "El Alto", "municipalityName": "La Paz / El Alto", "location": {"lat": -16.5133, "lon": -68.1923}, "countryCode": "BO"}, "averageDailyFlights": 1.0, "operators": [{"name": "LATAM", "iata": "LA", "icao": "LAN"}]}, {"destination": {"icao": "LFPG", "iata": "CDG", "name": "Paris Charles de Gaulle", "shortName": "Charles de Gaulle", "municipalityName": "Paris", "location": {"lat": 49.0128, "lon": 2.549999}, "countryCode": "FR"}, "averageDailyFlights": 1.0, "operators": [{"name": "Air France", "iata": "AF", "icao": "AFR"}]}, {"destination": {"icao": "SKCG", "iata": "CTG", "name": "Cartagena de Indias Rafael Nu\u00f1ez", "shortName": "Rafael Nu\u00f1ez", "municipalityName": "Cartagena de Indias", "location": {"lat": 10.4424, "lon": -75.513}, "countryCode": "CO"}, "averageDailyFlights": 0.86, "operators": [{"name": "LATAM", "iata": "LA", "icao": "LAN"}]}, {"destination": {"icao": "KEWR", "iata": "EWR", "name": "Newark Liberty", "shortName": "Liberty", "municipalityName": "Newark", "location": {"lat": 40.6925, "lon": -74.1687}, "countryCode": "US"}, "averageDailyFlights": 0.86, "operators": [{"name": "United Airlines", "iata": "UA", "icao": "UAL"}]}, {"destination": {"icao": "SGAS", "iata": "ASU", "name": "Asunci\u00f3n Silvio Pettirossi", "shortName": "Silvio Pettirossi", "municipalityName": "Asunci\u00f3n", "location": {"lat": -25.24, "lon": -57.52}, "countryCode": "PY"}, "averageDailyFlights": 0.71, "operators": [{"name": "LATAM", "iata": "LA", "icao": "LAN"}]}, {"destination": {"icao": "SAME", "iata": "MDZ", "name": "Mendoza El Plumerillo", "shortName": "El Plumerillo", "municipalityName": "Mendoza", "location": {"lat": -32.8317, "lon": -68.7929}, "countryCode": "AR"}, "averageDailyFlights": 0.71, "operators": [{"name": "LATAM", "iata": "LA", "icao": "LAN"}]}, {"destination": {"name": "Chachapoyas"}, "averageDailyFlights": 0.71, "operators": [{"name": "Aerodynamics, Inc."}]}, {"destination": {"icao": "SBPA", "iata": "POA", "name": "Porto Alegre Salgado Filho", "shortName": "Salgado Filho", "municipalityName": "Porto Alegre", "location": {"lat": -29.9944, "lon": -51.1714}, "countryCode": "BR"}, "averageDailyFlights": 0.57, "operators": [{"name": "LATAM", "iata": "LA", "icao": "LAN"}]}, {"destination": {"icao": "SCFA", "iata": "ANF", "name": "Antofagasta Cerro Moreno", "shortName": "Cerro Moreno", "municipalityName": "Antofagasta", "location": {"lat": -23.444498, "lon": -70.4451}, "countryCode": "CL"}, "averageDailyFlights": 0.43, "operators": [{"name": "LATAM", "iata": "LA", "icao": "LAN"}]}, {"destination": {"icao": "SPLO", "iata": "ILQ", "name": "Ilo ", "shortName": "Ilo", "municipalityName": "Ilo", "location": {"lat": -17.695, "lon": -71.344}, "countryCode": "PE"}, "averageDailyFlights": 0.29, "operators": [{"name": "LATAM", "iata": "LA", "icao": "LAN"}]}, {"destination": {"name": "Muzaffarnagar"}, "averageDailyFlights": 0.29, "operators": [{"name": "Aerodynamics, Inc."}]}, {"destination": {"icao": "SVMI", "iata": "CCS", "name": "Caracas Sim\u00f3n Bol\u00edvar", "shortName": "Sim\u00f3n Bol\u00edvar", "municipalityName": "Caracas", "location": {"lat": 10.603116, "lon": -66.990585}, "countryCode": "VE"}, "averageDailyFlights": 0.14, "operators": [{"name": "Conviasa", "iata": "V0", "icao": "VCV"}]}, {"destination": {"icao": "KJFK", "iata": "JFK", "name": "New York John F Kennedy", "shortName": "John F Kennedy", "municipalityName": "New York", "location": {"lat": 40.6398, "lon": -73.7789}, "countryCode": "US"}, "averageDailyFlights": 0.14, "operators": [{"name": "LATAM", "iata": "LA", "icao": "LAN"}]}, {"destination": {"name": "Montevideo"}, "averageDailyFlights": 0.14, "operators": [{"name": "LATAM", "iata": "LA", "icao": "LAN"}]}]}