{"routes": [{"destination": {"icao": "TNCM", "iata": "SXM", "name": "Saint Martin Princess Juliana", "shortName": "Princess Juliana", "municipalityName": "Saint Martin", "location": {"lat": 18.041, "lon": -63.1089}, "countryCode": "SX"}, "averageDailyFlights": 2.5, "operators": [{"name": "Winair", "iata": "WM", "icao": "WIA"}]}, {"destination": {"icao": "KMIA", "iata": "MIA", "name": "Miami ", "shortName": "Miami", "municipalityName": "Miami", "location": {"lat": 25.7932, "lon": -80.2906}, "countryCode": "US"}, "averageDailyFlights": 1.29, "operators": [{"name": "American Airlines", "iata": "AA", "icao": "AAL"}]}, {"destination": {"icao": "TAPA", "iata": "ANU", "name": "St. George V.C. Bird", "shortName": "V.C. Bird", "municipalityName": "St. George", "location": {"lat": 17.1367, "lon": -61.7927}, "countryCode": "AG"}, "averageDailyFlights": 0.71, "operators": [{"name": "British Airways", "iata": "BA", "icao": "BAW"}, {"name": "LIAT", "iata": "LI", "icao": "LIA"}]}, {"destination": {"icao": "TBPB", "iata": "BGI", "name": "Bridgetown Sir Grantley Adams", "shortName": "Sir Grantley Adams", "municipalityName": "Bridgetown", "location": {"lat": 13.0746, "lon": -59.4925}, "countryCode": "BB"}, "averageDailyFlights": 0.57, "operators": [{"name": "interCaribbean Airways", "iata": "JY", "icao": "IWY"}]}, {"destination": {"icao": "TJSJ", "iata": "SJU", "name": "San Juan Luis Munoz Marin", "shortName": "Luis Munoz Marin", "municipalityName": "San Juan", "location": {"lat": 18.4394, "lon": -66.0018}, "countryCode": "PR"}, "averageDailyFlights": 0.43, "operators": [{"name": "Silver Airways", "iata": "3M", "icao": "SIL"}]}, {"destination": {"icao": "TUPJ", "iata": "EIS", "name": "Road Town Terrance B. Lettsome", "shortName": "Terrance B. Lettsome", "municipalityName": "Road Town", "location": {"lat": 18.4448, "lon": -64.543}, "countryCode": "VG"}, "averageDailyFlights": 0.29, "operators": [{"name": "LIAT", "iata": "LI", "icao": "LIA"}]}, {"destination": {"icao": "MDSD", "iata": "SDQ", "name": "Santo Domingo City Las Am\u00e9ricas", "shortName": "Las Am\u00e9ricas", "municipalityName": "Santo Domingo City", "location": {"lat": 18.4297, "lon": -69.6689}, "countryCode": "DO"}, "averageDailyFlights": 0.29, "operators": [{"name": "Sky High Aviation", "iata": "DO", "icao": "SHH"}]}, {"destination": {"icao": "KATL", "iata": "ATL", "name": "Atlanta Hartsfield Jackson", "shortName": "Hartsfield Jackson", "municipalityName": "Atlanta", "location": {"lat": 33.6367, "lon": -84.4281}, "countryCode": "US"}, "averageDailyFlights": 0.14, "operators": [{"name": "Delta Air Lines", "iata": "DL", "icao": "DAL"}]}, {"destination": {"icao": "TLPC", "iata": "SLU", "name": "Castries George F. L. Charles", "shortName": "George F. L. Charles", "municipalityName": "Castries", "location": {"lat": 14.0202, "lon": -60.9929}, "countryCode": "LC"}, "averageDailyFlights": 0.14, "operators": [{"name": "LIAT", "iata": "LI", "icao": "LIA"}]}]}