{"routes": [{"destination": {"icao": "UNNT", "iata": "OVB", "localCode": "\u0422\u041b\u0427", "name": "Novosibirsk Tolmachevo", "shortName": "Tolmachevo", "municipalityName": "Novosibirsk", "location": {"lat": 55.0126, "lon": 82.6507}, "countryCode": "RU"}, "averageDailyFlights": 3.57, "operators": [{"name": "S7 Airlines", "iata": "S7", "icao": "SBI"}, {"name": "Yakutia", "iata": "R3", "icao": "SYL"}]}, {"destination": {"icao": "UIII", "iata": "IKT", "localCode": "\u0418\u041a\u0422", "name": "Irkutsk ", "shortName": "Irkutsk", "municipalityName": "Irkutsk", "location": {"lat": 52.268, "lon": 104.389}, "countryCode": "RU"}, "averageDailyFlights": 2.86, "operators": [{"name": "S7 Airlines", "iata": "S7", "icao": "SBI"}, {"name": "Yakutia", "iata": "R3", "icao": "SYL"}, {"name": "IrAero", "iata": "IO", "icao": "IAE"}]}, {"destination": {"icao": "USNN", "iata": "NJC", "localCode": "\u041d\u0416\u0412", "name": "Nizhnevartovsk ", "shortName": "Nizhnevartovsk", "municipalityName": "Nizhnevartovsk", "location": {"lat": 60.9493, "lon": 76.4836}, "countryCode": "RU"}, "averageDailyFlights": 1.86, "operators": [{"name": "Yakutia", "iata": "R3", "icao": "SYL"}]}, {"destination": {"name": "Srednekolymsk"}, "averageDailyFlights": 1.86, "operators": [{"name": "Polar Airlines", "iata": "PI", "icao": "RKA"}, {"name": "IrAero", "iata": "IO", "icao": "IAE"}, {"name": "Yakutia", "iata": "R3", "icao": "SYL"}]}, {"destination": {"icao": "UEBB", "iata": "BQJ", "localCode": "\u0411\u0422\u0413", "name": "Batagay ", "shortName": "Batagay", "municipalityName": "Batagay", "location": {"lat": 67.648, "lon": 134.695}, "countryCode": "RU"}, "averageDailyFlights": 1.57, "operators": [{"name": "Polar Airlines", "iata": "PI", "icao": "RKA"}, {"name": "IrAero", "iata": "IO", "icao": "IAE"}, {"name": "Yakutia", "iata": "R3", "icao": "SYL"}]}, {"destination": {"name": "Ust-Kuyga"}, "averageDailyFlights": 1.27, "operators": [{"name": "Polar Airlines", "iata": "PI", "icao": "RKA"}, {"name": "Yakutia", "iata": "R3", "icao": "SYL"}, {"name": "IrAero", "iata": "IO", "icao": "IAE"}]}, {"destination": {"icao": "UHWW", "iata": "VVO", "localCode": "\u0412\u0412\u041e", "name": "Vladivostok Knevichi", "shortName": "Knevichi", "municipalityName": "Vladivostok", "location": {"lat": 43.399, "lon": 132.148}, "countryCode": "RU"}, "averageDailyFlights": 1.14, "operators": [{"name": "S7 Airlines", "iata": "S7", "icao": "SBI"}, {"name": "Yakutia", "iata": "R3", "icao": "SYL"}]}, {"destination": {"icao": "UHHH", "iata": "KHV", "localCode": "\u0425\u0411\u0420", "name": "Khabarovsk Novy", "shortName": "Novy", "municipalityName": "Khabarovsk", "location": {"lat": 48.528, "lon": 135.188}, "countryCode": "RU"}, "averageDailyFlights": 1.0, "operators": [{"name": "Yakutia", "iata": "R3", "icao": "SYL"}, {"name": "S7 Airlines", "iata": "S7", "icao": "SBI"}]}, {"destination": {"icao": "UERR", "iata": "MJZ", "localCode": "\u041c\u0418\u0420", "name": "Mirny ", "shortName": "Mirny", "municipalityName": "Mirny", "location": {"lat": 62.5347, "lon": 114.039}, "countryCode": "RU"}, "averageDailyFlights": 1.0, "operators": [{"name": "Alrosa", "iata": "6R", "icao": "DRU"}, {"name": "Yakutia", "iata": "R3", "icao": "SYL"}]}, {"destination": {"name": "Deputatskiy"}, "averageDailyFlights": 1.0, "operators": [{"name": "Yakutia", "iata": "R3", "icao": "SYL"}, {"name": "IrAero", "iata": "IO", "icao": "IAE"}]}, {"destination": {"icao": "UEST", "iata": "IKS", "localCode": "\u0422\u0421\u0418", "name": "Tiksi ", "shortName": "Tiksi", "municipalityName": "Tiksi", "location": {"lat": 71.6977, "lon": 128.903}, "countryCode": "RU"}, "averageDailyFlights": 0.86, "operators": [{"name": "Polar Airlines", "iata": "PI", "icao": "RKA"}, {"name": "Yakutia", "iata": "R3", "icao": "SYL"}]}, {"destination": {"icao": "UNKL", "iata": "KJA", "localCode": "\u041a\u042f\u0410", "name": "Krasnoyarsk Yemelyanovo", "shortName": "Yemelyanovo", "municipalityName": "Krasnoyarsk", "location": {"lat": 56.1729, "lon": 92.4933}, "countryCode": "RU"}, "averageDailyFlights": 0.72, "operators": [{"name": "KrasAvia", "iata": "KV", "icao": "SSJ"}, {"name": "Yakutia", "iata": "R3", "icao": "SYL"}]}, {"destination": {"icao": "USSS", "iata": "SVX", "localCode": "\u041a\u041b\u0426", "name": "Ekaterinburg Koltsovo", "shortName": "Koltsovo", "municipalityName": "Ekaterinburg", "location": {"lat": 56.7431, "lon": 60.8027}, "countryCode": "RU"}, "averageDailyFlights": 0.71, "operators": [{"name": "Ural Airlines", "iata": "U6", "icao": "SVR"}, {"name": "Yakutia", "iata": "R3", "icao": "SYL"}]}, {"destination": {"name": "Belaya Gora"}, "averageDailyFlights": 0.71, "operators": [{"name": "Polar Airlines", "iata": "PI", "icao": "RKA"}, {"name": "IrAero", "iata": "IO", "icao": "IAE"}]}, {"destination": {"name": "Olyokminsk"}, "averageDailyFlights": 0.71, "operators": [{"name": "Yakutia", "iata": "R3", "icao": "SYL"}, {"name": "Polar Airlines", "iata": "PI", "icao": "RKA"}]}, {"destination": {"icao": "UESO", "iata": "CKH", "localCode": "\u0427\u041a\u0414", "name": "Chokurdah Chokurdakh", "shortName": "Chokurdakh", "municipalityName": "Chokurdah", "location": {"lat": 70.6231, "lon": 147.902}, "countryCode": "RU"}, "averageDailyFlights": 0.57, "operators": [{"name": "Yakutia", "iata": "R3", "icao": "SYL"}]}, {"destination": {"name": "Honuu"}, "averageDailyFlights": 0.57, "operators": [{"name": "Polar Airlines", "iata": "PI", "icao": "RKA"}, {"name": "IrAero", "iata": "IO", "icao": "IAE"}]}, {"destination": {"name": "Olenyok"}, "averageDailyFlights": 0.57, "operators": [{"name": "Yakutia", "iata": "R3", "icao": "SYL"}, {"name": "IrAero", "iata": "IO", "icao": "IAE"}]}, {"destination": {"name": "Saskylakh"}, "averageDailyFlights": 0.57, "operators": [{"name": "Polar Airlines", "iata": "PI", "icao": "RKA"}]}, {"destination": {"icao": "UERL", "iata": "ULK", "localCode": "\u041b\u0421\u041a", "name": "Lensk ", "shortName": "Lensk", "municipalityName": "Lensk", "location": {"lat": 60.7206, "lon": 114.826}, "countryCode": "RU"}, "averageDailyFlights": 0.43, "operators": [{"name": "IrAero", "iata": "IO", "icao": "IAE"}]}, {"destination": {"name": "Zyryanka"}, "averageDailyFlights": 0.43, "operators": [{"name": "Polar Airlines", "iata": "PI", "icao": "RKA"}]}, {"destination": {"icao": "UEBS", "iata": "SUK", "localCode": "\u0421\u041a\u042b", "name": "Batagay-Alyta Sakkyryr", "shortName": "Sakkyryr", "municipalityName": "Batagay-Alyta", "location": {"lat": 67.792, "lon": 130.394}, "countryCode": "RU"}, "averageDailyFlights": 0.29, "operators": [{"name": "Polar Airlines", "iata": "PI", "icao": "RKA"}]}, {"destination": {"icao": "UELL", "iata": "NER", "localCode": "\u041d\u0420\u0413", "name": "Neryungri Chulman", "shortName": "Chulman", "municipalityName": "Neryungri", "location": {"lat": 56.9139, "lon": 124.914}, "countryCode": "RU"}, "averageDailyFlights": 0.29, "operators": [{"name": "Yakutia", "iata": "R3", "icao": "SYL"}]}, {"destination": {"icao": "UENS", "iata": "SUY", "localCode": "\u0421\u0423\u041d", "name": "Suntar ", "shortName": "Suntar", "municipalityName": "Suntar", "location": {"lat": 62.185, "lon": 117.635}, "countryCode": "RU"}, "averageDailyFlights": 0.29, "operators": [{"name": "Polar Airlines", "iata": "PI", "icao": "RKA"}]}, {"destination": {"icao": "UHSS", "iata": "UUS", "localCode": "\u042e\u0416\u0425", "name": "Yuzhno-Sakhalinsk ", "shortName": "Yuzhno-Sakhalinsk", "municipalityName": "Yuzhno-Sakhalinsk", "location": {"lat": 46.8887, "lon": 142.718}, "countryCode": "RU"}, "averageDailyFlights": 0.29, "operators": [{"name": "Gazpromavia", "iata": "4G", "icao": "GZP"}, {"name": "Yakutia", "iata": "R3", "icao": "SYL"}]}, {"destination": {"icao": "UEVV", "iata": "ZIX", "localCode": "\u0416\u0418\u0413", "name": "Zhigansk ", "shortName": "Zhigansk", "municipalityName": "Zhigansk", "location": {"lat": 66.7965, "lon": 123.361}, "countryCode": "RU"}, "averageDailyFlights": 0.29, "operators": [{"name": "Polar Airlines", "iata": "PI", "icao": "RKA"}]}, {"destination": {"name": "Blagoveschensk"}, "averageDailyFlights": 0.29, "operators": [{"name": "Yakutia", "iata": "R3", "icao": "SYL"}, {"name": "IrAero", "iata": "IO", "icao": "IAE"}]}, {"destination": {"icao": "UIAA", "iata": "HTA", "localCode": "\u0421\u0425\u0422", "name": "Chita Kadala", "shortName": "Kadala", "municipalityName": "Chita", "location": {"lat": 52.0263, "lon": 113.306}, "countryCode": "RU"}, "averageDailyFlights": 0.14, "operators": [{"name": "Yakutia", "iata": "R3", "icao": "SYL"}]}, {"destination": {"icao": "ZYHB", "iata": "HRB", "name": "Harbin Taiping", "shortName": "Taiping", "municipalityName": "Harbin", "location": {"lat": 45.6234, "lon": 126.25}, "countryCode": "CN"}, "averageDailyFlights": 0.14, "operators": [{"name": "Yakutia", "iata": "R3", "icao": "SYL"}]}, {"destination": {"icao": "UHMM", "iata": "GDX", "localCode": "\u041c\u0414\u0421", "name": "Magadan Sokol", "shortName": "Sokol", "municipalityName": "Magadan", "location": {"lat": 59.911, "lon": 150.72}, "countryCode": "RU"}, "averageDailyFlights": 0.14, "operators": [{"name": "IrAero", "iata": "IO", "icao": "IAE"}]}, {"destination": {"icao": "UNOO", "iata": "OMS", "localCode": "\u041e\u041c\u0421", "name": "Omsk Central", "shortName": "Central", "municipalityName": "Omsk", "location": {"lat": 54.967, "lon": 73.3105}, "countryCode": "RU"}, "averageDailyFlights": 0.14, "operators": [{"name": "Yakutia", "iata": "R3", "icao": "SYL"}]}, {"destination": {"icao": "UERP", "iata": "PYJ", "localCode": "\u041f\u041b\u042f", "name": "Udachniy Polyarny", "shortName": "Polyarny", "municipalityName": "Udachniy", "location": {"lat": 66.4004, "lon": 112.03}, "countryCode": "RU"}, "averageDailyFlights": 0.14, "operators": [{"name": "Yakutia", "iata": "R3", "icao": "SYL"}]}, {"destination": {"icao": "UENI", "iata": "VHV", "localCode": "\u0412\u0425\u0412", "name": "Verkhnevilyuisk ", "shortName": "Verkhnevilyuisk", "municipalityName": "Verkhnevilyuisk", "location": {"lat": 63.458057, "lon": 120.269165}, "countryCode": "RU"}, "averageDailyFlights": 0.14, "operators": [{"name": "Polar Airlines", "iata": "PI", "icao": "RKA"}]}, {"destination": {"name": "Moscow"}, "averageDailyFlights": 0.14, "operators": [{"name": "Yakutia", "iata": "R3", "icao": "SYL"}]}, {"destination": {"name": "Nyurba"}, "averageDailyFlights": 0.14, "operators": [{"name": "Polar Airlines", "iata": "PI", "icao": "RKA"}]}, {"destination": {"name": "Ulan Ude"}, "averageDailyFlights": 0.14, "operators": [{"name": "Yakutia", "iata": "R3", "icao": "SYL"}]}]}