{"routes": [{"destination": {"icao": "UUWW", "iata": "VKO", "localCode": "\u0412\u041d\u041a", "name": "Moscow Vnukovo", "shortName": "Vnukovo", "municipalityName": "Moscow", "location": {"lat": 55.5915, "lon": 37.2615}, "countryCode": "RU"}, "averageDailyFlights": 43.1, "operators": [{"name": "Yakutia", "iata": "R3", "icao": "SYL"}, {"name": "LTD I Fly", "iata": "F7", "icao": "RSY"}, {"name": "Ural Airlines", "iata": "U6", "icao": "SVR"}, {"name": "Aeroflot", "iata": "SU", "icao": "AFL"}, {"name": "NordStar Airlines", "iata": "Y7", "icao": "TYA"}, {"name": "S7 Airlines", "iata": "S7", "icao": "SBI"}, {"name": "UTAir", "iata": "UT", "icao": "UTA"}, {"name": "Pobeda", "iata": "DP", "icao": "PBD"}, {"name": "Nordwind Airlines", "iata": "N4", "icao": "NWS"}, {"name": "Yamal Airlines", "iata": "YC", "icao": "LLM"}, {"name": "Smartavia", "iata": "5N", "icao": "AUL"}, {"name": "Globus", "iata": "XT", "icao": "CTU"}]}, {"destination": {"icao": "ULLI", "iata": "LED", "localCode": "\u041f\u041b\u041a", "name": "Saint-Petersburg Pulkovo", "shortName": "Pulkovo", "municipalityName": "Saint-Petersburg", "location": {"lat": 59.8003, "lon": 30.2625}, "countryCode": "RU"}, "averageDailyFlights": 15.84, "operators": [{"name": "Rossiya Airlines", "iata": "FV", "icao": "SDM"}, {"name": "Nordwind Airlines", "iata": "N4", "icao": "NWS"}, {"name": "Smartavia", "iata": "5N", "icao": "AUL"}, {"name": "Ural Airlines", "iata": "U6", "icao": "SVR"}, {"name": "Aeroflot", "iata": "SU", "icao": "AFL"}, {"name": "Pobeda", "iata": "DP", "icao": "PBD"}]}, {"destination": {"icao": "UNNT", "iata": "OVB", "localCode": "\u0422\u041b\u0427", "name": "Novosibirsk Tolmachevo", "shortName": "Tolmachevo", "municipalityName": "Novosibirsk", "location": {"lat": 55.0126, "lon": 82.6507}, "countryCode": "RU"}, "averageDailyFlights": 13.57, "operators": [{"name": "Pobeda", "iata": "DP", "icao": "PBD"}, {"name": "S7 Airlines", "iata": "S7", "icao": "SBI"}, {"name": "Aeroflot", "iata": "SU", "icao": "AFL"}, {"name": "Nordwind Airlines", "iata": "N4", "icao": "NWS"}, {"name": "Smartavia", "iata": "5N", "icao": "AUL"}, {"name": "Yakutia", "iata": "R3", "icao": "SYL"}, {"name": "Pegas Fly", "iata": "EO", "icao": "KAR"}]}, {"destination": {"icao": "USSS", "iata": "SVX", "localCode": "\u041a\u041b\u0426", "name": "Ekaterinburg Koltsovo", "shortName": "Koltsovo", "municipalityName": "Ekaterinburg", "location": {"lat": 56.7431, "lon": 60.8027}, "countryCode": "RU"}, "averageDailyFlights": 13.0, "operators": [{"name": "Ural Airlines", "iata": "U6", "icao": "SVR"}, {"name": "Aeroflot", "iata": "SU", "icao": "AFL"}, {"name": "Pegas Fly", "iata": "EO", "icao": "KAR"}, {"name": "Nordwind Airlines", "iata": "N4", "icao": "NWS"}, {"name": "Smartavia", "iata": "5N", "icao": "AUL"}, {"name": "Pobeda", "iata": "DP", "icao": "PBD"}, {"name": "NordStar Airlines", "iata": "Y7", "icao": "TYA"}]}, {"destination": {"icao": "LTFM", "iata": "IST", "name": "Istanbul ", "shortName": "Istanbul", "municipalityName": "Istanbul", "location": {"lat": 41.275276, "lon": 28.751944}, "countryCode": "TR"}, "averageDailyFlights": 7.43, "operators": [{"name": "Aeroflot", "iata": "SU", "icao": "AFL"}, {"name": "IrAero", "iata": "IO", "icao": "IAE"}, {"name": "Azimuth Airlines", "iata": "A4", "icao": "AZO"}, {"name": "Red Wings", "iata": "WZ", "icao": "RWZ"}]}, {"destination": {"icao": "UWKD", "iata": "KZN", "name": "Kazan ", "shortName": "Kazan", "municipalityName": "Kazan", "location": {"lat": 55.6062, "lon": 49.2787}, "countryCode": "RU"}, "averageDailyFlights": 6.29, "operators": [{"name": "Aeroflot", "iata": "SU", "icao": "AFL"}, {"name": "Ural Airlines", "iata": "U6", "icao": "SVR"}, {"name": "Smartavia", "iata": "5N", "icao": "AUL"}, {"name": "Pobeda", "iata": "DP", "icao": "PBD"}, {"name": "Nordwind Airlines", "iata": "N4", "icao": "NWS"}]}, {"destination": {"icao": "LTAI", "iata": "AYT", "name": "Antalya ", "shortName": "Antalya", "municipalityName": "Antalya", "location": {"lat": 36.8987, "lon": 30.8005}, "countryCode": "TR"}, "averageDailyFlights": 5.57, "operators": [{"name": "Red Wings", "iata": "WZ", "icao": "RWZ"}, {"name": "Aeroflot", "iata": "SU", "icao": "AFL"}, {"name": "Azimuth Airlines", "iata": "A4", "icao": "AZO"}, {"name": "IrAero", "iata": "IO", "icao": "IAE"}]}, {"destination": {"icao": "UWWW", "iata": "KUF", "localCode": "\u0421\u041a\u0427", "name": "Samara Kurumoch", "shortName": "Kurumoch", "municipalityName": "Samara", "location": {"lat": 53.5049, "lon": 50.1643}, "countryCode": "RU"}, "averageDailyFlights": 4.71, "operators": [{"name": "Nordwind Airlines", "iata": "N4", "icao": "NWS"}, {"name": "Aeroflot", "iata": "SU", "icao": "AFL"}, {"name": "Ural Airlines", "iata": "U6", "icao": "SVR"}, {"name": "Pobeda", "iata": "DP", "icao": "PBD"}, {"name": "Smartavia", "iata": "5N", "icao": "AUL"}]}, {"destination": {"icao": "USCC", "iata": "CEK", "localCode": "\u0427\u041b\u0411", "name": "Chelyabinsk Balandino", "shortName": "Balandino", "municipalityName": "Chelyabinsk", "location": {"lat": 55.3058, "lon": 61.5033}, "countryCode": "RU"}, "averageDailyFlights": 4.57, "operators": [{"name": "Pegas Fly", "iata": "EO", "icao": "KAR"}, {"name": "Ural Airlines", "iata": "U6", "icao": "SVR"}, {"name": "Pobeda", "iata": "DP", "icao": "PBD"}, {"name": "Aeroflot", "iata": "SU", "icao": "AFL"}, {"name": "Nordwind Airlines", "iata": "N4", "icao": "NWS"}, {"name": "Smartavia", "iata": "5N", "icao": "AUL"}, {"name": "NordStar Airlines", "iata": "Y7", "icao": "TYA"}]}, {"destination": {"icao": "UNKL", "iata": "KJA", "localCode": "\u041a\u042f\u0410", "name": "Krasnoyarsk Yemelyanovo", "shortName": "Yemelyanovo", "municipalityName": "Krasnoyarsk", "location": {"lat": 56.1729, "lon": 92.4933}, "countryCode": "RU"}, "averageDailyFlights": 4.14, "operators": [{"name": "NordStar Airlines", "iata": "Y7", "icao": "TYA"}, {"name": "Rossiya Airlines", "iata": "FV", "icao": "SDM"}, {"name": "Yakutia", "iata": "R3", "icao": "SYL"}, {"name": "Nordwind Airlines", "iata": "N4", "icao": "NWS"}]}, {"destination": {"icao": "USTR", "iata": "TJM", "localCode": "\u0420\u0429\u041d", "name": "Tyumen Roshchino", "shortName": "Roshchino", "municipalityName": "Tyumen", "location": {"lat": 57.1896, "lon": 65.3243}, "countryCode": "RU"}, "averageDailyFlights": 4.05, "operators": [{"name": "UTAir", "iata": "UT", "icao": "UTA"}, {"name": "Aeroflot", "iata": "SU", "icao": "AFL"}, {"name": "Pobeda", "iata": "DP", "icao": "PBD"}, {"name": "Nordwind Airlines", "iata": "N4", "icao": "NWS"}, {"name": "Smartavia", "iata": "5N", "icao": "AUL"}, {"name": "Yamal Airlines", "iata": "YC", "icao": "LLM"}]}, {"destination": {"icao": "UWUU", "iata": "UFA", "localCode": "\u0423\u0424\u0410", "name": "Ufa ", "shortName": "Ufa", "municipalityName": "Ufa", "location": {"lat": 54.5575, "lon": 55.8744}, "countryCode": "RU"}, "averageDailyFlights": 3.86, "operators": [{"name": "Smartavia", "iata": "5N", "icao": "AUL"}, {"name": "Pobeda", "iata": "DP", "icao": "PBD"}, {"name": "NordStar Airlines", "iata": "Y7", "icao": "TYA"}, {"name": "Nordwind Airlines", "iata": "N4", "icao": "NWS"}, {"name": "UTAir", "iata": "UT", "icao": "UTA"}, {"name": "Ural Airlines", "iata": "U6", "icao": "SVR"}, {"name": "Aeroflot", "iata": "SU", "icao": "AFL"}]}, {"destination": {"icao": "UDYZ", "iata": "EVN", "localCode": "\u0417\u0412\u0420", "name": "Yerevan Zvartnots", "shortName": "Zvartnots", "municipalityName": "Yerevan", "location": {"lat": 40.1473, "lon": 44.3959}, "countryCode": "AM"}, "averageDailyFlights": 3.73, "operators": [{"name": "Aeroflot", "iata": "SU", "icao": "AFL"}, {"name": "Meraj Air", "iata": "JI", "icao": "MRJ"}, {"name": "Red Wings", "iata": "WZ", "icao": "RWZ"}, {"name": "Gowair", "iata": "G6", "icao": "GWR"}, {"name": "Azimuth Airlines", "iata": "A4", "icao": "AZO"}, {"name": "Shirak Avia", "iata": "5G", "icao": "SHS"}, {"name": "FlyOne Armenia", "iata": "3F", "icao": "FIE"}]}, {"destination": {"icao": "USPP", "iata": "PEE", "localCode": "\u041f\u0420\u042c", "name": "Perm Bolshoye Savino", "shortName": "Bolshoye Savino", "municipalityName": "Perm", "location": {"lat": 57.9145, "lon": 56.0212}, "countryCode": "RU"}, "averageDailyFlights": 3.71, "operators": [{"name": "Ural Airlines", "iata": "U6", "icao": "SVR"}, {"name": "Pegas Fly", "iata": "EO", "icao": "KAR"}, {"name": "Aeroflot", "iata": "SU", "icao": "AFL"}, {"name": "Pobeda", "iata": "DP", "icao": "PBD"}, {"name": "Smartavia", "iata": "5N", "icao": "AUL"}]}, {"destination": {"icao": "UIII", "iata": "IKT", "localCode": "\u0418\u041a\u0422", "name": "Irkutsk ", "shortName": "Irkutsk", "municipalityName": "Irkutsk", "location": {"lat": 52.268, "lon": 104.389}, "countryCode": "RU"}, "averageDailyFlights": 3.0, "operators": [{"name": "S7 Airlines", "iata": "S7", "icao": "SBI"}]}, {"destination": {"icao": "UNOO", "iata": "OMS", "localCode": "\u041e\u041c\u0421", "name": "Omsk Central", "shortName": "Central", "municipalityName": "Omsk", "location": {"lat": 54.967, "lon": 73.3105}, "countryCode": "RU"}, "averageDailyFlights": 2.17, "operators": [{"name": "Nordwind Airlines", "iata": "N4", "icao": "NWS"}, {"name": "Ural Airlines", "iata": "U6", "icao": "SVR"}, {"name": "Pegas Fly", "iata": "EO", "icao": "KAR"}, {"name": "Yakutia", "iata": "R3", "icao": "SYL"}, {"name": "NordStar Airlines", "iata": "Y7", "icao": "TYA"}, {"name": "Smartavia", "iata": "5N", "icao": "AUL"}, {"name": "Aeroflot", "iata": "SU", "icao": "AFL"}]}, {"destination": {"icao": "USRR", "iata": "SGC", "localCode": "\u0421\u0423\u0420", "name": "Surgut ", "shortName": "Surgut", "municipalityName": "Surgut", "location": {"lat": 61.3437, "lon": 73.4018}, "countryCode": "RU"}, "averageDailyFlights": 2.0, "operators": [{"name": "UTAir", "iata": "UT", "icao": "UTA"}, {"name": "Nordwind Airlines", "iata": "N4", "icao": "NWS"}, {"name": "Pegas Fly", "iata": "EO", "icao": "KAR"}]}, {"destination": {"icao": "URMM", "iata": "MRV", "localCode": "\u041c\u0420\u0412", "name": "Mineralnyye Vody ", "shortName": "Mineralnyye Vody", "municipalityName": "Mineralnyye Vody", "location": {"lat": 44.2251, "lon": 43.0819}, "countryCode": "RU"}, "averageDailyFlights": 1.88, "operators": [{"name": "Azimuth Airlines", "iata": "A4", "icao": "AZO"}]}, {"destination": {"icao": "UWGG", "iata": "GOJ", "localCode": "\u041d\u0416\u0421", "name": "Nizhniy Novgorod Strigino", "shortName": "Strigino", "municipalityName": "Nizhniy Novgorod", "location": {"lat": 56.2301, "lon": 43.784}, "countryCode": "RU"}, "averageDailyFlights": 1.72, "operators": [{"name": "Aeroflot", "iata": "SU", "icao": "AFL"}, {"name": "Smartavia", "iata": "5N", "icao": "AUL"}, {"name": "NordStar Airlines", "iata": "Y7", "icao": "TYA"}, {"name": "Nordwind Airlines", "iata": "N4", "icao": "NWS"}]}, {"destination": {"icao": "UWKE", "iata": "NBC", "localCode": "\u041d\u0416\u041a", "name": "Nizhnekamsk Begishevo", "shortName": "Begishevo", "municipalityName": "Nizhnekamsk", "location": {"lat": 55.5647, "lon": 52.0925}, "countryCode": "RU"}, "averageDailyFlights": 1.43, "operators": [{"name": "Pobeda", "iata": "DP", "icao": "PBD"}, {"name": "Pegas Fly", "iata": "EO", "icao": "KAR"}]}, {"destination": {"icao": "USKK", "iata": "KVX", "localCode": "\u041a\u0418\u041e", "name": "Kirov Pobedilovo", "shortName": "Pobedilovo", "municipalityName": "Kirov", "location": {"lat": 58.5033, "lon": 49.3483}, "countryCode": "RU"}, "averageDailyFlights": 1.3, "operators": [{"name": "Pobeda", "iata": "DP", "icao": "PBD"}, {"name": "Pegas Fly", "iata": "EO", "icao": "KAR"}, {"name": "Nordwind Airlines", "iata": "N4", "icao": "NWS"}]}, {"destination": {"icao": "UWSG", "iata": "GSV", "localCode": "\u0413\u0421\u0412", "name": "Saratov Gagarin International", "shortName": "Gagarin International", "municipalityName": "Saratov", "location": {"lat": 51.71811, "lon": 46.169918}, "countryCode": "RU"}, "averageDailyFlights": 1.14, "operators": [{"name": "Pobeda", "iata": "DP", "icao": "PBD"}]}, {"destination": {"icao": "UTTT", "iata": "TAS", "localCode": "\u0422\u0410\u0421", "name": "Tashkent ", "shortName": "Tashkent", "municipalityName": "Tashkent", "location": {"lat": 41.2579, "lon": 69.2812}, "countryCode": "UZ"}, "averageDailyFlights": 1.14, "operators": [{"name": "Uzbekistan Airways", "iata": "HY", "icao": "UZB"}]}, {"destination": {"icao": "LTBS", "iata": "DLM", "name": "Dalaman ", "shortName": "Dalaman", "municipalityName": "Dalaman", "location": {"lat": 36.7131, "lon": 28.7925}, "countryCode": "TR"}, "averageDailyFlights": 1.0, "operators": [{"name": "Aeroflot", "iata": "SU", "icao": "AFL"}, {"name": "Red Wings", "iata": "WZ", "icao": "RWZ"}]}, {"destination": {"icao": "OMDW", "iata": "DWC", "name": "Jebel Ali Al Maktoum", "shortName": "Al Maktoum", "municipalityName": "Jebel Ali", "location": {"lat": 24.896666, "lon": 55.16139}, "countryCode": "AE"}, "averageDailyFlights": 1.0, "operators": [{"name": "Azimuth Airlines", "iata": "A4", "icao": "AZO"}, {"name": "Aeroflot", "iata": "SU", "icao": "AFL"}]}, {"destination": {"icao": "UNBB", "iata": "BAX", "localCode": "\u0411\u0410\u041d", "name": "Barnaul ", "shortName": "Barnaul", "municipalityName": "Barnaul", "location": {"lat": 53.3638, "lon": 83.5385}, "countryCode": "RU"}, "averageDailyFlights": 0.86, "operators": [{"name": "Pegas Fly", "iata": "EO", "icao": "KAR"}, {"name": "Ural Airlines", "iata": "U6", "icao": "SVR"}, {"name": "Nordwind Airlines", "iata": "N4", "icao": "NWS"}]}, {"destination": {"icao": "LLBG", "iata": "TLV", "name": "Tel Aviv Yafo Ben Gurion", "shortName": "Ben Gurion", "municipalityName": "Tel Aviv Yafo", "location": {"lat": 32.0114, "lon": 34.8867}, "countryCode": "IL"}, "averageDailyFlights": 0.86, "operators": [{"name": "Azimuth Airlines", "iata": "A4", "icao": "AZO"}, {"name": "Red Wings", "iata": "WZ", "icao": "RWZ"}]}, {"destination": {"icao": "UBBB", "iata": "GYD", "localCode": "\u0411\u0410\u041a", "name": "Baku Heydar Aliyev", "shortName": "Heydar Aliyev", "municipalityName": "Baku", "location": {"lat": 40.4675, "lon": 50.0467}, "countryCode": "AZ"}, "averageDailyFlights": 0.71, "operators": [{"name": "AZAL Azerbaijan Airlines", "iata": "J2", "icao": "AHY"}, {"name": "Azimuth Airlines", "iata": "A4", "icao": "AZO"}]}, {"destination": {"icao": "UNEE", "iata": "KEJ", "localCode": "\u041a\u0420\u0412", "name": "Kemerovo ", "shortName": "Kemerovo", "municipalityName": "Kemerovo", "location": {"lat": 55.2701, "lon": 86.1072}, "countryCode": "RU"}, "averageDailyFlights": 0.71, "operators": [{"name": "Ural Airlines", "iata": "U6", "icao": "SVR"}, {"name": "Nordwind Airlines", "iata": "N4", "icao": "NWS"}]}, {"destination": {"icao": "URML", "iata": "MCX", "localCode": "\u041c\u0425\u041b", "name": "Makhachkala Uytash", "shortName": "Uytash", "municipalityName": "Makhachkala", "location": {"lat": 42.8168, "lon": 47.6523}, "countryCode": "RU"}, "averageDailyFlights": 0.71, "operators": [{"name": "Azimuth Airlines", "iata": "A4", "icao": "AZO"}, {"name": "Red Wings", "iata": "WZ", "icao": "RWZ"}]}, {"destination": {"icao": "USNN", "iata": "NJC", "localCode": "\u041d\u0416\u0412", "name": "Nizhnevartovsk ", "shortName": "Nizhnevartovsk", "municipalityName": "Nizhnevartovsk", "location": {"lat": 60.9493, "lon": 76.4836}, "countryCode": "RU"}, "averageDailyFlights": 0.71, "operators": [{"name": "UTAir", "iata": "UT", "icao": "UTA"}, {"name": "Pegas Fly", "iata": "EO", "icao": "KAR"}]}, {"destination": {"icao": "USMU", "iata": "NUX", "localCode": "\u041d\u0423\u0420", "name": "Novyy Urengoy Novy Urengoy", "shortName": "Novy Urengoy", "municipalityName": "Novyy Urengoy", "location": {"lat": 66.0694, "lon": 76.5203}, "countryCode": "RU"}, "averageDailyFlights": 0.71, "operators": [{"name": "Yamal Airlines", "iata": "YC", "icao": "LLM"}]}, {"destination": {"icao": "UWOO", "iata": "REN", "localCode": "\u041e\u041d\u0413", "name": "Orenburg Central", "shortName": "Central", "municipalityName": "Orenburg", "location": {"lat": 51.7958, "lon": 55.4567}, "countryCode": "RU"}, "averageDailyFlights": 0.71, "operators": [{"name": "Smartavia", "iata": "5N", "icao": "AUL"}, {"name": "Pegas Fly", "iata": "EO", "icao": "KAR"}]}, {"destination": {"icao": "USDD", "iata": "SLY", "localCode": "\u0421\u0425\u0414", "name": "Salekhard ", "shortName": "Salekhard", "municipalityName": "Salekhard", "location": {"lat": 66.5908, "lon": 66.611}, "countryCode": "RU"}, "averageDailyFlights": 0.71, "operators": [{"name": "Yamal Airlines", "iata": "YC", "icao": "LLM"}]}, {"destination": {"name": "Cheboksary"}, "averageDailyFlights": 0.71, "operators": [{"name": "Nordwind Airlines", "iata": "N4", "icao": "NWS"}, {"name": "Pobeda", "iata": "DP", "icao": "PBD"}]}, {"destination": {"name": "Cherepovetc"}, "averageDailyFlights": 0.71, "operators": [{"name": "Gazpromavia", "iata": "4G", "icao": "GZP"}, {"name": "Severstal Aircompany", "iata": "D2", "icao": "SSF"}]}, {"destination": {"name": "Izhevsk"}, "averageDailyFlights": 0.71, "operators": [{"name": "Izhavia", "iata": "I8", "icao": "IZA"}]}, {"destination": {"icao": "UUYH", "iata": "UCT", "localCode": "\u0423\u0425\u0422", "name": "Ukhta ", "shortName": "Ukhta", "municipalityName": "Ukhta", "location": {"lat": 63.5669, "lon": 53.8047}, "countryCode": "RU"}, "averageDailyFlights": 0.59, "operators": [{"name": "Severstal Aircompany", "iata": "D2", "icao": "SSF"}, {"name": "Gazpromavia", "iata": "4G", "icao": "GZP"}]}, {"destination": {"name": "Ivanovo"}, "averageDailyFlights": 0.57, "operators": [{"name": "Nordwind Airlines", "iata": "N4", "icao": "NWS"}, {"name": "Pegas Fly", "iata": "EO", "icao": "KAR"}]}, {"destination": {"name": "Syktyvkar"}, "averageDailyFlights": 0.57, "operators": [{"name": "Smartavia", "iata": "5N", "icao": "AUL"}, {"name": "Pegas Fly", "iata": "EO", "icao": "KAR"}]}, {"destination": {"icao": "UNAA", "iata": "ABA", "localCode": "\u0410\u0411\u041d", "name": "Abakan ", "shortName": "Abakan", "municipalityName": "Abakan", "location": {"lat": 53.74, "lon": 91.385}, "countryCode": "RU"}, "averageDailyFlights": 0.43, "operators": [{"name": "NordStar Airlines", "iata": "Y7", "icao": "TYA"}]}, {"destination": {"icao": "URWA", "iata": "ASF", "localCode": "\u0410\u0421\u0420", "name": "Astrakhan ", "shortName": "Astrakhan", "municipalityName": "Astrakhan", "location": {"lat": 46.2833, "lon": 48.0063}, "countryCode": "RU"}, "averageDailyFlights": 0.43, "operators": [{"name": "UVT Aero", "iata": "RT", "icao": "UVT"}]}, {"destination": {"icao": "LYBE", "iata": "BEG", "name": "Belgrade Nikola Tesla", "shortName": "Nikola Tesla", "municipalityName": "Belgrade", "location": {"lat": 44.8184, "lon": 20.3091}, "countryCode": "RS"}, "averageDailyFlights": 0.43, "operators": [{"name": "JetSMART", "iata": "JA", "icao": "JAT"}]}, {"destination": {"icao": "HEGN", "iata": "HRG", "name": "Hurghada ", "shortName": "Hurghada", "municipalityName": "Hurghada", "location": {"lat": 27.1783, "lon": 33.7994}, "countryCode": "EG"}, "averageDailyFlights": 0.43, "operators": [{"name": "Red Wings", "iata": "WZ", "icao": "RWZ"}]}, {"destination": {"icao": "USUU", "iata": "KRO", "localCode": "\u041a\u0413\u041d", "name": "Kurgan ", "shortName": "Kurgan", "municipalityName": "Kurgan", "location": {"lat": 55.4753, "lon": 65.4156}, "countryCode": "RU"}, "averageDailyFlights": 0.43, "operators": [{"name": "Nordwind Airlines", "iata": "N4", "icao": "NWS"}]}, {"destination": {"icao": "USMM", "iata": "NYM", "localCode": "\u041d\u0414\u041c", "name": "Nadym ", "shortName": "Nadym", "municipalityName": "Nadym", "location": {"lat": 65.4809, "lon": 72.6989}, "countryCode": "RU"}, "averageDailyFlights": 0.43, "operators": [{"name": "Yamal Airlines", "iata": "YC", "icao": "LLM"}]}, {"destination": {"icao": "USRO", "iata": "NOJ", "localCode": "\u041d\u041e\u042f", "name": "Noyabrsk ", "shortName": "Noyabrsk", "municipalityName": "Noyabrsk", "location": {"lat": 63.1833, "lon": 75.27}, "countryCode": "RU"}, "averageDailyFlights": 0.43, "operators": [{"name": "Yamal Airlines", "iata": "YC", "icao": "LLM"}]}, {"destination": {"icao": "UTSS", "iata": "SKD", "localCode": "\u0421\u041a\u0414", "name": "Samarkand ", "shortName": "Samarkand", "municipalityName": "Samarkand", "location": {"lat": 39.7005, "lon": 66.9838}, "countryCode": "UZ"}, "averageDailyFlights": 0.43, "operators": [{"name": "Azimuth Airlines", "iata": "A4", "icao": "AZO"}]}, {"destination": {"icao": "HESH", "iata": "SSH", "name": "Sharm el Sheikh ", "shortName": "Sharm el Sheikh", "municipalityName": "Sharm el Sheikh", "location": {"lat": 27.9773, "lon": 34.395}, "countryCode": "EG"}, "averageDailyFlights": 0.43, "operators": [{"name": "Red Wings", "iata": "WZ", "icao": "RWZ"}]}, {"destination": {"icao": "UHWW", "iata": "VVO", "localCode": "\u0412\u0412\u041e", "name": "Vladivostok Knevichi", "shortName": "Knevichi", "municipalityName": "Vladivostok", "location": {"lat": 43.399, "lon": 132.148}, "countryCode": "RU"}, "averageDailyFlights": 0.43, "operators": [{"name": "LTD I Fly", "iata": "F7", "icao": "RSY"}]}, {"destination": {"icao": "UWLL", "iata": "ULV", "localCode": "\u0423\u041b\u041a", "name": "Ulyanovsk Baratayevka", "shortName": "Baratayevka", "municipalityName": "Ulyanovsk", "location": {"lat": 54.2683, "lon": 48.2267}, "countryCode": "RU"}, "averageDailyFlights": 0.32, "operators": [{"name": "Nordwind Airlines", "iata": "N4", "icao": "NWS"}, {"name": "Pegas Fly", "iata": "EO", "icao": "KAR"}]}, {"destination": {"icao": "UCFM", "iata": "FRU", "localCode": "\u0411\u0418\u0428", "name": "Bishkek Manas", "shortName": "Manas", "municipalityName": "Bishkek", "location": {"lat": 43.0613, "lon": 74.4776}, "countryCode": "KG"}, "averageDailyFlights": 0.29, "operators": [{"name": "Ural Airlines", "iata": "U6", "icao": "SVR"}]}, {"destination": {"icao": "ULWC", "iata": "CEE", "localCode": "\u0427\u0420\u0412", "name": "Cherepovets ", "shortName": "Cherepovets", "municipalityName": "Cherepovets", "location": {"lat": 59.2736, "lon": 38.0158}, "countryCode": "RU"}, "averageDailyFlights": 0.29, "operators": [{"name": "Severstal Aircompany", "iata": "D2", "icao": "SSF"}]}, {"destination": {"icao": "UTDD", "iata": "DYU", "localCode": "\u0414\u0428\u0411", "name": "Dushanbe ", "shortName": "Dushanbe", "municipalityName": "Dushanbe", "location": {"lat": 38.5433, "lon": 68.825}, "countryCode": "TJ"}, "averageDailyFlights": 0.29, "operators": [{"name": "Ural Airlines", "iata": "U6", "icao": "SVR"}]}, {"destination": {"icao": "ULMM", "iata": "MMK", "localCode": "\u041c\u0423\u041d", "name": "Murmansk ", "shortName": "Murmansk", "municipalityName": "Murmansk", "location": {"lat": 68.7817, "lon": 32.7508}, "countryCode": "RU"}, "averageDailyFlights": 0.29, "operators": [{"name": "Smartavia", "iata": "5N", "icao": "AUL"}]}, {"destination": {"icao": "UTFN", "iata": "NMA", "localCode": "\u041d\u041c\u0413", "name": "Namangan ", "shortName": "Namangan", "municipalityName": "Namangan", "location": {"lat": 40.9846, "lon": 71.5567}, "countryCode": "UZ"}, "averageDailyFlights": 0.29, "operators": [{"name": "Uzbekistan Airways", "iata": "HY", "icao": "UZB"}]}, {"destination": {"icao": "URMT", "iata": "STW", "localCode": "\u0421\u0422\u0412", "name": "Stavropol Shpakovskoye", "shortName": "Shpakovskoye", "municipalityName": "Stavropol", "location": {"lat": 45.1092, "lon": 42.1128}, "countryCode": "RU"}, "averageDailyFlights": 0.29, "operators": [{"name": "Azimuth Airlines", "iata": "A4", "icao": "AZO"}]}, {"destination": {"icao": "UNTT", "iata": "TOF", "localCode": "\u0422\u0421\u041a", "name": "Tomsk Bogashevo", "shortName": "Bogashevo", "municipalityName": "Tomsk", "location": {"lat": 56.3803, "lon": 85.2083}, "countryCode": "RU"}, "averageDailyFlights": 0.29, "operators": [{"name": "Nordwind Airlines", "iata": "N4", "icao": "NWS"}]}, {"destination": {"icao": "URMO", "iata": "OGZ", "localCode": "\u0412\u041b\u0410", "name": "Vladikavkaz Beslan", "shortName": "Beslan", "municipalityName": "Vladikavkaz", "location": {"lat": 43.2051, "lon": 44.6066}, "countryCode": "RU"}, "averageDailyFlights": 0.29, "operators": [{"name": "Red Wings", "iata": "WZ", "icao": "RWZ"}]}, {"destination": {"name": "Kaluga"}, "averageDailyFlights": 0.29, "operators": [{"name": "Azimuth Airlines", "iata": "A4", "icao": "AZO"}]}, {"destination": {"name": "Minsk"}, "averageDailyFlights": 0.29, "operators": [{"name": "Belavia", "iata": "B2", "icao": "BRU"}]}, {"destination": {"name": "Penza"}, "averageDailyFlights": 0.29, "operators": [{"name": "Azimuth Airlines", "iata": "A4", "icao": "AZO"}]}, {"destination": {"name": "Petrozavodsk"}, "averageDailyFlights": 0.29, "operators": [{"name": "Severstal Aircompany", "iata": "D2", "icao": "SSF"}]}, {"destination": {"name": "Pskov"}, "averageDailyFlights": 0.29, "operators": [{"name": "Azimuth Airlines", "iata": "A4", "icao": "AZO"}]}, {"destination": {"name": "Saransk"}, "averageDailyFlights": 0.29, "operators": [{"name": "Pegas Fly", "iata": "EO", "icao": "KAR"}]}, {"destination": {"name": "Yaroslavl"}, "averageDailyFlights": 0.29, "operators": [{"name": "Azimuth Airlines", "iata": "A4", "icao": "AZO"}]}, {"destination": {"icao": "UATE", "iata": "SCO", "localCode": "\u0410\u0410\u0423", "name": "Aktau ", "shortName": "Aktau", "municipalityName": "Aktau", "location": {"lat": 43.8601, "lon": 51.092}, "countryCode": "KZ"}, "averageDailyFlights": 0.14, "operators": [{"name": "Azimuth Airlines", "iata": "A4", "icao": "AZO"}]}, {"destination": {"icao": "UIAA", "iata": "HTA", "localCode": "\u0421\u0425\u0422", "name": "Chita Kadala", "shortName": "Kadala", "municipalityName": "Chita", "location": {"lat": 52.0263, "lon": 113.306}, "countryCode": "RU"}, "averageDailyFlights": 0.14, "operators": [{"name": "LTD I Fly", "iata": "F7", "icao": "RSY"}]}, {"destination": {"icao": "UHHH", "iata": "KHV", "localCode": "\u0425\u0411\u0420", "name": "Khabarovsk Novy", "shortName": "Novy", "municipalityName": "Khabarovsk", "location": {"lat": 48.528, "lon": 135.188}, "countryCode": "RU"}, "averageDailyFlights": 0.14, "operators": [{"name": "LTD I Fly", "iata": "F7", "icao": "RSY"}]}, {"destination": {"icao": "USHH", "iata": "HMA", "localCode": "\u0425\u0410\u0421", "name": "Khanty-Mansiysk Khanty Mansiysk", "shortName": "Khanty Mansiysk", "municipalityName": "Khanty-Mansiysk", "location": {"lat": 61.0285, "lon": 69.0861}, "countryCode": "RU"}, "averageDailyFlights": 0.14, "operators": [{"name": "UTAir", "iata": "UT", "icao": "UTA"}]}, {"destination": {"icao": "UTDL", "iata": "LBD", "localCode": "\u0425\u0414\u0422", "name": "Khudzhand ", "shortName": "Khudzhand", "municipalityName": "Khudzhand", "location": {"lat": 40.2154, "lon": 69.6947}, "countryCode": "TJ"}, "averageDailyFlights": 0.14, "operators": [{"name": "Ural Airlines", "iata": "U6", "icao": "SVR"}]}, {"destination": {"icao": "UCFO", "iata": "OSS", "localCode": "\u041e\u0428\u0428", "name": "Osh ", "shortName": "Osh", "municipalityName": "Osh", "location": {"lat": 40.609, "lon": 72.7933}, "countryCode": "KG"}, "averageDailyFlights": 0.14, "operators": [{"name": "Ural Airlines", "iata": "U6", "icao": "SVR"}]}, {"destination": {"name": "Novokuznetsk"}, "averageDailyFlights": 0.14, "operators": [{"name": "Nordwind Airlines", "iata": "N4", "icao": "NWS"}]}]}