{"routes": [{"destination": {"icao": "VIDP", "iata": "DEL", "name": "New Delhi Indira Gandhi", "shortName": "Indira Gandhi", "municipalityName": "New Delhi", "location": {"lat": 28.5665, "lon": 77.1031}, "countryCode": "IN"}, "averageDailyFlights": 10.43, "operators": [{"name": "IndiGo", "iata": "6E", "icao": "IGO"}, {"name": "AirAsia India", "iata": "I5", "icao": "IAD"}, {"name": "Vistara", "iata": "UK", "icao": "VTI"}]}, {"destination": {"icao": "VECC", "iata": "CCU", "name": "Kolkata Netaji Subhash Chandra Bose", "shortName": "Netaji Subhash Chandra Bose", "municipalityName": "Kolkata", "location": {"lat": 22.6547, "lon": 88.4467}, "countryCode": "IN"}, "averageDailyFlights": 7.43, "operators": [{"name": "IndiGo", "iata": "6E", "icao": "IGO"}, {"name": "AirAsia India", "iata": "I5", "icao": "IAD"}, {"name": "Alliance Air", "iata": "9I", "icao": "LLR"}]}, {"destination": {"icao": "VABB", "iata": "BOM", "name": "Mumbai Chhatrapati Shivaji", "shortName": "Chhatrapati Shivaji", "municipalityName": "Mumbai", "location": {"lat": 19.0887, "lon": 72.8679}, "countryCode": "IN"}, "averageDailyFlights": 6.86, "operators": [{"name": "IndiGo", "iata": "6E", "icao": "IGO"}, {"name": "AirAsia India", "iata": "I5", "icao": "IAD"}, {"name": "Vistara", "iata": "UK", "icao": "VTI"}]}, {"destination": {"icao": "VOBL", "iata": "BLR", "name": "Bangalore Bengaluru", "shortName": "Bengaluru", "municipalityName": "Bangalore", "location": {"lat": 13.197899, "lon": 77.7063}, "countryCode": "IN"}, "averageDailyFlights": 6.71, "operators": [{"name": "IndiGo", "iata": "6E", "icao": "IGO"}, {"name": "AirAsia India", "iata": "I5", "icao": "IAD"}]}, {"destination": {"icao": "VOMM", "iata": "MAA", "name": "Chennai ", "shortName": "Chennai", "municipalityName": "Chennai", "location": {"lat": 12.990005, "lon": 80.1693}, "countryCode": "IN"}, "averageDailyFlights": 2.29, "operators": [{"name": "IndiGo", "iata": "6E", "icao": "IGO"}]}, {"destination": {"icao": "VIAL", "iata": "IXD", "name": "Allahabad ", "shortName": "Allahabad", "municipalityName": "Allahabad", "location": {"lat": 25.4401, "lon": 81.7339}, "countryCode": "IN"}, "averageDailyFlights": 1.14, "operators": [{"name": "IndiGo", "iata": "6E", "icao": "IGO"}]}, {"destination": {"icao": "VAPO", "iata": "PNQ", "name": "Pune ", "shortName": "Pune", "municipalityName": "Pune", "location": {"lat": 18.5821, "lon": 73.9197}, "countryCode": "IN"}, "averageDailyFlights": 1.14, "operators": [{"name": "AirAsia India", "iata": "I5", "icao": "IAD"}]}, {"destination": {"icao": "VIBN", "iata": "VNS", "name": "Varanasi Lal Bahadur Shastri", "shortName": "Lal Bahadur Shastri", "municipalityName": "Varanasi", "location": {"lat": 25.4524, "lon": 82.8593}, "countryCode": "IN"}, "averageDailyFlights": 1.14, "operators": [{"name": "IndiGo", "iata": "6E", "icao": "IGO"}]}, {"destination": {"name": "Kalkutta"}, "averageDailyFlights": 1.14, "operators": [{"name": "Alliance Air", "iata": "9I", "icao": "LLR"}]}, {"destination": {"name": "Rurkela"}, "averageDailyFlights": 1.14, "operators": [{"name": "Alliance Air", "iata": "9I", "icao": "LLR"}]}, {"destination": {"icao": "VAAH", "iata": "AMD", "name": "Ahmedabad Sardar Vallabhbhai Patel", "shortName": "Sardar Vallabhbhai Patel", "municipalityName": "Ahmedabad", "location": {"lat": 23.0772, "lon": 72.6347}, "countryCode": "IN"}, "averageDailyFlights": 0.71, "operators": [{"name": "IndiGo", "iata": "6E", "icao": "IGO"}]}, {"destination": {"icao": "VARP", "iata": "RPR", "name": "Raipur ", "shortName": "Raipur", "municipalityName": "Raipur", "location": {"lat": 21.1804, "lon": 81.7388}, "countryCode": "IN"}, "averageDailyFlights": 0.71, "operators": [{"name": "IndiGo", "iata": "6E", "icao": "IGO"}]}, {"destination": {"icao": "OMDB", "iata": "DXB", "name": "Dubai ", "shortName": "Dubai", "municipalityName": "Dubai", "location": {"lat": 25.252798, "lon": 55.3644}, "countryCode": "AE"}, "averageDailyFlights": 0.57, "operators": [{"name": "IndiGo", "iata": "6E", "icao": "IGO"}]}, {"destination": {"icao": "VIJP", "iata": "JAI", "name": "Jaipur ", "shortName": "Jaipur", "municipalityName": "Jaipur", "location": {"lat": 26.8242, "lon": 75.8122}, "countryCode": "IN"}, "averageDailyFlights": 0.43, "operators": [{"name": "IndiGo", "iata": "6E", "icao": "IGO"}]}, {"destination": {"icao": "VEPT", "iata": "PAT", "name": "Patna Lok Nayak Jayaprakash", "shortName": "Lok Nayak Jayaprakash", "municipalityName": "Patna", "location": {"lat": 25.5913, "lon": 85.088}, "countryCode": "IN"}, "averageDailyFlights": 0.43, "operators": [{"name": "IndiGo", "iata": "6E", "icao": "IGO"}]}, {"destination": {"icao": "VERC", "iata": "IXR", "name": "Ranchi Birsa Munda", "shortName": "Birsa Munda", "municipalityName": "Ranchi", "location": {"lat": 23.3143, "lon": 85.3217}, "countryCode": "IN"}, "averageDailyFlights": 0.43, "operators": [{"name": "IndiGo", "iata": "6E", "icao": "IGO"}]}, {"destination": {"icao": "VTBS", "iata": "BKK", "name": "Bangkok Suvarnabhumi", "shortName": "Suvarnabhumi", "municipalityName": "Bangkok", "location": {"lat": 13.681099, "lon": 100.747}, "countryCode": "TH"}, "averageDailyFlights": 0.29, "operators": [{"name": "IndiGo", "iata": "6E", "icao": "IGO"}]}, {"destination": {"icao": "WSSS", "iata": "SIN", "name": "Singapore Changi", "shortName": "Changi", "municipalityName": "Singapore", "location": {"lat": 1.35019, "lon": 103.994}, "countryCode": "SG"}, "averageDailyFlights": 0.29, "operators": [{"name": "IndiGo", "iata": "6E", "icao": "IGO"}]}, {"destination": {"name": "Hyderabad"}, "averageDailyFlights": 0.14, "operators": [{"name": "IndiGo", "iata": "6E", "icao": "IGO"}]}]}