{"routes": [{"destination": {"icao": "VIDP", "iata": "DEL", "name": "New Delhi Indira Gandhi", "shortName": "Indira Gandhi", "municipalityName": "New Delhi", "location": {"lat": 28.5665, "lon": 77.1031}, "countryCode": "IN"}, "averageDailyFlights": 7.57, "operators": [{"name": "IndiGo", "iata": "6E", "icao": "IGO"}, {"name": "SpiceJet", "iata": "SG", "icao": "SEJ"}, {"name": "Air India", "iata": "AI", "icao": "AIC"}, {"name": "Vistara", "iata": "UK", "icao": "VTI"}]}, {"destination": {"icao": "VISR", "iata": "SXR", "name": "Srinagar Sheikh ul Alam", "shortName": "Sheikh ul Alam", "municipalityName": "Srinagar", "location": {"lat": 33.9871, "lon": 74.7742}, "countryCode": "IN"}, "averageDailyFlights": 5.0, "operators": [{"name": "SpiceJet", "iata": "SG", "icao": "SEJ"}, {"name": "Air India", "iata": "AI", "icao": "AIC"}, {"name": "IndiGo", "iata": "6E", "icao": "IGO"}, {"name": "Vistara", "iata": "UK", "icao": "VTI"}]}, {"destination": {"icao": "VABB", "iata": "BOM", "name": "Mumbai Chhatrapati Shivaji", "shortName": "Chhatrapati Shivaji", "municipalityName": "Mumbai", "location": {"lat": 19.0887, "lon": 72.8679}, "countryCode": "IN"}, "averageDailyFlights": 1.14, "operators": [{"name": "IndiGo", "iata": "6E", "icao": "IGO"}]}, {"destination": {"icao": "VIGR", "iata": "GWL", "name": "Gwalior ", "shortName": "Gwalior", "municipalityName": "Gwalior", "location": {"lat": 26.2933, "lon": 78.2278}, "countryCode": "IN"}, "averageDailyFlights": 1.0, "operators": [{"name": "SpiceJet", "iata": "SG", "icao": "SEJ"}]}, {"destination": {"icao": "VAID", "iata": "IDR", "name": "Indore Devi Ahilyabai Holkar", "shortName": "Devi Ahilyabai Holkar", "municipalityName": "Indore", "location": {"lat": 22.7218, "lon": 75.8011}, "countryCode": "IN"}, "averageDailyFlights": 0.71, "operators": [{"name": "IndiGo", "iata": "6E", "icao": "IGO"}]}, {"destination": {"icao": "VAAH", "iata": "AMD", "name": "Ahmedabad Sardar Vallabhbhai Patel", "shortName": "Sardar Vallabhbhai Patel", "municipalityName": "Ahmedabad", "location": {"lat": 23.0772, "lon": 72.6347}, "countryCode": "IN"}, "averageDailyFlights": 0.57, "operators": [{"name": "IndiGo", "iata": "6E", "icao": "IGO"}]}, {"destination": {"icao": "VILH", "iata": "IXL", "name": "Leh Kushok Bakula Rimpochee", "shortName": "Kushok Bakula Rimpochee", "municipalityName": "Leh", "location": {"lat": 34.1359, "lon": 77.5465}, "countryCode": "IN"}, "averageDailyFlights": 0.57, "operators": [{"name": "Air India", "iata": "AI", "icao": "AIC"}]}, {"destination": {"icao": "VIDN", "iata": "DED", "name": "Dehradun ", "shortName": "Dehradun", "municipalityName": "Dehradun", "location": {"lat": 30.1897, "lon": 78.1803}, "countryCode": "IN"}, "averageDailyFlights": 0.43, "operators": [{"name": "Alliance Air", "iata": "9I", "icao": "LLR"}]}]}