{"routes": [{"destination": {"icao": "VIDP", "iata": "DEL", "name": "New Delhi Indira Gandhi", "shortName": "Indira Gandhi", "municipalityName": "New Delhi", "location": {"lat": 28.5665, "lon": 77.1031}, "countryCode": "IN"}, "averageDailyFlights": 10.65, "operators": [{"name": "Air India", "iata": "AI", "icao": "AIC"}, {"name": "IndiGo", "iata": "6E", "icao": "IGO"}, {"name": "SpiceJet", "iata": "SG", "icao": "SEJ"}, {"name": "Vistara", "iata": "UK", "icao": "VTI"}]}, {"destination": {"icao": "VABB", "iata": "BOM", "name": "Mumbai Chhatrapati Shivaji", "shortName": "Chhatrapati Shivaji", "municipalityName": "Mumbai", "location": {"lat": 19.0887, "lon": 72.8679}, "countryCode": "IN"}, "averageDailyFlights": 0.86, "operators": [{"name": "IndiGo", "iata": "6E", "icao": "IGO"}]}, {"destination": {"icao": "VIJU", "iata": "IXJ", "name": "Jammu ", "shortName": "Jammu", "municipalityName": "Jammu", "location": {"lat": 32.6891, "lon": 74.8374}, "countryCode": "IN"}, "averageDailyFlights": 0.57, "operators": [{"name": "Air India", "iata": "AI", "icao": "AIC"}]}, {"destination": {"icao": "VICG", "iata": "IXC", "name": "Chandigarh ", "shortName": "Chandigarh", "municipalityName": "Chandigarh", "location": {"lat": 30.6735, "lon": 76.7885}, "countryCode": "IN"}, "averageDailyFlights": 0.29, "operators": [{"name": "Air India", "iata": "AI", "icao": "AIC"}]}, {"destination": {"icao": "VISR", "iata": "SXR", "name": "Srinagar Sheikh ul Alam", "shortName": "Sheikh ul Alam", "municipalityName": "Srinagar", "location": {"lat": 33.9871, "lon": 74.7742}, "countryCode": "IN"}, "averageDailyFlights": 0.29, "operators": [{"name": "Air India", "iata": "AI", "icao": "AIC"}]}]}