{"routes": [{"destination": {"icao": "VABB", "iata": "BOM", "name": "Mumbai Chhatrapati Shivaji", "shortName": "Chhatrapati Shivaji", "municipalityName": "Mumbai", "location": {"lat": 19.0887, "lon": 72.8679}, "countryCode": "IN"}, "averageDailyFlights": 6.86, "operators": [{"name": "IndiGo", "iata": "6E", "icao": "IGO"}, {"name": "Air India", "iata": "AI", "icao": "AIC"}, {"name": "Vistara", "iata": "UK", "icao": "VTI"}]}, {"destination": {"icao": "VOBL", "iata": "BLR", "name": "Bangalore Bengaluru", "shortName": "Bengaluru", "municipalityName": "Bangalore", "location": {"lat": 13.197899, "lon": 77.7063}, "countryCode": "IN"}, "averageDailyFlights": 4.71, "operators": [{"name": "IndiGo", "iata": "6E", "icao": "IGO"}, {"name": "SpiceJet", "iata": "SG", "icao": "SEJ"}]}, {"destination": {"icao": "VIDP", "iata": "DEL", "name": "New Delhi Indira Gandhi", "shortName": "Indira Gandhi", "municipalityName": "New Delhi", "location": {"lat": 28.5665, "lon": 77.1031}, "countryCode": "IN"}, "averageDailyFlights": 4.57, "operators": [{"name": "IndiGo", "iata": "6E", "icao": "IGO"}, {"name": "Air India", "iata": "AI", "icao": "AIC"}, {"name": "Vistara", "iata": "UK", "icao": "VTI"}]}, {"destination": {"icao": "OMSJ", "iata": "SHJ", "name": "Sharjah ", "shortName": "Sharjah", "municipalityName": "Sharjah", "location": {"lat": 25.3286, "lon": 55.5172}, "countryCode": "AE"}, "averageDailyFlights": 4.57, "operators": [{"name": "IndiGo", "iata": "6E", "icao": "IGO"}, {"name": "Air Arabia", "iata": "G9", "icao": "ABY"}, {"name": "Air India Express", "iata": "IX", "icao": "AXB"}]}, {"destination": {"icao": "VOMM", "iata": "MAA", "name": "Chennai ", "shortName": "Chennai", "municipalityName": "Chennai", "location": {"lat": 12.990005, "lon": 80.1693}, "countryCode": "IN"}, "averageDailyFlights": 3.43, "operators": [{"name": "IndiGo", "iata": "6E", "icao": "IGO"}]}, {"destination": {"icao": "OMAA", "iata": "AUH", "name": "Abu Dhabi Island and Internal Islands City Abu Dhabi", "shortName": "Abu Dhabi", "municipalityName": "Abu Dhabi Island and Internal Islands City", "location": {"lat": 24.433, "lon": 54.6511}, "countryCode": "AE"}, "averageDailyFlights": 3.29, "operators": [{"name": "Air Arabia Abu Dhabi", "iata": "3L", "icao": "ADY"}, {"name": "Air India Express", "iata": "IX", "icao": "AXB"}]}, {"destination": {"icao": "OMDB", "iata": "DXB", "name": "Dubai ", "shortName": "Dubai", "municipalityName": "Dubai", "location": {"lat": 25.252798, "lon": 55.3644}, "countryCode": "AE"}, "averageDailyFlights": 2.14, "operators": [{"name": "Emirates", "iata": "EK", "icao": "UAE"}, {"name": "Air India Express", "iata": "IX", "icao": "AXB"}]}, {"destination": {"icao": "OOMS", "iata": "MCT", "name": "Muscat ", "shortName": "Muscat", "municipalityName": "Muscat", "location": {"lat": 23.5933, "lon": 58.2844}, "countryCode": "OM"}, "averageDailyFlights": 2.14, "operators": [{"name": "SalamAir", "iata": "OV", "icao": "OMS"}, {"name": "Air India Express", "iata": "IX", "icao": "AXB"}]}, {"destination": {"icao": "VOHS", "iata": "HYD", "name": "Hyderabad Rajiv Gandhi", "shortName": "Rajiv Gandhi", "municipalityName": "Hyderabad", "location": {"lat": 17.231318, "lon": 78.429855}, "countryCode": "IN"}, "averageDailyFlights": 1.57, "operators": [{"name": "IndiGo", "iata": "6E", "icao": "IGO"}]}, {"destination": {"icao": "OBBI", "iata": "BAH", "name": "Manama Bahrain", "shortName": "Bahrain", "municipalityName": "Manama", "location": {"lat": 26.2708, "lon": 50.6336}, "countryCode": "BH"}, "averageDailyFlights": 1.43, "operators": [{"name": "Gulf Air", "iata": "GF", "icao": "GFA"}, {"name": "Air India Express", "iata": "IX", "icao": "AXB"}]}, {"destination": {"icao": "OTHH", "iata": "DOH", "name": "Doha Hamad", "shortName": "Hamad", "municipalityName": "Doha", "location": {"lat": 25.273056, "lon": 51.608055}, "countryCode": "QA"}, "averageDailyFlights": 1.14, "operators": [{"name": "Qatar Airways", "iata": "QR", "icao": "QTR"}]}, {"destination": {"icao": "VOCI", "iata": "COK", "name": "Kochi Cochin", "shortName": "Cochin", "municipalityName": "Kochi", "location": {"lat": 10.152, "lon": 76.4019}, "countryCode": "IN"}, "averageDailyFlights": 1.14, "operators": [{"name": "IndiGo", "iata": "6E", "icao": "IGO"}]}, {"destination": {"icao": "VAPO", "iata": "PNQ", "name": "Pune ", "shortName": "Pune", "municipalityName": "Pune", "location": {"lat": 18.5821, "lon": 73.9197}, "countryCode": "IN"}, "averageDailyFlights": 1.14, "operators": [{"name": "IndiGo", "iata": "6E", "icao": "IGO"}]}, {"destination": {"icao": "WSSS", "iata": "SIN", "name": "Singapore Changi", "shortName": "Changi", "municipalityName": "Singapore", "location": {"lat": 1.35019, "lon": 103.994}, "countryCode": "SG"}, "averageDailyFlights": 1.14, "operators": [{"name": "Tibet Airlines", "iata": "TV", "icao": "TBA"}]}, {"destination": {"name": "Kannur International Airport"}, "averageDailyFlights": 1.14, "operators": [{"name": "IndiGo", "iata": "6E", "icao": "IGO"}]}, {"destination": {"icao": "VCBI", "iata": "CMB", "name": "Colombo Bandaranaike", "shortName": "Bandaranaike", "municipalityName": "Colombo", "location": {"lat": 7.180759, "lon": 79.8841}, "countryCode": "LK"}, "averageDailyFlights": 1.0, "operators": [{"name": "SriLankan Airlines", "iata": "UL", "icao": "ALK"}]}, {"destination": {"icao": "OKBK", "iata": "KWI", "name": "Kuwait City Kuwait", "shortName": "Kuwait", "municipalityName": "Kuwait City", "location": {"lat": 29.2266, "lon": 47.9689}, "countryCode": "KW"}, "averageDailyFlights": 0.86, "operators": [{"name": "Kuwait Airways", "iata": "KU", "icao": "KAC"}]}, {"destination": {"icao": "VOCL", "iata": "CCJ", "name": "Calicut ", "shortName": "Calicut", "municipalityName": "Calicut", "location": {"lat": 11.136799, "lon": 75.9553}, "countryCode": "IN"}, "averageDailyFlights": 0.71, "operators": [{"name": "Air India Express", "iata": "IX", "icao": "AXB"}]}, {"destination": {"icao": "VRMM", "iata": "MLE", "name": "Mal\u00e9 ", "shortName": "Mal\u00e9", "municipalityName": "Mal\u00e9", "location": {"lat": 4.19183, "lon": 73.5291}, "countryCode": "MV"}, "averageDailyFlights": 0.71, "operators": [{"name": "Maldivian", "iata": "Q2", "icao": "DQA"}]}, {"destination": {"icao": "OEDF", "iata": "DMM", "name": "Ad Dammam King Fahd", "shortName": "King Fahd", "municipalityName": "Ad Dammam", "location": {"lat": 26.4712, "lon": 49.7979}, "countryCode": "SA"}, "averageDailyFlights": 0.43, "operators": [{"name": "Air India Express", "iata": "IX", "icao": "AXB"}]}]}