{"routes": [{"destination": {"icao": "VYYY", "iata": "RGN", "name": "Yangon ", "shortName": "Yangon", "municipalityName": "Yangon", "location": {"lat": 16.9073, "lon": 96.1332}, "countryCode": "MM"}, "averageDailyFlights": 2.29, "operators": [{"name": "Mann Yadanarpon Airlines", "iata": "7Y", "icao": "MYP"}, {"name": "Air KBZ", "iata": "K7", "icao": "KBZ"}, {"name": "Myanmar Airways"}, {"name": "Myanmar Airways International", "iata": "8M", "icao": "MMA"}, {"name": "Myanmar National Airlines", "iata": "UB", "icao": "UBA"}]}, {"destination": {"icao": "VYTL", "iata": "THL", "name": "Tachileik ", "shortName": "Tachileik", "municipalityName": "Tachileik", "location": {"lat": 20.4838, "lon": 99.9354}, "countryCode": "MM"}, "averageDailyFlights": 1.43, "operators": [{"name": "Mann Yadanarpon Airlines", "iata": "7Y", "icao": "MYP"}, {"name": "Myanmar Airways"}, {"name": "Myanmar National Airlines", "iata": "UB", "icao": "UBA"}]}, {"destination": {"icao": "VYEL", "iata": "NYT", "name": "Pyinmana Naypyidaw", "shortName": "Naypyidaw", "municipalityName": "Pyinmana", "location": {"lat": 19.6235, "lon": 96.201}, "countryCode": "MM"}, "averageDailyFlights": 0.29, "operators": [{"name": "Myanmar National Airlines", "iata": "UB", "icao": "UBA"}]}, {"destination": {"icao": "VYKG", "iata": "KET", "name": "Kengtung ", "shortName": "Kengtung", "municipalityName": "Kengtung", "location": {"lat": 21.3016, "lon": 99.636}, "countryCode": "MM"}, "averageDailyFlights": 0.14, "operators": [{"name": "Myanmar Airways International", "iata": "8M", "icao": "MMA"}]}, {"destination": {"icao": "VYLS", "iata": "LSH", "name": "Lashio ", "shortName": "Lashio", "municipalityName": "Lashio", "location": {"lat": 22.9779, "lon": 97.7522}, "countryCode": "MM"}, "averageDailyFlights": 0.14, "operators": [{"name": "Myanmar Airways"}]}, {"destination": {"icao": "VYBG", "iata": "NYU", "name": "Nyaung U Bagan", "shortName": "Bagan", "municipalityName": "Nyaung U", "location": {"lat": 21.1788, "lon": 94.9302}, "countryCode": "MM"}, "averageDailyFlights": 0.14, "operators": [{"name": "Myanmar Airways"}]}]}