{"routes": [{"destination": {"icao": "YBCS", "iata": "CNS", "name": "Cairns ", "shortName": "Cairns", "municipalityName": "Cairns", "location": {"lat": -16.8858, "lon": 145.755}, "countryCode": "AU"}, "averageDailyFlights": 3.43, "operators": [{"name": "Qantas", "iata": "QF", "icao": "QFA"}, {"name": "Skytrans", "iata": "QN", "icao": "SKP"}]}, {"destination": {"icao": "YYKI", "iata": "OKR", "name": "Yorke Island ", "shortName": "Yorke Island", "municipalityName": "Yorke Island", "location": {"lat": -9.757029, "lon": 143.411}, "countryCode": "AU"}, "averageDailyFlights": 1.86, "operators": [{"name": "Skytrans", "iata": "QN", "icao": "SKP"}, {"name": "FlexFlight", "iata": "W2", "icao": "FXT"}]}, {"destination": {"icao": "YMAE", "iata": "MYI", "name": "Murray Island ", "shortName": "Murray Island", "municipalityName": "Murray Island", "location": {"lat": -9.916669, "lon": 144.055}, "countryCode": "AU"}, "averageDailyFlights": 1.57, "operators": [{"name": "Skytrans", "iata": "QN", "icao": "SKP"}, {"name": "FlexFlight", "iata": "W2", "icao": "FXT"}]}, {"destination": {"icao": "YKUB", "iata": "KUG", "name": "Moa Island Kubin", "shortName": "Kubin", "municipalityName": "Moa Island", "location": {"lat": -10.225, "lon": 142.218}, "countryCode": "AU"}, "averageDailyFlights": 1.29, "operators": [{"name": "Skytrans", "iata": "QN", "icao": "SKP"}]}, {"destination": {"icao": "YWBS", "iata": "SYU", "name": "Sue Islet Warraber Island", "shortName": "Warraber Island", "municipalityName": "Sue Islet", "location": {"lat": -10.208299, "lon": 142.825}, "countryCode": "AU"}, "averageDailyFlights": 1.0, "operators": [{"name": "Skytrans", "iata": "QN", "icao": "SKP"}, {"name": "FlexFlight", "iata": "W2", "icao": "FXT"}]}, {"destination": {"icao": "YYMI", "iata": "XMY", "name": "Yam Island ", "shortName": "Yam Island", "municipalityName": "Yam Island", "location": {"lat": -9.901109, "lon": 142.776}, "countryCode": "AU"}, "averageDailyFlights": 1.0, "operators": [{"name": "Skytrans", "iata": "QN", "icao": "SKP"}]}, {"destination": {"icao": "YSII", "iata": "SBR", "name": "Saibai Island ", "shortName": "Saibai Island", "municipalityName": "Saibai Island", "location": {"lat": -9.37833, "lon": 142.625}, "countryCode": "AU"}, "averageDailyFlights": 0.71, "operators": [{"name": "FlexFlight", "iata": "W2", "icao": "FXT"}, {"name": "Skytrans", "iata": "QN", "icao": "SKP"}]}]}