{"routes": [{"destination": {"icao": "ZBHH", "iata": "HET", "name": "Hohhot Baita", "shortName": "Baita", "municipalityName": "Hohhot", "location": {"lat": 40.8514, "lon": 111.824}, "countryCode": "CN"}, "averageDailyFlights": 5.07, "operators": [{"name": "Tianjin Airlines", "iata": "GS", "icao": "GCR"}, {"name": "Air China", "iata": "CA", "icao": "CCA"}, {"name": "Chongqing Airlines", "iata": "OQ", "icao": "CQN"}]}, {"destination": {"icao": "ZBAD", "iata": "PKX", "name": "Beijing Daxing", "shortName": "Daxing", "municipalityName": "Beijing", "location": {"lat": 39.509167, "lon": 116.41055}, "countryCode": "CN"}, "averageDailyFlights": 1.74, "operators": [{"name": "China United Airlines", "iata": "KN", "icao": "CUA"}, {"name": "Air China", "iata": "CA", "icao": "CCA"}]}, {"destination": {"icao": "ZBYZ", "iata": "RLK", "name": "Bavannur Bayannur Tianjitai", "shortName": "Bayannur Tianjitai", "municipalityName": "Bavannur", "location": {"lat": 40.926, "lon": 107.7428}, "countryCode": "CN"}, "averageDailyFlights": 1.14, "operators": [{"name": "Chengdu Airlines", "iata": "EU", "icao": "UEA"}, {"name": "Tianjin Airlines", "iata": "GS", "icao": "GCR"}]}, {"destination": {"icao": "ZBER", "iata": "ERL", "name": "Erenhot, Erenhot Saiwusu", "shortName": "Erenhot Saiwusu", "municipalityName": "Erenhot,", "location": {"lat": 43.4225, "lon": 112.096664}, "countryCode": "CN"}, "averageDailyFlights": 1.14, "operators": [{"name": "Tianjin Airlines", "iata": "GS", "icao": "GCR"}]}, {"destination": {"icao": "ZBLA", "iata": "HLD", "name": "Hailar Dongshan", "shortName": "Dongshan", "municipalityName": "Hailar", "location": {"lat": 49.205, "lon": 119.825}, "countryCode": "CN"}, "averageDailyFlights": 1.14, "operators": [{"name": "Tianjin Airlines", "iata": "GS", "icao": "GCR"}]}, {"destination": {"icao": "ZBDS", "iata": "DSN", "name": "Ordos Ejin Horo", "shortName": "Ejin Horo", "municipalityName": "Ordos", "location": {"lat": 39.49, "lon": 109.86139}, "countryCode": "CN"}, "averageDailyFlights": 1.14, "operators": [{"name": "Tianjin Airlines", "iata": "GS", "icao": "GCR"}, {"name": "China Express Airlines", "iata": "G5", "icao": "HXA"}]}, {"destination": {"icao": "ZBTL", "iata": "TGO", "name": "Tongliao ", "shortName": "Tongliao", "municipalityName": "Tongliao", "location": {"lat": 43.5567, "lon": 122.2}, "countryCode": "CN"}, "averageDailyFlights": 1.14, "operators": [{"name": "Tianjin Airlines", "iata": "GS", "icao": "GCR"}]}, {"destination": {"icao": "ZBUL", "iata": "HLH", "name": "Ulanhot ", "shortName": "Ulanhot", "municipalityName": "Ulanhot", "location": {"lat": 46.19533, "lon": 122.00833}, "countryCode": "CN"}, "averageDailyFlights": 1.14, "operators": [{"name": "Tianjin Airlines", "iata": "GS", "icao": "GCR"}]}, {"destination": {"icao": "ZBTJ", "iata": "TSN", "name": "Tianjin Binhai", "shortName": "Binhai", "municipalityName": "Tianjin", "location": {"lat": 39.1244, "lon": 117.346}, "countryCode": "CN"}, "averageDailyFlights": 1.0, "operators": [{"name": "Tianjin Airlines", "iata": "GS", "icao": "GCR"}]}, {"destination": {"icao": "ZBUH", "iata": "WUA", "name": "Wuhai ", "shortName": "Wuhai", "municipalityName": "Wuhai", "location": {"lat": 39.7934, "lon": 106.7993}, "countryCode": "CN"}, "averageDailyFlights": 1.0, "operators": [{"name": "Tianjin Airlines", "iata": "GS", "icao": "GCR"}]}, {"destination": {"icao": "ZBOW", "iata": "BAV", "name": "Baotou ", "shortName": "Baotou", "municipalityName": "Baotou", "location": {"lat": 40.56, "lon": 109.997}, "countryCode": "CN"}, "averageDailyFlights": 0.86, "operators": [{"name": "Tianjin Airlines", "iata": "GS", "icao": "GCR"}, {"name": "China Express Airlines", "iata": "G5", "icao": "HXA"}]}, {"destination": {"icao": "ZBCF", "iata": "CIF", "name": "Chifeng ", "shortName": "Chifeng", "municipalityName": "Chifeng", "location": {"lat": 42.235, "lon": 118.908}, "countryCode": "CN"}, "averageDailyFlights": 0.43, "operators": [{"name": "Tianjin Airlines", "iata": "GS", "icao": "GCR"}]}, {"destination": {"icao": "ZYHB", "iata": "HRB", "name": "Harbin Taiping", "shortName": "Taiping", "municipalityName": "Harbin", "location": {"lat": 45.6234, "lon": 126.25}, "countryCode": "CN"}, "averageDailyFlights": 0.43, "operators": [{"name": "China Express Airlines", "iata": "G5", "icao": "HXA"}]}, {"destination": {"icao": "ZYTL", "iata": "DLC", "name": "Dalian Zhoushuizi", "shortName": "Zhoushuizi", "municipalityName": "Dalian", "location": {"lat": 38.9657, "lon": 121.539}, "countryCode": "CN"}, "averageDailyFlights": 0.29, "operators": [{"name": "Tianjin Airlines", "iata": "GS", "icao": "GCR"}]}]}