{"routes": [{"destination": {"icao": "ZUUU", "iata": "CTU", "name": "Chengdu Shuangliu", "shortName": "Shuangliu", "municipalityName": "Chengdu", "location": {"lat": 30.5785, "lon": 103.947}, "countryCode": "CN"}, "averageDailyFlights": 13.49, "operators": [{"name": "Tibet Airlines", "iata": "TV", "icao": "TBA"}, {"name": "Air China", "iata": "CA", "icao": "CCA"}, {"name": "Sichuan Airlines", "iata": "3U", "icao": "CSC"}, {"name": "Lucky Air", "iata": "8L", "icao": "LKE"}, {"name": "China Eastern Airlines", "iata": "MU", "icao": "CES"}, {"name": "Chengdu Airlines"}]}, {"destination": {"icao": "ZUCK", "iata": "CKG", "name": "Chongqing Jiangbei", "shortName": "Jiangbei", "municipalityName": "Chongqing", "location": {"lat": 29.7192, "lon": 106.642}, "countryCode": "CN"}, "averageDailyFlights": 11.57, "operators": [{"name": "Sichuan Airlines", "iata": "3U", "icao": "CSC"}, {"name": "Air China", "iata": "CA", "icao": "CCA"}, {"name": "China Southern Airlines", "iata": "CZ", "icao": "CSN"}, {"name": "Xiamen Airlines", "iata": "MF", "icao": "CXA"}, {"name": "West Air (China)", "iata": "PN", "icao": "CHB"}, {"name": "Tibet Airlines", "iata": "TV", "icao": "TBA"}]}, {"destination": {"icao": "ZLXY", "iata": "XIY", "name": "Xianyang Xi'an", "shortName": "Xi'an", "municipalityName": "Xianyang", "location": {"lat": 34.4471, "lon": 108.752}, "countryCode": "CN"}, "averageDailyFlights": 8.29, "operators": [{"name": "Sichuan Airlines", "iata": "3U", "icao": "CSC"}, {"name": "China Eastern Airlines", "iata": "MU", "icao": "CES"}, {"name": "Tibet Airlines", "iata": "TV", "icao": "TBA"}]}, {"destination": {"icao": "ZPPP", "iata": "KMG", "name": "Kunming Changshui", "shortName": "Changshui", "municipalityName": "Kunming", "location": {"lat": 25.101944, "lon": 102.92917}, "countryCode": "CN"}, "averageDailyFlights": 5.57, "operators": [{"name": "Lucky Air", "iata": "8L", "icao": "LKE"}, {"name": "Tibet Airlines", "iata": "TV", "icao": "TBA"}, {"name": "China Eastern Airlines", "iata": "MU", "icao": "CES"}]}, {"destination": {"icao": "ZLXN", "iata": "XNN", "name": "Xining Caojiabu", "shortName": "Caojiabu", "municipalityName": "Xining", "location": {"lat": 36.5275, "lon": 102.043}, "countryCode": "CN"}, "averageDailyFlights": 3.86, "operators": [{"name": "Tibet Airlines", "iata": "TV", "icao": "TBA"}, {"name": "Sichuan Airlines", "iata": "3U", "icao": "CSC"}]}, {"destination": {"icao": "ZUMY", "iata": "MIG", "name": "Mianyang ", "shortName": "Mianyang", "municipalityName": "Mianyang", "location": {"lat": 31.4281, "lon": 104.741}, "countryCode": "CN"}, "averageDailyFlights": 3.43, "operators": [{"name": "Tibet Airlines", "iata": "TV", "icao": "TBA"}, {"name": "Lucky Air", "iata": "8L", "icao": "LKE"}, {"name": "Sichuan Airlines", "iata": "3U", "icao": "CSC"}]}, {"destination": {"icao": "ZBAA", "iata": "PEK", "name": "Beijing Capital", "shortName": "Capital", "municipalityName": "Beijing", "location": {"lat": 40.0801, "lon": 116.585}, "countryCode": "CN"}, "averageDailyFlights": 2.29, "operators": [{"name": "Tibet Airlines", "iata": "TV", "icao": "TBA"}, {"name": "Air China", "iata": "CA", "icao": "CCA"}]}, {"destination": {"icao": "ZUAL", "iata": "NGQ", "name": "Shiquanhe Ngari Gunsa", "shortName": "Ngari Gunsa", "municipalityName": "Shiquanhe", "location": {"lat": 32.1, "lon": 80.053055}, "countryCode": "CN"}, "averageDailyFlights": 2.29, "operators": [{"name": "Tibet Airlines", "iata": "TV", "icao": "TBA"}]}, {"destination": {"icao": "ZHCC", "iata": "CGO", "name": "Zhengzhou Xinzheng", "shortName": "Xinzheng", "municipalityName": "Zhengzhou", "location": {"lat": 34.5197, "lon": 113.841}, "countryCode": "CN"}, "averageDailyFlights": 2.29, "operators": [{"name": "Chengdu Airlines", "iata": "EU", "icao": "UEA"}, {"name": "Lucky Air", "iata": "8L", "icao": "LKE"}]}, {"destination": {"icao": "ZGHA", "iata": "CSX", "name": "Changsha Huanghua", "shortName": "Huanghua", "municipalityName": "Changsha", "location": {"lat": 28.1892, "lon": 113.22}, "countryCode": "CN"}, "averageDailyFlights": 1.14, "operators": [{"name": "Tibet Airlines", "iata": "TV", "icao": "TBA"}]}, {"destination": {"icao": "ZSPD", "iata": "PVG", "name": "Shanghai Pudong", "shortName": "Pudong", "municipalityName": "Shanghai", "location": {"lat": 31.1434, "lon": 121.805}, "countryCode": "CN"}, "averageDailyFlights": 1.14, "operators": [{"name": "China Eastern Airlines", "iata": "MU", "icao": "CES"}]}, {"destination": {"icao": "ZPDQ", "iata": "DIG", "name": "Shangri-La Diqing", "shortName": "Diqing", "municipalityName": "Shangri-La", "location": {"lat": 27.7936, "lon": 99.6772}, "countryCode": "CN"}, "averageDailyFlights": 1.14, "operators": [{"name": "China Eastern Airlines", "iata": "MU", "icao": "CES"}]}, {"destination": {"icao": "ZHHH", "iata": "WUH", "name": "Wuhan Tianhe", "shortName": "Tianhe", "municipalityName": "Wuhan", "location": {"lat": 30.7838, "lon": 114.208}, "countryCode": "CN"}, "averageDailyFlights": 1.14, "operators": [{"name": "Chengdu Airlines", "iata": "EU", "icao": "UEA"}]}, {"destination": {"icao": "ZUYB", "iata": "YBP", "name": "Yibin Caiba", "shortName": "Caiba", "municipalityName": "Yibin", "location": {"lat": 28.800554, "lon": 104.545}, "countryCode": "CN"}, "averageDailyFlights": 1.14, "operators": [{"name": "Tibet Airlines", "iata": "TV", "icao": "TBA"}]}, {"destination": {"icao": "ZPLJ", "iata": "LJG", "name": "Lijiang ", "shortName": "Lijiang", "municipalityName": "Lijiang", "location": {"lat": 26.68, "lon": 100.246}, "countryCode": "CN"}, "averageDailyFlights": 1.0, "operators": [{"name": "Sichuan Airlines", "iata": "3U", "icao": "CSC"}]}, {"destination": {"icao": "ZULZ", "iata": "LZO", "name": "Luzhou ", "shortName": "Luzhou", "municipalityName": "Luzhou", "location": {"lat": 28.8522, "lon": 105.393}, "countryCode": "CN"}, "averageDailyFlights": 0.71, "operators": [{"name": "West Air (China)", "iata": "PN", "icao": "CHB"}, {"name": "Tibet Airlines", "iata": "TV", "icao": "TBA"}]}, {"destination": {"icao": "ZUNC", "iata": "NAO", "name": "Nanchong ", "shortName": "Nanchong", "municipalityName": "Nanchong", "location": {"lat": 30.79545, "lon": 106.1626}, "countryCode": "CN"}, "averageDailyFlights": 0.71, "operators": [{"name": "Tibet Airlines", "iata": "TV", "icao": "TBA"}]}, {"destination": {"icao": "ZSYN", "iata": "YNZ", "name": "Yancheng ", "shortName": "Yancheng", "municipalityName": "Yancheng", "location": {"lat": 33.425835, "lon": 120.20306}, "countryCode": "CN"}, "averageDailyFlights": 0.71, "operators": [{"name": "Chongqing Airlines", "iata": "OQ", "icao": "CQN"}]}, {"destination": {"icao": "ZLGM", "iata": "GOQ", "name": "Golmud ", "shortName": "Golmud", "municipalityName": "Golmud", "location": {"lat": 36.4006, "lon": 94.7861}, "countryCode": "CN"}, "averageDailyFlights": 0.57, "operators": [{"name": "West Air (China)", "iata": "PN", "icao": "CHB"}]}, {"destination": {"icao": "ZHYC", "iata": "YIH", "name": "Yichang ", "shortName": "Yichang", "municipalityName": "Yichang", "location": {"lat": 30.55655, "lon": 111.47999}, "countryCode": "CN"}, "averageDailyFlights": 0.57, "operators": [{"name": "Tibet Airlines", "iata": "TV", "icao": "TBA"}]}, {"destination": {"icao": "ZUGU", "iata": "GYS", "name": "Guangyuan ", "shortName": "Guangyuan", "municipalityName": "Guangyuan", "location": {"lat": 32.3911, "lon": 105.702}, "countryCode": "CN"}, "averageDailyFlights": 0.43, "operators": [{"name": "Tibet Airlines", "iata": "TV", "icao": "TBA"}]}, {"destination": {"icao": "ZUTC", "iata": "TCZ", "name": "Tengchong Tuofeng", "shortName": "Tuofeng", "municipalityName": "Tengchong", "location": {"lat": 24.938055, "lon": 98.48583}, "countryCode": "CN"}, "averageDailyFlights": 0.43, "operators": [{"name": "Chongqing Airlines", "iata": "OQ", "icao": "CQN"}]}, {"destination": {"icao": "ZPDL", "iata": "DLU", "name": "Xiaguan Dali", "shortName": "Dali", "municipalityName": "Xiaguan", "location": {"lat": 25.6494, "lon": 100.319}, "countryCode": "CN"}, "averageDailyFlights": 0.43, "operators": [{"name": "Tibet Airlines", "iata": "TV", "icao": "TBA"}]}, {"destination": {"icao": "ZUQJ", "iata": "JIQ", "name": "Qianjiang Wulingshan", "shortName": "Wulingshan", "municipalityName": "Qianjiang", "location": {"lat": 29.513332, "lon": 108.83111}, "countryCode": "CN"}, "averageDailyFlights": 0.29, "operators": [{"name": "West Air (China)", "iata": "PN", "icao": "CHB"}]}, {"destination": {"name": "Bangda"}, "averageDailyFlights": 0.29, "operators": [{"name": "Tibet Airlines", "iata": "TV", "icao": "TBA"}]}, {"destination": {"name": "Lanzhou"}, "averageDailyFlights": 0.29, "operators": [{"name": "Tibet Airlines", "iata": "TV", "icao": "TBA"}]}]}