{"routes": [{"destination": {"icao": "CYHD", "iata": "YHD", "name": "Dryden Regional", "shortName": "Regional", "municipalityName": "Dryden", "location": {"lat": 49.8317, "lon": -92.7442}, "countryCode": "CA"}, "averageDailyFlights": 0.43, "operators": [{"name": "Bearskin Airlines", "iata": "JV", "icao": "BLS"}]}, {"destination": {"icao": "CYAG", "iata": "YAG", "name": "Fort Frances Municipal", "shortName": "Municipal", "municipalityName": "Fort Frances", "location": {"lat": 48.6542, "lon": -93.4397}, "countryCode": "CA"}, "averageDailyFlights": 0.43, "operators": [{"name": "Bearskin Airlines", "iata": "JV", "icao": "BLS"}]}, {"destination": {"icao": "KATW", "iata": "ATW", "name": "Appleton ", "shortName": "Appleton", "municipalityName": "Appleton", "location": {"lat": 44.2581, "lon": -88.5191}, "countryCode": "US"}, "averageDailyFlights": 0.29, "operators": [{"name": "NTW"}]}, {"destination": {"icao": "KORD", "iata": "ORD", "name": "Chicago O'Hare", "shortName": "O'Hare", "municipalityName": "Chicago", "location": {"lat": 41.9786, "lon": -87.9048}, "countryCode": "US"}, "averageDailyFlights": 0.14, "operators": [{"name": "NetJets Aviation", "iata": "1I", "icao": "EJA"}]}, {"destination": {"icao": "CYKF", "iata": "YKF", "name": "Kitchener Waterloo", "shortName": "Waterloo", "municipalityName": "Kitchener", "location": {"lat": 43.4608, "lon": -80.3786}, "countryCode": "CA"}, "averageDailyFlights": 0.14, "operators": [{"name": "PHX"}]}, {"destination": {"icao": "CYXL", "iata": "YXL", "name": "Sioux Lookout ", "shortName": "Sioux Lookout", "municipalityName": "Sioux Lookout", "location": {"lat": 50.1139, "lon": -91.9053}, "countryCode": "CA"}, "averageDailyFlights": 0.14, "operators": [{"name": "Bearskin Airlines", "iata": "JV", "icao": "BLS"}]}, {"destination": {"icao": "CYKZ", "iata": "YKZ", "name": "Toronto Buttonville Municipal", "shortName": "Buttonville Municipal", "municipalityName": "Toronto", "location": {"lat": 43.8622, "lon": -79.37}, "countryCode": "CA"}, "averageDailyFlights": 0.14, "operators": [{"name": "TOR"}]}]}