{"routes": [{"destination": {"icao": "CYYR", "iata": "YYR", "name": "Goose Bay ", "shortName": "Goose Bay", "municipalityName": "Goose Bay", "location": {"lat": 53.3192, "lon": -60.4258}, "countryCode": "CA"}, "averageDailyFlights": 1.0, "operators": [{"name": "PAL Airlines", "iata": "PB", "icao": "PVL"}]}, {"destination": {"icao": "CYHZ", "iata": "YHZ", "name": "Halifax Stanfield", "shortName": "Stanfield", "municipalityName": "Halifax", "location": {"lat": 44.8808, "lon": -63.5086}, "countryCode": "CA"}, "averageDailyFlights": 1.0, "operators": [{"name": "Air Canada", "iata": "AC", "icao": "ACA"}]}, {"destination": {"icao": "CYYZ", "iata": "YYZ", "name": "Toronto Pearson", "shortName": "Pearson", "municipalityName": "Toronto", "location": {"lat": 43.6772, "lon": -79.6306}, "countryCode": "CA"}, "averageDailyFlights": 1.0, "operators": [{"name": "Air Canada", "iata": "AC", "icao": "ACA"}]}, {"destination": {"icao": "CYYT", "iata": "YYT", "name": "St. John's ", "shortName": "St. John's", "municipalityName": "St. John's", "location": {"lat": 47.6186, "lon": -52.7519}, "countryCode": "CA"}, "averageDailyFlights": 0.86, "operators": [{"name": "PAL Airlines", "iata": "PB", "icao": "PVL"}]}, {"destination": {"icao": "KBOS", "iata": "BOS", "name": "Boston General Edward Lawrence Logan", "shortName": "General Edward Lawrence Logan", "municipalityName": "Boston", "location": {"lat": 42.3643, "lon": -71.0052}, "countryCode": "US"}, "averageDailyFlights": 0.14, "operators": [{"name": "LXJ"}]}]}