{"routes": [{"destination": {"icao": "CYYZ", "iata": "YYZ", "name": "Toronto Pearson", "shortName": "Pearson", "municipalityName": "Toronto", "location": {"lat": 43.6772, "lon": -79.6306}, "countryCode": "CA"}, "averageDailyFlights": 16.71, "operators": [{"name": "Air Canada", "iata": "AC", "icao": "ACA"}, {"name": "WestJet", "iata": "WS", "icao": "WJA"}, {"name": "Flair Airlines", "iata": "F8", "icao": "FLE"}, {"name": "Kish Air", "iata": "Y9", "icao": "KIS"}]}, {"destination": {"icao": "CYYC", "iata": "YYC", "name": "Calgary ", "shortName": "Calgary", "municipalityName": "Calgary", "location": {"lat": 51.1139, "lon": -114.02}, "countryCode": "CA"}, "averageDailyFlights": 10.57, "operators": [{"name": "Air Canada", "iata": "AC", "icao": "ACA"}, {"name": "WestJet", "iata": "WS", "icao": "WJA"}, {"name": "Flair Airlines", "iata": "F8", "icao": "FLE"}, {"name": "Kish Air", "iata": "Y9", "icao": "KIS"}]}, {"destination": {"icao": "CYVR", "iata": "YVR", "name": "Vancouver ", "shortName": "Vancouver", "municipalityName": "Vancouver", "location": {"lat": 49.1939, "lon": -123.184}, "countryCode": "CA"}, "averageDailyFlights": 7.86, "operators": [{"name": "Air Canada", "iata": "AC", "icao": "ACA"}, {"name": "WestJet", "iata": "WS", "icao": "WJA"}, {"name": "Flair Airlines", "iata": "F8", "icao": "FLE"}, {"name": "Kish Air", "iata": "Y9", "icao": "KIS"}]}, {"destination": {"icao": "CYUL", "iata": "YUL", "name": "Montreal Trudeau", "shortName": "Trudeau", "municipalityName": "Montreal", "location": {"lat": 45.4706, "lon": -73.7408}, "countryCode": "CA"}, "averageDailyFlights": 3.43, "operators": [{"name": "Air Canada", "iata": "AC", "icao": "ACA"}]}, {"destination": {"icao": "CYOW", "iata": "YOW", "name": "Ottawa Macdonald-Cartier", "shortName": "Macdonald-Cartier", "municipalityName": "Ottawa", "location": {"lat": 45.3225, "lon": -75.6692}, "countryCode": "CA"}, "averageDailyFlights": 2.86, "operators": [{"name": "Flair Airlines", "iata": "F8", "icao": "FLE"}, {"name": "WestJet", "iata": "WS", "icao": "WJA"}, {"name": "Air Canada", "iata": "AC", "icao": "ACA"}]}, {"destination": {"icao": "CYEG", "iata": "YEG", "name": "Edmonton ", "shortName": "Edmonton", "municipalityName": "Edmonton", "location": {"lat": 53.3097, "lon": -113.58}, "countryCode": "CA"}, "averageDailyFlights": 2.71, "operators": [{"name": "Flair Airlines", "iata": "F8", "icao": "FLE"}, {"name": "WestJet", "iata": "WS", "icao": "WJA"}]}, {"destination": {"icao": "KMSP", "iata": "MSP", "name": "Minneapolis Wold-Chamberlain", "shortName": "Wold-Chamberlain", "municipalityName": "Minneapolis", "location": {"lat": 44.882, "lon": -93.2218}, "countryCode": "US"}, "averageDailyFlights": 2.14, "operators": [{"name": "Delta Air Lines", "iata": "DL", "icao": "DAL"}]}, {"destination": {"icao": "CYQT", "iata": "YQT", "name": "Thunder Bay ", "shortName": "Thunder Bay", "municipalityName": "Thunder Bay", "location": {"lat": 48.3719, "lon": -89.3239}, "countryCode": "CA"}, "averageDailyFlights": 2.0, "operators": [{"name": "WestJet", "iata": "WS", "icao": "WJA"}]}, {"destination": {"icao": "CYXE", "iata": "YXE", "name": "Saskatoon Diefenbaker", "shortName": "Diefenbaker", "municipalityName": "Saskatoon", "location": {"lat": 52.1708, "lon": -106.7}, "countryCode": "CA"}, "averageDailyFlights": 1.73, "operators": [{"name": "WestJet", "iata": "WS", "icao": "WJA"}]}, {"destination": {"name": "Rankin Inlet"}, "averageDailyFlights": 1.57, "operators": [{"name": "Calm Air International", "iata": "MO", "icao": "CAV"}]}, {"destination": {"name": "Thompson"}, "averageDailyFlights": 1.57, "operators": [{"name": "Calm Air International", "iata": "MO", "icao": "CAV"}]}, {"destination": {"name": "Kingfisher Lake"}, "averageDailyFlights": 1.02, "operators": [{"name": "Calm Air International", "iata": "MO", "icao": "CAV"}, {"name": "Bearskin Airlines", "iata": "JV", "icao": "BLS"}, {"name": "French Bee", "iata": "BF", "icao": "FBU"}]}, {"destination": {"icao": "CYQR", "iata": "YQR", "name": "Regina ", "shortName": "Regina", "municipalityName": "Regina", "location": {"lat": 50.4319, "lon": -104.666}, "countryCode": "CA"}, "averageDailyFlights": 0.76, "operators": [{"name": "WestJet", "iata": "WS", "icao": "WJA"}, {"name": "Air Canada", "iata": "AC", "icao": "ACA"}]}, {"destination": {"icao": "CYHZ", "iata": "YHZ", "name": "Halifax Stanfield", "shortName": "Stanfield", "municipalityName": "Halifax", "location": {"lat": 44.8808, "lon": -63.5086}, "countryCode": "CA"}, "averageDailyFlights": 0.71, "operators": [{"name": "WestJet", "iata": "WS", "icao": "WJA"}]}, {"destination": {"icao": "CYXX", "iata": "YXX", "name": "Abbotsford ", "shortName": "Abbotsford", "municipalityName": "Abbotsford", "location": {"lat": 49.0253, "lon": -122.361}, "countryCode": "CA"}, "averageDailyFlights": 0.57, "operators": [{"name": "Swoop", "iata": "WO", "icao": "WSW"}]}, {"destination": {"icao": "CYYQ", "iata": "YYQ", "name": "Churchill ", "shortName": "Churchill", "municipalityName": "Churchill", "location": {"lat": 58.7392, "lon": -94.065}, "countryCode": "CA"}, "averageDailyFlights": 0.57, "operators": [{"name": "Calm Air International", "iata": "MO", "icao": "CAV"}, {"name": "Calm Air"}]}, {"destination": {"name": "Flin Flon"}, "averageDailyFlights": 0.57, "operators": [{"name": "Calm Air International", "iata": "MO", "icao": "CAV"}]}, {"destination": {"name": "Gillam"}, "averageDailyFlights": 0.57, "operators": [{"name": "Calm Air International", "iata": "MO", "icao": "CAV"}, {"name": "Calm Air"}]}, {"destination": {"icao": "CYKF", "iata": "YKF", "name": "Kitchener Waterloo", "shortName": "Waterloo", "municipalityName": "Kitchener", "location": {"lat": 43.4608, "lon": -80.3786}, "countryCode": "CA"}, "averageDailyFlights": 0.45, "operators": [{"name": "Flair Airlines", "iata": "F8", "icao": "FLE"}]}, {"destination": {"icao": "CYHM", "iata": "YHM", "name": "Hamilton John C. Munro", "shortName": "John C. Munro", "municipalityName": "Hamilton", "location": {"lat": 43.1736, "lon": -79.935}, "countryCode": "CA"}, "averageDailyFlights": 0.43, "operators": [{"name": "Swoop", "iata": "WO", "icao": "WSW"}]}, {"destination": {"icao": "CYLW", "iata": "YLW", "name": "Kelowna ", "shortName": "Kelowna", "municipalityName": "Kelowna", "location": {"lat": 49.9561, "lon": -119.378}, "countryCode": "CA"}, "averageDailyFlights": 0.43, "operators": [{"name": "WestJet", "iata": "WS", "icao": "WJA"}]}, {"destination": {"icao": "KLAX", "iata": "LAX", "name": "Los Angeles ", "shortName": "Los Angeles", "municipalityName": "Los Angeles", "location": {"lat": 33.9425, "lon": -118.408}, "countryCode": "US"}, "averageDailyFlights": 0.43, "operators": [{"name": "WestJet", "iata": "WS", "icao": "WJA"}]}, {"destination": {"icao": "CYQD", "iata": "YQD", "name": "The Pas ", "shortName": "The Pas", "municipalityName": "The Pas", "location": {"lat": 53.9714, "lon": -101.091}, "countryCode": "CA"}, "averageDailyFlights": 0.43, "operators": [{"name": "Calm Air International", "iata": "MO", "icao": "CAV"}]}, {"destination": {"name": "Sanikiluaq"}, "averageDailyFlights": 0.43, "operators": [{"name": "Calm Air International", "iata": "MO", "icao": "CAV"}]}, {"destination": {"icao": "KLAS", "iata": "LAS", "name": "Las Vegas McCarran", "shortName": "McCarran", "municipalityName": "Las Vegas", "location": {"lat": 36.0801, "lon": -115.152}, "countryCode": "US"}, "averageDailyFlights": 0.29, "operators": [{"name": "WestJet", "iata": "WS", "icao": "WJA"}]}, {"destination": {"icao": "CYYJ", "iata": "YYJ", "name": "Victoria ", "shortName": "Victoria", "municipalityName": "Victoria", "location": {"lat": 48.6469, "lon": -123.426}, "countryCode": "CA"}, "averageDailyFlights": 0.29, "operators": [{"name": "WestJet", "iata": "WS", "icao": "WJA"}]}, {"destination": {"icao": "KMDW", "iata": "MDW", "name": "Chicago Midway", "shortName": "Midway", "municipalityName": "Chicago", "location": {"lat": 41.786, "lon": -87.7524}, "countryCode": "US"}, "averageDailyFlights": 0.14, "operators": [{"name": "NetJets Aviation", "iata": "1I", "icao": "EJA"}]}, {"destination": {"icao": "KDLH", "iata": "DLH", "name": "Duluth ", "shortName": "Duluth", "municipalityName": "Duluth", "location": {"lat": 46.8421, "lon": -92.1936}, "countryCode": "US"}, "averageDailyFlights": 0.14, "operators": [{"name": "NWF"}]}, {"destination": {"icao": "CYAG", "iata": "YAG", "name": "Fort Frances Municipal", "shortName": "Municipal", "municipalityName": "Fort Frances", "location": {"lat": 48.6542, "lon": -93.4397}, "countryCode": "CA"}, "averageDailyFlights": 0.14, "operators": [{"name": "THU"}]}, {"destination": {"icao": "KLGA", "iata": "LGA", "name": "New York La Guardia", "shortName": "La Guardia", "municipalityName": "New York", "location": {"lat": 40.7772, "lon": -73.8726}, "countryCode": "US"}, "averageDailyFlights": 0.14, "operators": [{"name": "NetJets Aviation", "iata": "1I", "icao": "EJA"}]}, {"destination": {"icao": "KHPN", "iata": "HPN", "name": "White Plains Westchester County", "shortName": "Westchester County", "municipalityName": "White Plains", "location": {"lat": 41.067, "lon": -73.7076}, "countryCode": "US"}, "averageDailyFlights": 0.14, "operators": [{"name": "NetJets Aviation", "iata": "1I", "icao": "EJA"}]}]}