{"routes": [{"destination": {"icao": "CYVR", "iata": "YVR", "name": "Vancouver ", "shortName": "Vancouver", "municipalityName": "Vancouver", "location": {"lat": 49.1939, "lon": -123.184}, "countryCode": "CA"}, "averageDailyFlights": 3.86, "operators": [{"name": "Air North", "iata": "4N", "icao": "ANT"}, {"name": "Air Canada", "iata": "AC", "icao": "ACA"}]}, {"destination": {"icao": "CYYJ", "iata": "YYJ", "name": "Victoria ", "shortName": "Victoria", "municipalityName": "Victoria", "location": {"lat": 48.6469, "lon": -123.426}, "countryCode": "CA"}, "averageDailyFlights": 0.57, "operators": [{"name": "Air North", "iata": "4N", "icao": "ANT"}]}, {"destination": {"icao": "CYYC", "iata": "YYC", "name": "Calgary ", "shortName": "Calgary", "municipalityName": "Calgary", "location": {"lat": 51.1139, "lon": -114.02}, "countryCode": "CA"}, "averageDailyFlights": 0.29, "operators": [{"name": "Air North", "iata": "4N", "icao": "ANT"}]}, {"destination": {"icao": "CYEG", "iata": "YEG", "name": "Edmonton ", "shortName": "Edmonton", "municipalityName": "Edmonton", "location": {"lat": 53.3097, "lon": -113.58}, "countryCode": "CA"}, "averageDailyFlights": 0.29, "operators": [{"name": "Air North", "iata": "4N", "icao": "ANT"}]}, {"destination": {"icao": "EDDF", "iata": "FRA", "name": "Frankfurt-am-Main ", "shortName": "Frankfurt-am-Main", "municipalityName": "Frankfurt-am-Main", "location": {"lat": 50.0264, "lon": 8.543129}, "countryCode": "DE"}, "averageDailyFlights": 0.14, "operators": [{"name": "Condor", "iata": "DE", "icao": "CFG"}]}, {"destination": {"icao": "CYZF", "iata": "YZF", "name": "Yellowknife ", "shortName": "Yellowknife", "municipalityName": "Yellowknife", "location": {"lat": 62.4628, "lon": -114.44}, "countryCode": "CA"}, "averageDailyFlights": 0.14, "operators": [{"name": "Air North", "iata": "4N", "icao": "ANT"}]}]}