{"routes": [{"destination": {"icao": "DNMM", "iata": "LOS", "name": "Lagos Murtala Muhammed", "shortName": "Murtala Muhammed", "municipalityName": "Lagos", "location": {"lat": 6.57737, "lon": 3.32116}, "countryCode": "NG"}, "averageDailyFlights": 16.71, "operators": [{"name": "Air Peace", "iata": "P4", "icao": "APK"}, {"name": "Dana Airlines", "iata": "9J", "icao": "DAN"}, {"name": "Aero Contractors Company of Nigeria Ltd"}]}, {"destination": {"icao": "DNIB", "iata": "IBA", "name": "Ibadan ", "shortName": "Ibadan", "municipalityName": "Ibadan", "location": {"lat": 7.36246, "lon": 3.978329}, "countryCode": "NG"}, "averageDailyFlights": 2.29, "operators": [{"name": "Air Peace", "iata": "P4", "icao": "APK"}, {"name": "Overland Airways", "iata": "OF", "icao": "OLA"}]}, {"destination": {"icao": "DNIL", "iata": "ILR", "name": "Ilorin ", "shortName": "Ilorin", "municipalityName": "Ilorin", "location": {"lat": 8.44021, "lon": 4.493919}, "countryCode": "NG"}, "averageDailyFlights": 2.29, "operators": [{"name": "Air Peace", "iata": "P4", "icao": "APK"}, {"name": "Overland Airways", "iata": "OF", "icao": "OLA"}]}, {"destination": {"icao": "DNKN", "iata": "KAN", "name": "Kano Mallam Aminu", "shortName": "Mallam Aminu", "municipalityName": "Kano", "location": {"lat": 12.047599, "lon": 8.52462}, "countryCode": "NG"}, "averageDailyFlights": 2.29, "operators": [{"name": "Air Peace", "iata": "P4", "icao": "APK"}, {"name": "Qatar Airways", "iata": "QR", "icao": "QTR"}, {"name": "Aero Contractors Company of Nigeria Ltd"}]}, {"destination": {"icao": "DNIM", "iata": "QOW", "name": "Owerri Sam Mbakwe", "shortName": "Sam Mbakwe", "municipalityName": "Owerri", "location": {"lat": 5.42706, "lon": 7.206029}, "countryCode": "NG"}, "averageDailyFlights": 2.29, "operators": [{"name": "Air Peace", "iata": "P4", "icao": "APK"}]}, {"destination": {"icao": "DNBE", "iata": "BNI", "name": "Benin ", "shortName": "Benin", "municipalityName": "Benin", "location": {"lat": 6.316979, "lon": 5.5995}, "countryCode": "NG"}, "averageDailyFlights": 2.16, "operators": [{"name": "Air Peace", "iata": "P4", "icao": "APK"}]}, {"destination": {"icao": "DNAS", "iata": "ABB", "name": "Asaba ", "shortName": "Asaba", "municipalityName": "Asaba", "location": {"lat": 6.203333, "lon": 6.658888}, "countryCode": "NG"}, "averageDailyFlights": 2.14, "operators": [{"name": "Air Peace", "iata": "P4", "icao": "APK"}]}, {"destination": {"icao": "DNPO", "iata": "PHC", "name": "Port Harcourt ", "shortName": "Port Harcourt", "municipalityName": "Port Harcourt", "location": {"lat": 5.01549, "lon": 6.94959}, "countryCode": "NG"}, "averageDailyFlights": 2.03, "operators": [{"name": "Aero Contractors Company of Nigeria Ltd"}, {"name": "Lufthansa", "iata": "LH", "icao": "DLH"}, {"name": "Qatar Airways", "iata": "QR", "icao": "QTR"}, {"name": "Dana Airlines", "iata": "9J", "icao": "DAN"}, {"name": "Air Peace", "iata": "P4", "icao": "APK"}]}, {"destination": {"icao": "DGAA", "iata": "ACC", "name": "Accra Kotoka", "shortName": "Kotoka", "municipalityName": "Accra", "location": {"lat": 5.605189, "lon": -0.166786}, "countryCode": "GH"}, "averageDailyFlights": 1.71, "operators": [{"name": "Africa World Airlines", "iata": "AW", "icao": "AFW"}, {"name": "RwandAir", "iata": "WB", "icao": "RWD"}]}, {"destination": {"icao": "DNAK", "iata": "AKR", "name": "Akure ", "shortName": "Akure", "municipalityName": "Akure", "location": {"lat": 7.246739, "lon": 5.30101}, "countryCode": "NG"}, "averageDailyFlights": 1.57, "operators": [{"name": "Overland Airways", "iata": "OF", "icao": "OLA"}, {"name": "Air Peace", "iata": "P4", "icao": "APK"}]}, {"destination": {"icao": "HAAB", "iata": "ADD", "name": "Addis Ababa Bole", "shortName": "Bole", "municipalityName": "Addis Ababa", "location": {"lat": 8.97789, "lon": 38.7993}, "countryCode": "ET"}, "averageDailyFlights": 1.14, "operators": [{"name": "Ethiopian Airlines", "iata": "ET", "icao": "ETH"}]}, {"destination": {"icao": "DNEN", "iata": "ENU", "name": "Enegu Akanu Ibiam", "shortName": "Akanu Ibiam", "municipalityName": "Enegu", "location": {"lat": 6.474269, "lon": 7.56196}, "countryCode": "NG"}, "averageDailyFlights": 1.14, "operators": [{"name": "Air Peace", "iata": "P4", "icao": "APK"}]}, {"destination": {"icao": "DXXX", "iata": "LFW", "name": "Lom\u00e9 -Tokoin", "shortName": "-Tokoin", "municipalityName": "Lom\u00e9", "location": {"lat": 6.165609, "lon": 1.25451}, "countryCode": "TG"}, "averageDailyFlights": 1.14, "operators": [{"name": "ASKY", "iata": "KP", "icao": "SKK"}]}, {"destination": {"icao": "EGLL", "iata": "LHR", "name": "London Heathrow", "shortName": "Heathrow", "municipalityName": "London", "location": {"lat": 51.4706, "lon": -0.461941}, "countryCode": "GB"}, "averageDailyFlights": 1.14, "operators": [{"name": "British Airways", "iata": "BA", "icao": "BAW"}]}, {"destination": {"icao": "DNAI", "iata": "QUO", "name": "Uyo Akwa Ibom", "shortName": "Akwa Ibom", "municipalityName": "Uyo", "location": {"lat": 4.8725, "lon": 8.093}, "countryCode": "NG"}, "averageDailyFlights": 1.14, "operators": [{"name": "Air Peace", "iata": "P4", "icao": "APK"}]}, {"destination": {"name": "Doha"}, "averageDailyFlights": 1.14, "operators": [{"name": "Qatar Airways", "iata": "QR", "icao": "QTR"}]}, {"destination": {"name": "Warri"}, "averageDailyFlights": 1.14, "operators": [{"name": "Air Peace", "iata": "P4", "icao": "APK"}]}, {"destination": {"icao": "EDDF", "iata": "FRA", "name": "Frankfurt-am-Main ", "shortName": "Frankfurt-am-Main", "municipalityName": "Frankfurt-am-Main", "location": {"lat": 50.0264, "lon": 8.543129}, "countryCode": "DE"}, "averageDailyFlights": 0.86, "operators": [{"name": "Lufthansa", "iata": "LH", "icao": "DLH"}]}, {"destination": {"icao": "DNSO", "iata": "SKO", "name": "Sokoto Sadiq Abubakar III", "shortName": "Sadiq Abubakar III", "municipalityName": "Sokoto", "location": {"lat": 12.916299, "lon": 5.20719}, "countryCode": "NG"}, "averageDailyFlights": 0.86, "operators": [{"name": "Aero Contractors Company of Nigeria Ltd"}]}, {"destination": {"icao": "DNCA", "iata": "CBQ", "name": "Calabar Margaret Ekpo", "shortName": "Margaret Ekpo", "municipalityName": "Calabar", "location": {"lat": 4.976019, "lon": 8.3472}, "countryCode": "NG"}, "averageDailyFlights": 0.71, "operators": [{"name": "Air Peace", "iata": "P4", "icao": "APK"}]}, {"destination": {"icao": "LTFM", "iata": "IST", "name": "Istanbul ", "shortName": "Istanbul", "municipalityName": "Istanbul", "location": {"lat": 41.275276, "lon": 28.751944}, "countryCode": "TR"}, "averageDailyFlights": 0.71, "operators": [{"name": "Turkish Airlines", "iata": "TK", "icao": "THY"}]}, {"destination": {"icao": "DNMK", "iata": "MDI", "name": "Makurdi ", "shortName": "Makurdi", "municipalityName": "Makurdi", "location": {"lat": 7.703879, "lon": 8.61394}, "countryCode": "NG"}, "averageDailyFlights": 0.71, "operators": [{"name": "Air Peace", "iata": "P4", "icao": "APK"}]}, {"destination": {"icao": "LFPG", "iata": "CDG", "name": "Paris Charles de Gaulle", "shortName": "Charles de Gaulle", "municipalityName": "Paris", "location": {"lat": 49.0128, "lon": 2.549999}, "countryCode": "FR"}, "averageDailyFlights": 0.71, "operators": [{"name": "Air France", "iata": "AF", "icao": "AFR"}]}, {"destination": {"icao": "DNGO", "iata": "GMO", "name": "Gombe Lawanti", "shortName": "Lawanti", "municipalityName": "Gombe", "location": {"lat": 10.298333, "lon": 10.896388}, "countryCode": "NG"}, "averageDailyFlights": 0.57, "operators": [{"name": "Air Peace", "iata": "P4", "icao": "APK"}]}, {"destination": {"icao": "DNYO", "iata": "YOL", "name": "Yola ", "shortName": "Yola", "municipalityName": "Yola", "location": {"lat": 9.25755, "lon": 12.430399}, "countryCode": "NG"}, "averageDailyFlights": 0.57, "operators": [{"name": "Air Peace", "iata": "P4", "icao": "APK"}, {"name": "Aero Contractors Company of Nigeria Ltd"}]}, {"destination": {"name": "Maiduguri"}, "averageDailyFlights": 0.57, "operators": [{"name": "Air Peace", "iata": "P4", "icao": "APK"}]}, {"destination": {"icao": "DIAP", "iata": "ABJ", "name": "Abidjan Port Bouet", "shortName": "Port Bouet", "municipalityName": "Abidjan", "location": {"lat": 5.26139, "lon": -3.92629}, "countryCode": "CI"}, "averageDailyFlights": 0.43, "operators": [{"name": "Air Cote D'Ivoire", "iata": "HF", "icao": "VRE"}]}, {"destination": {"icao": "FKKD", "iata": "DLA", "name": "Douala ", "shortName": "Douala", "municipalityName": "Douala", "location": {"lat": 4.00608, "lon": 9.719479}, "countryCode": "CM"}, "averageDailyFlights": 0.43, "operators": [{"name": "Air Cote D'Ivoire", "iata": "HF", "icao": "VRE"}]}, {"destination": {"icao": "FTTJ", "iata": "NDJ", "name": "N'Djamena ", "shortName": "N'Djamena", "municipalityName": "N'Djamena", "location": {"lat": 12.1337, "lon": 15.034}, "countryCode": "TD"}, "averageDailyFlights": 0.43, "operators": [{"name": "ASKY", "iata": "KP", "icao": "SKK"}]}, {"destination": {"icao": "FKYS", "iata": "NSI", "name": "Yaound\u00e9 Nsimalen", "shortName": "Nsimalen", "municipalityName": "Yaound\u00e9", "location": {"lat": 3.722559, "lon": 11.553299}, "countryCode": "CM"}, "averageDailyFlights": 0.43, "operators": [{"name": "ASKY", "iata": "KP", "icao": "SKK"}]}, {"destination": {"icao": "HECA", "iata": "CAI", "name": "Cairo ", "shortName": "Cairo", "municipalityName": "Cairo", "location": {"lat": 30.1219, "lon": 31.4056}, "countryCode": "EG"}, "averageDailyFlights": 0.29, "operators": [{"name": "EgyptAir", "iata": "MS", "icao": "MSR"}]}]}