{"routes": [{"destination": {"icao": "EGLC", "iata": "LCY", "name": "London City", "shortName": "City", "municipalityName": "London", "location": {"lat": 51.5053, "lon": 0.055277}, "countryCode": "GB"}, "averageDailyFlights": 0.86, "operators": [{"name": "Luxair", "iata": "LG", "icao": "LGL"}]}, {"destination": {"icao": "LEMG", "iata": "AGP", "name": "M\u00e1laga ", "shortName": "M\u00e1laga", "municipalityName": "M\u00e1laga", "location": {"lat": 36.6749, "lon": -4.49911}, "countryCode": "ES"}, "averageDailyFlights": 0.86, "operators": [{"name": "TUI Airlines Belgium", "iata": "TB", "icao": "JAF"}]}, {"destination": {"icao": "LEAL", "iata": "ALC", "name": "Alicante ", "shortName": "Alicante", "municipalityName": "Alicante", "location": {"lat": 38.2822, "lon": -0.558156}, "countryCode": "ES"}, "averageDailyFlights": 0.71, "operators": [{"name": "TUI Airlines Belgium", "iata": "TB", "icao": "JAF"}]}, {"destination": {"icao": "LEMI", "iata": "RMU", "name": "Murcia -Corvera", "shortName": "-Corvera", "municipalityName": "Murcia", "location": {"lat": 37.80258, "lon": -1.125389}, "countryCode": "ES"}, "averageDailyFlights": 0.43, "operators": [{"name": "TUI Airlines Belgium", "iata": "TB", "icao": "JAF"}]}, {"destination": {"icao": "GMTT", "iata": "TNG", "name": "Tangier Ibn Batouta", "shortName": "Ibn Batouta", "municipalityName": "Tangier", "location": {"lat": 35.7269, "lon": -5.91689}, "countryCode": "MA"}, "averageDailyFlights": 0.43, "operators": [{"name": "TUI Airlines Belgium", "iata": "TB", "icao": "JAF"}]}, {"destination": {"icao": "LDSP", "iata": "SPU", "name": "Split ", "shortName": "Split", "municipalityName": "Split", "location": {"lat": 43.5389, "lon": 16.298}, "countryCode": "HR"}, "averageDailyFlights": 0.29, "operators": [{"name": "TUI Airlines Belgium", "iata": "TB", "icao": "JAF"}]}, {"destination": {"icao": "LOWG", "iata": "GRZ", "name": "Graz ", "shortName": "Graz", "municipalityName": "Graz", "location": {"lat": 46.9911, "lon": 15.439599}, "countryCode": "AT"}, "averageDailyFlights": 0.14, "operators": [{"name": "PGC"}]}, {"destination": {"icao": "EHGG", "iata": "GRQ", "name": "Groningen Eelde", "shortName": "Eelde", "municipalityName": "Groningen", "location": {"lat": 53.1197, "lon": 6.57944}, "countryCode": "NL"}, "averageDailyFlights": 0.14, "operators": [{"name": "OORDR"}]}, {"destination": {"icao": "EBLG", "iata": "LGG", "name": "Li\u00e8ge ", "shortName": "Li\u00e8ge", "municipalityName": "Li\u00e8ge", "location": {"lat": 50.6374, "lon": 5.44322}, "countryCode": "BE"}, "averageDailyFlights": 0.14, "operators": [{"name": "DEUTH"}]}]}