{"routes": [{"destination": {"icao": "LEPA", "iata": "PMI", "name": "Palma De Mallorca ", "shortName": "Palma De Mallorca", "municipalityName": "Palma De Mallorca", "location": {"lat": 39.5517, "lon": 2.73881}, "countryCode": "ES"}, "averageDailyFlights": 12.14, "operators": [{"name": "Eurowings", "iata": "EW", "icao": "EWG"}, {"name": "Ryanair", "iata": "FR", "icao": "RYR"}, {"name": "Trade Air", "iata": "C3", "icao": "TDR"}]}, {"destination": {"icao": "LTAI", "iata": "AYT", "name": "Antalya ", "shortName": "Antalya", "municipalityName": "Antalya", "location": {"lat": 36.8987, "lon": 30.8005}, "countryCode": "TR"}, "averageDailyFlights": 10.43, "operators": [{"name": "Sun Express", "iata": "XQ", "icao": "SXS"}, {"name": "Pegasus", "iata": "PC", "icao": "PGT"}, {"name": "Freebird Airlines", "iata": "FH", "icao": "FHY"}, {"name": "Corendon Air", "iata": "XC", "icao": "CAI"}, {"name": "Tailwind", "iata": "TI", "icao": "TWI"}, {"name": "Eurowings", "iata": "EW", "icao": "EWG"}, {"name": "Turkish Airlines", "iata": "TK", "icao": "THY"}]}, {"destination": {"icao": "EDDM", "iata": "MUC", "name": "Munich ", "shortName": "Munich", "municipalityName": "Munich", "location": {"lat": 48.3538, "lon": 11.7861}, "countryCode": "DE"}, "averageDailyFlights": 8.57, "operators": [{"name": "Star Air A/S", "iata": "DJ", "icao": "SRR"}, {"name": "Lufthansa", "iata": "LH", "icao": "DLH"}, {"name": "Eurowings", "iata": "EW", "icao": "EWG"}]}, {"destination": {"icao": "LOWW", "iata": "VIE", "name": "Vienna Schwechat", "shortName": "Schwechat", "municipalityName": "Vienna", "location": {"lat": 48.1103, "lon": 16.5697}, "countryCode": "AT"}, "averageDailyFlights": 6.14, "operators": [{"name": "Eurowings", "iata": "EW", "icao": "EWG"}, {"name": "Ryanair", "iata": "FR", "icao": "RYR"}, {"name": "Austrian", "iata": "OS", "icao": "AUA"}]}, {"destination": {"icao": "LTFJ", "iata": "SAW", "name": "Istanbul Sabiha G\u00f6k\u00e7en", "shortName": "Sabiha G\u00f6k\u00e7en", "municipalityName": "Istanbul", "location": {"lat": 40.8986, "lon": 29.3092}, "countryCode": "TR"}, "averageDailyFlights": 5.43, "operators": [{"name": "Turkish Airlines", "iata": "TK", "icao": "THY"}, {"name": "Pegasus", "iata": "PC", "icao": "PGT"}]}, {"destination": {"icao": "EDDB", "iata": "BER", "name": "Berlin Brandenburg", "shortName": "Brandenburg", "municipalityName": "Berlin", "location": {"lat": 52.35139, "lon": 13.493889}, "countryCode": "DE"}, "averageDailyFlights": 4.71, "operators": [{"name": "Eurowings", "iata": "EW", "icao": "EWG"}]}, {"destination": {"icao": "LEBL", "iata": "BCN", "name": "Barcelona ", "shortName": "Barcelona", "municipalityName": "Barcelona", "location": {"lat": 41.2971, "lon": 2.078459}, "countryCode": "ES"}, "averageDailyFlights": 3.57, "operators": [{"name": "Eurowings", "iata": "EW", "icao": "EWG"}, {"name": "Ryanair", "iata": "FR", "icao": "RYR"}]}, {"destination": {"icao": "EGSS", "iata": "STN", "name": "London Stansted", "shortName": "Stansted", "municipalityName": "London", "location": {"lat": 51.885, "lon": 0.234999}, "countryCode": "GB"}, "averageDailyFlights": 3.14, "operators": [{"name": "Ryanair", "iata": "FR", "icao": "RYR"}, {"name": "Ryanair UK", "iata": "RK", "icao": "RUK"}]}, {"destination": {"icao": "LIMC", "iata": "MXP", "name": "Milan Malpensa", "shortName": "Malpensa", "municipalityName": "Milan", "location": {"lat": 45.6306, "lon": 8.72811}, "countryCode": "IT"}, "averageDailyFlights": 2.57, "operators": [{"name": "EAT Leipzig", "iata": "QY", "icao": "BCS"}, {"name": "TMT"}, {"name": "Neos", "iata": "NO", "icao": "NOS"}, {"name": "Eurowings", "iata": "EW", "icao": "EWG"}]}, {"destination": {"icao": "LSZH", "iata": "ZRH", "name": "Zurich Kloten", "shortName": "Kloten", "municipalityName": "Zurich", "location": {"lat": 47.4647, "lon": 8.549169}, "countryCode": "CH"}, "averageDailyFlights": 2.57, "operators": [{"name": "Eurowings", "iata": "EW", "icao": "EWG"}]}, {"destination": {"icao": "LIME", "iata": "BGY", "name": "Bergamo Orio al Serio", "shortName": "Orio al Serio", "municipalityName": "Bergamo", "location": {"lat": 45.6739, "lon": 9.70417}, "countryCode": "IT"}, "averageDailyFlights": 2.29, "operators": [{"name": "Star Air A/S", "iata": "DJ", "icao": "SRR"}, {"name": "Ryanair", "iata": "FR", "icao": "RYR"}]}, {"destination": {"icao": "EDDH", "iata": "HAM", "name": "Hamburg ", "shortName": "Hamburg", "municipalityName": "Hamburg", "location": {"lat": 53.6304, "lon": 9.988229}, "countryCode": "DE"}, "averageDailyFlights": 2.14, "operators": [{"name": "Eurowings", "iata": "EW", "icao": "EWG"}]}, {"destination": {"icao": "LGIR", "iata": "HER", "name": "Heraklion Nikos Kazantzakis", "shortName": "Nikos Kazantzakis", "municipalityName": "Heraklion", "location": {"lat": 35.3397, "lon": 25.1803}, "countryCode": "GR"}, "averageDailyFlights": 2.14, "operators": [{"name": "Eurowings", "iata": "EW", "icao": "EWG"}, {"name": "Corendon Airlines Europe", "iata": "XR", "icao": "CXI"}]}, {"destination": {"icao": "LTBJ", "iata": "ADB", "name": "\u0130zmir Adnan Menderes", "shortName": "Adnan Menderes", "municipalityName": "\u0130zmir", "location": {"lat": 38.2924, "lon": 27.157}, "countryCode": "TR"}, "averageDailyFlights": 2.14, "operators": [{"name": "Sun Express", "iata": "XQ", "icao": "SXS"}, {"name": "Corendon Air", "iata": "XC", "icao": "CAI"}]}, {"destination": {"icao": "LIRF", "iata": "FCO", "name": "Rome Leonardo da Vinci\u2013Fiumicino", "shortName": "Leonardo da Vinci\u2013Fiumicino", "municipalityName": "Rome", "location": {"lat": 41.8045, "lon": 12.2508}, "countryCode": "IT"}, "averageDailyFlights": 2.0, "operators": [{"name": "Eurowings", "iata": "EW", "icao": "EWG"}, {"name": "Ryanair", "iata": "FR", "icao": "RYR"}]}, {"destination": {"icao": "LGAV", "iata": "ATH", "name": "Athens Eleftherios Venizelos", "shortName": "Eleftherios Venizelos", "municipalityName": "Athens", "location": {"lat": 37.9364, "lon": 23.944498}, "countryCode": "GR"}, "averageDailyFlights": 1.71, "operators": [{"name": "EAT Leipzig", "iata": "QY", "icao": "BCS"}, {"name": "Ryanair", "iata": "FR", "icao": "RYR"}, {"name": "Aegean Airlines", "iata": "A3", "icao": "AEE"}, {"name": "Eurowings", "iata": "EW", "icao": "EWG"}]}, {"destination": {"icao": "LGRP", "iata": "RHO", "name": "Rodes Island Diagoras", "shortName": "Diagoras", "municipalityName": "Rodes Island", "location": {"lat": 36.4054, "lon": 28.0862}, "countryCode": "GR"}, "averageDailyFlights": 1.71, "operators": [{"name": "Corendon Airlines Europe", "iata": "XR", "icao": "CXI"}, {"name": "Eurowings", "iata": "EW", "icao": "EWG"}]}, {"destination": {"icao": "LGKO", "iata": "KGS", "name": "Kos Island Kos", "shortName": "Kos", "municipalityName": "Kos Island", "location": {"lat": 36.7933, "lon": 27.0917}, "countryCode": "GR"}, "averageDailyFlights": 1.57, "operators": [{"name": "Eurowings", "iata": "EW", "icao": "EWG"}, {"name": "Corendon Airlines Europe", "iata": "XR", "icao": "CXI"}]}, {"destination": {"icao": "LIPE", "iata": "BLQ", "name": "Bologna Guglielmo Marconi", "shortName": "Guglielmo Marconi", "municipalityName": "Bologna", "location": {"lat": 44.5354, "lon": 11.2887}, "countryCode": "IT"}, "averageDailyFlights": 1.43, "operators": [{"name": "Ryanair", "iata": "FR", "icao": "RYR"}, {"name": "Eurowings", "iata": "EW", "icao": "EWG"}]}, {"destination": {"icao": "LGKR", "iata": "CFU", "name": "Kerkyra Island Ioannis Kapodistrias", "shortName": "Ioannis Kapodistrias", "municipalityName": "Kerkyra Island", "location": {"lat": 39.6019, "lon": 19.9117}, "countryCode": "GR"}, "averageDailyFlights": 1.43, "operators": [{"name": "Corendon Airlines Europe", "iata": "XR", "icao": "CXI"}, {"name": "Eurowings", "iata": "EW", "icao": "EWG"}, {"name": "NGN"}, {"name": "Ryanair", "iata": "FR", "icao": "RYR"}]}, {"destination": {"icao": "LPPT", "iata": "LIS", "name": "Lisbon Portela", "shortName": "Portela", "municipalityName": "Lisbon", "location": {"lat": 38.7813, "lon": -9.135919}, "countryCode": "PT"}, "averageDailyFlights": 1.43, "operators": [{"name": "Eurowings", "iata": "EW", "icao": "EWG"}, {"name": "Ryanair", "iata": "FR", "icao": "RYR"}]}, {"destination": {"icao": "LPPR", "iata": "OPO", "name": "Porto Francisco de S\u00e1 Carneiro", "shortName": "Francisco de S\u00e1 Carneiro", "municipalityName": "Porto", "location": {"lat": 41.2481, "lon": -8.681389}, "countryCode": "PT"}, "averageDailyFlights": 1.43, "operators": [{"name": "Star Air A/S", "iata": "DJ", "icao": "SRR"}, {"name": "Ryanair", "iata": "FR", "icao": "RYR"}]}, {"destination": {"icao": "LIPZ", "iata": "VCE", "name": "Venice Marco Polo", "shortName": "Marco Polo", "municipalityName": "Venice", "location": {"lat": 45.5053, "lon": 12.3519}, "countryCode": "IT"}, "averageDailyFlights": 1.43, "operators": [{"name": "Eurowings", "iata": "EW", "icao": "EWG"}, {"name": "Ryanair", "iata": "FR", "icao": "RYR"}]}, {"destination": {"icao": "LEVT", "iata": "VIT", "name": "Alava Foronda", "shortName": "Foronda", "municipalityName": "Alava", "location": {"lat": 42.8828, "lon": -2.724469}, "countryCode": "ES"}, "averageDailyFlights": 1.29, "operators": [{"name": "EAT Leipzig", "iata": "QY", "icao": "BCS"}, {"name": "Wasaya Airways", "iata": "WT", "icao": "WSG"}, {"name": "Ryanair", "iata": "FR", "icao": "RYR"}]}, {"destination": {"icao": "LPFR", "iata": "FAO", "name": "Faro ", "shortName": "Faro", "municipalityName": "Faro", "location": {"lat": 37.0144, "lon": -7.965909}, "countryCode": "PT"}, "averageDailyFlights": 1.29, "operators": [{"name": "Eurowings", "iata": "EW", "icao": "EWG"}, {"name": "Ryanair", "iata": "FR", "icao": "RYR"}]}, {"destination": {"icao": "EPKT", "iata": "KTW", "name": "Katowice ", "shortName": "Katowice", "municipalityName": "Katowice", "location": {"lat": 50.4743, "lon": 19.08}, "countryCode": "PL"}, "averageDailyFlights": 1.29, "operators": [{"name": "SAR"}, {"name": "Ryanair", "iata": "FR", "icao": "RYR"}]}, {"destination": {"icao": "LEAL", "iata": "ALC", "name": "Alicante ", "shortName": "Alicante", "municipalityName": "Alicante", "location": {"lat": 38.2822, "lon": -0.558156}, "countryCode": "ES"}, "averageDailyFlights": 1.14, "operators": [{"name": "Ryanair", "iata": "FR", "icao": "RYR"}, {"name": "Eurowings", "iata": "EW", "icao": "EWG"}]}, {"destination": {"icao": "LHBP", "iata": "BUD", "name": "Budapest Ferenc Liszt", "shortName": "Ferenc Liszt", "municipalityName": "Budapest", "location": {"lat": 47.4369, "lon": 19.255598}, "countryCode": "HU"}, "averageDailyFlights": 1.14, "operators": [{"name": "EAT Leipzig", "iata": "QY", "icao": "BCS"}, {"name": "Eurowings", "iata": "EW", "icao": "EWG"}]}, {"destination": {"icao": "EGPH", "iata": "EDI", "name": "Edinburgh ", "shortName": "Edinburgh", "municipalityName": "Edinburgh", "location": {"lat": 55.95, "lon": -3.372499}, "countryCode": "GB"}, "averageDailyFlights": 1.14, "operators": [{"name": "Eurowings", "iata": "EW", "icao": "EWG"}]}, {"destination": {"icao": "HEGN", "iata": "HRG", "name": "Hurghada ", "shortName": "Hurghada", "municipalityName": "Hurghada", "location": {"lat": 27.1783, "lon": 33.7994}, "countryCode": "EG"}, "averageDailyFlights": 1.14, "operators": [{"name": "Nesma Airlines", "iata": "NE", "icao": "NMA"}, {"name": "Air Cairo", "iata": "SM", "icao": "MSC"}, {"name": "SilkAir", "iata": "MI", "icao": "SLK"}, {"name": "Corendon Airlines Europe", "iata": "XR", "icao": "CXI"}]}, {"destination": {"icao": "LEMG", "iata": "AGP", "name": "M\u00e1laga ", "shortName": "M\u00e1laga", "municipalityName": "M\u00e1laga", "location": {"lat": 36.6749, "lon": -4.49911}, "countryCode": "ES"}, "averageDailyFlights": 1.14, "operators": [{"name": "Ryanair", "iata": "FR", "icao": "RYR"}, {"name": "Eurowings", "iata": "EW", "icao": "EWG"}]}, {"destination": {"icao": "LGTS", "iata": "SKG", "name": "Thessaloniki Macedonia", "shortName": "Macedonia", "municipalityName": "Thessaloniki", "location": {"lat": 40.5197, "lon": 22.9709}, "countryCode": "GR"}, "averageDailyFlights": 1.14, "operators": [{"name": "Eurowings", "iata": "EW", "icao": "EWG"}]}, {"destination": {"icao": "DTTA", "iata": "TUN", "name": "Tunis Carthage", "shortName": "Carthage", "municipalityName": "Tunis", "location": {"lat": 36.851, "lon": 10.227199}, "countryCode": "TN"}, "averageDailyFlights": 1.14, "operators": [{"name": "Trans AM", "iata": "7T", "icao": "RTM"}, {"name": "Eurowings", "iata": "EW", "icao": "EWG"}]}, {"destination": {"icao": "GCLP", "iata": "LPA", "name": "Gran Canaria Island Gran Canaria", "shortName": "Gran Canaria", "municipalityName": "Gran Canaria Island", "location": {"lat": 27.9319, "lon": -15.386599}, "countryCode": "ES"}, "averageDailyFlights": 1.0, "operators": [{"name": "Ryanair", "iata": "FR", "icao": "RYR"}, {"name": "Eurowings", "iata": "EW", "icao": "EWG"}, {"name": "Corendon Airlines Europe", "iata": "XR", "icao": "CXI"}]}, {"destination": {"icao": "LEIB", "iata": "IBZ", "name": "Ibiza Town Ibiza", "shortName": "Ibiza", "municipalityName": "Ibiza Town", "location": {"lat": 38.8729, "lon": 1.373119}, "countryCode": "ES"}, "averageDailyFlights": 1.0, "operators": [{"name": "Eurowings", "iata": "EW", "icao": "EWG"}]}, {"destination": {"icao": "EGCC", "iata": "MAN", "name": "Manchester ", "shortName": "Manchester", "municipalityName": "Manchester", "location": {"lat": 53.3537, "lon": -2.27495}, "countryCode": "GB"}, "averageDailyFlights": 1.0, "operators": [{"name": "Ryanair", "iata": "FR", "icao": "RYR"}]}, {"destination": {"icao": "LICJ", "iata": "PMO", "name": "Palermo Falcone\u2013Borsellino", "shortName": "Falcone\u2013Borsellino", "municipalityName": "Palermo", "location": {"lat": 38.176, "lon": 13.090999}, "countryCode": "IT"}, "averageDailyFlights": 1.0, "operators": [{"name": "Ryanair", "iata": "FR", "icao": "RYR"}, {"name": "Eurowings", "iata": "EW", "icao": "EWG"}]}, {"destination": {"icao": "LTAC", "iata": "ESB", "name": "Ankara Esenbo\u011fa", "shortName": "Esenbo\u011fa", "municipalityName": "Ankara", "location": {"lat": 40.1281, "lon": 32.9951}, "countryCode": "TR"}, "averageDailyFlights": 0.86, "operators": [{"name": "Turkish Airlines", "iata": "TK", "icao": "THY"}, {"name": "Pegasus", "iata": "PC", "icao": "PGT"}, {"name": "Sun Express", "iata": "XQ", "icao": "SXS"}]}, {"destination": {"icao": "LFSB", "iata": "BSL", "name": "B\u00e2le/Mulhouse Euro Basel-Mulhouse-Freiburg", "shortName": "Euro Basel-Mulhouse-Freiburg", "municipalityName": "B\u00e2le/Mulhouse", "location": {"lat": 47.5896, "lon": 7.52991}, "countryCode": "FR"}, "averageDailyFlights": 0.86, "operators": [{"name": "Sprint Air", "iata": "P8", "icao": "SRN"}, {"name": "EAT Leipzig", "iata": "QY", "icao": "BCS"}]}, {"destination": {"icao": "EIDW", "iata": "DUB", "name": "Dublin ", "shortName": "Dublin", "municipalityName": "Dublin", "location": {"lat": 53.4213, "lon": -6.27007}, "countryCode": "IE"}, "averageDailyFlights": 0.86, "operators": [{"name": "Ryanair", "iata": "FR", "icao": "RYR"}]}, {"destination": {"icao": "EDDP", "iata": "LEJ", "name": "Leipzig Halle", "shortName": "Halle", "municipalityName": "Leipzig", "location": {"lat": 51.4324, "lon": 12.2416}, "countryCode": "DE"}, "averageDailyFlights": 0.86, "operators": [{"name": "EAT Leipzig", "iata": "QY", "icao": "BCS"}]}, {"destination": {"icao": "GMMW", "iata": "NDR", "name": "Nador ", "shortName": "Nador", "municipalityName": "Nador", "location": {"lat": 34.9888, "lon": -3.028209}, "countryCode": "MA"}, "averageDailyFlights": 0.86, "operators": [{"name": "Air Arabia Maroc", "iata": "3O", "icao": "MAC"}, {"name": "Eurowings", "iata": "EW", "icao": "EWG"}]}, {"destination": {"icao": "LFMN", "iata": "NCE", "name": "Nice -C\u00f4te d'Azur", "shortName": "-C\u00f4te d'Azur", "municipalityName": "Nice", "location": {"lat": 43.6584, "lon": 7.215869}, "countryCode": "FR"}, "averageDailyFlights": 0.86, "operators": [{"name": "Eurowings", "iata": "EW", "icao": "EWG"}]}, {"destination": {"icao": "LIEO", "iata": "OLB", "name": "Olbia Costa Smeralda", "shortName": "Costa Smeralda", "municipalityName": "Olbia", "location": {"lat": 40.8987, "lon": 9.517629}, "countryCode": "IT"}, "averageDailyFlights": 0.86, "operators": [{"name": "Eurowings", "iata": "EW", "icao": "EWG"}]}, {"destination": {"icao": "LKMT", "iata": "OSR", "name": "Ostrava Leos Jan\u00e1\u010dek", "shortName": "Leos Jan\u00e1\u010dek", "municipalityName": "Ostrava", "location": {"lat": 49.6963, "lon": 18.1111}, "countryCode": "CZ"}, "averageDailyFlights": 0.86, "operators": [{"name": "Wasaya Airways", "iata": "WT", "icao": "WSG"}]}, {"destination": {"icao": "LFRN", "iata": "RNS", "name": "Rennes/Saint-Jacques Rennes-Saint-Jacques", "shortName": "Rennes-Saint-Jacques", "municipalityName": "Rennes/Saint-Jacques", "location": {"lat": 48.0695, "lon": -1.734789}, "countryCode": "FR"}, "averageDailyFlights": 0.86, "operators": [{"name": "Wasaya Airways", "iata": "WT", "icao": "WSG"}]}, {"destination": {"icao": "LBSF", "iata": "SOF", "name": "Sofia ", "shortName": "Sofia", "municipalityName": "Sofia", "location": {"lat": 42.696693, "lon": 23.411436}, "countryCode": "BG"}, "averageDailyFlights": 0.86, "operators": [{"name": "Ryanair", "iata": "FR", "icao": "RYR"}]}, {"destination": {"icao": "LDSP", "iata": "SPU", "name": "Split ", "shortName": "Split", "municipalityName": "Split", "location": {"lat": 43.5389, "lon": 16.298}, "countryCode": "HR"}, "averageDailyFlights": 0.86, "operators": [{"name": "Eurowings", "iata": "EW", "icao": "EWG"}]}, {"destination": {"icao": "ESSA", "iata": "ARN", "name": "Stockholm -Arlanda", "shortName": "-Arlanda", "municipalityName": "Stockholm", "location": {"lat": 59.6519, "lon": 17.9186}, "countryCode": "SE"}, "averageDailyFlights": 0.71, "operators": [{"name": "Eurowings", "iata": "EW", "icao": "EWG"}, {"name": "Ryanair", "iata": "FR", "icao": "RYR"}]}, {"destination": {"icao": "GCTS", "iata": "TFS", "name": "Tenerife Island Tenerife South", "shortName": "Tenerife South", "municipalityName": "Tenerife Island", "location": {"lat": 28.0445, "lon": -16.5725}, "countryCode": "ES"}, "averageDailyFlights": 0.71, "operators": [{"name": "Ryanair", "iata": "FR", "icao": "RYR"}, {"name": "Eurowings", "iata": "EW", "icao": "EWG"}]}, {"destination": {"icao": "LEVC", "iata": "VLC", "name": "Valencia ", "shortName": "Valencia", "municipalityName": "Valencia", "location": {"lat": 39.4893, "lon": -0.481624}, "countryCode": "ES"}, "averageDailyFlights": 0.71, "operators": [{"name": "Ryanair", "iata": "FR", "icao": "RYR"}, {"name": "Eurowings", "iata": "EW", "icao": "EWG"}]}, {"destination": {"icao": "LIPX", "iata": "VRN", "name": "Verona Villafranca", "shortName": "Villafranca", "municipalityName": "Verona", "location": {"lat": 45.3957, "lon": 10.8885}, "countryCode": "IT"}, "averageDailyFlights": 0.71, "operators": [{"name": "Eurowings", "iata": "EW", "icao": "EWG"}]}, {"destination": {"icao": "LDZD", "iata": "ZAD", "name": "Zadar Zemunik", "shortName": "Zemunik", "municipalityName": "Zadar", "location": {"lat": 44.1083, "lon": 15.346699}, "countryCode": "HR"}, "averageDailyFlights": 0.71, "operators": [{"name": "Ryanair", "iata": "FR", "icao": "RYR"}, {"name": "Eurowings", "iata": "EW", "icao": "EWG"}]}, {"destination": {"icao": "LDZA", "iata": "ZAG", "name": "Zagreb ", "shortName": "Zagreb", "municipalityName": "Zagreb", "location": {"lat": 45.7429, "lon": 16.068798}, "countryCode": "HR"}, "averageDailyFlights": 0.71, "operators": [{"name": "Eurowings", "iata": "EW", "icao": "EWG"}]}, {"destination": {"icao": "LTFE", "iata": "BJV", "name": "Bodrum Milas", "shortName": "Milas", "municipalityName": "Bodrum", "location": {"lat": 37.2506, "lon": 27.6643}, "countryCode": "TR"}, "averageDailyFlights": 0.57, "operators": [{"name": "Pegasus", "iata": "PC", "icao": "PGT"}, {"name": "Sun Express", "iata": "XQ", "icao": "SXS"}]}, {"destination": {"icao": "EGGD", "iata": "BRS", "name": "Bristol ", "shortName": "Bristol", "municipalityName": "Bristol", "location": {"lat": 51.3827, "lon": -2.719089}, "countryCode": "GB"}, "averageDailyFlights": 0.57, "operators": [{"name": "Ryanair", "iata": "FR", "icao": "RYR"}]}, {"destination": {"icao": "LRCV", "iata": "CRA", "name": "Craiova ", "shortName": "Craiova", "municipalityName": "Craiova", "location": {"lat": 44.3181, "lon": 23.8886}, "countryCode": "RO"}, "averageDailyFlights": 0.57, "operators": [{"name": "WMT"}, {"name": "Ulendo Airlink", "iata": "W4"}]}, {"destination": {"icao": "GCFV", "iata": "FUE", "name": "Fuerteventura Island Fuerteventura", "shortName": "Fuerteventura", "municipalityName": "Fuerteventura Island", "location": {"lat": 28.4527, "lon": -13.8638}, "countryCode": "ES"}, "averageDailyFlights": 0.57, "operators": [{"name": "Eurowings", "iata": "EW", "icao": "EWG"}, {"name": "Ryanair", "iata": "FR", "icao": "RYR"}]}, {"destination": {"icao": "GCRR", "iata": "ACE", "name": "Lanzarote Island Lanzarote", "shortName": "Lanzarote", "municipalityName": "Lanzarote Island", "location": {"lat": 28.9455, "lon": -13.605199}, "countryCode": "ES"}, "averageDailyFlights": 0.57, "operators": [{"name": "Ryanair", "iata": "FR", "icao": "RYR"}, {"name": "Corendon Airlines Europe", "iata": "XR", "icao": "CXI"}]}, {"destination": {"icao": "LOWS", "iata": "SZG", "name": "Salzburg ", "shortName": "Salzburg", "municipalityName": "Salzburg", "location": {"lat": 47.7933, "lon": 13.0043}, "countryCode": "AT"}, "averageDailyFlights": 0.57, "operators": [{"name": "Eurowings", "iata": "EW", "icao": "EWG"}]}, {"destination": {"icao": "LWSK", "iata": "SKP", "name": "Skopje Alexander the Great", "shortName": "Alexander the Great", "municipalityName": "Skopje", "location": {"lat": 41.9616, "lon": 21.6214}, "countryCode": "MK"}, "averageDailyFlights": 0.57, "operators": [{"name": "Wizz Air", "iata": "W6", "icao": "WZZ"}]}, {"destination": {"icao": "LATI", "iata": "TIA", "name": "Tirana Mother Teresa", "shortName": "Mother Teresa", "municipalityName": "Tirana", "location": {"lat": 41.4147, "lon": 19.7206}, "countryCode": "AL"}, "averageDailyFlights": 0.57, "operators": [{"name": "WMT"}, {"name": "Eurowings", "iata": "EW", "icao": "EWG"}, {"name": "Ulendo Airlink", "iata": "W4"}]}, {"destination": {"icao": "EPMO", "iata": "WMI", "name": "Warsaw Modlin", "shortName": "Modlin", "municipalityName": "Warsaw", "location": {"lat": 52.4511, "lon": 20.6518}, "countryCode": "PL"}, "averageDailyFlights": 0.57, "operators": [{"name": "Ryanair", "iata": "FR", "icao": "RYR"}]}, {"destination": {"icao": "LIBD", "iata": "BRI", "name": "Bari Karol Wojty\u0142a", "shortName": "Karol Wojty\u0142a", "municipalityName": "Bari", "location": {"lat": 41.1389, "lon": 16.7606}, "countryCode": "IT"}, "averageDailyFlights": 0.43, "operators": [{"name": "Eurowings", "iata": "EW", "icao": "EWG"}]}, {"destination": {"icao": "LYBE", "iata": "BEG", "name": "Belgrade Nikola Tesla", "shortName": "Nikola Tesla", "municipalityName": "Belgrade", "location": {"lat": 44.8184, "lon": 20.3091}, "countryCode": "RS"}, "averageDailyFlights": 0.43, "operators": [{"name": "Air Serbia", "iata": "JU", "icao": "ASL"}, {"name": "JetSMART", "iata": "JA", "icao": "JAT"}]}, {"destination": {"icao": "EKBI", "iata": "BLL", "name": "Billund ", "shortName": "Billund", "municipalityName": "Billund", "location": {"lat": 55.7403, "lon": 9.15178}, "countryCode": "DK"}, "averageDailyFlights": 0.43, "operators": [{"name": "Bluebird Nordic", "iata": "BO", "icao": "BBD"}]}, {"destination": {"icao": "LICC", "iata": "CTA", "name": "Catania -Fontanarossa", "shortName": "-Fontanarossa", "municipalityName": "Catania", "location": {"lat": 37.4668, "lon": 15.066399}, "countryCode": "IT"}, "averageDailyFlights": 0.43, "operators": [{"name": "Eurowings", "iata": "EW", "icao": "EWG"}]}, {"destination": {"icao": "LRCL", "iata": "CLJ", "name": "Cluj-Napoca ", "shortName": "Cluj-Napoca", "municipalityName": "Cluj-Napoca", "location": {"lat": 46.7852, "lon": 23.6862}, "countryCode": "RO"}, "averageDailyFlights": 0.43, "operators": [{"name": "CGF"}]}, {"destination": {"icao": "EKCH", "iata": "CPH", "name": "Copenhagen Kastrup", "shortName": "Kastrup", "municipalityName": "Copenhagen", "location": {"lat": 55.6179, "lon": 12.656}, "countryCode": "DK"}, "averageDailyFlights": 0.43, "operators": [{"name": "Ryanair", "iata": "FR", "icao": "RYR"}]}, {"destination": {"icao": "EPGD", "iata": "GDN", "name": "Gda\u0144sk Lech Wa\u0142\u0119sa", "shortName": "Lech Wa\u0142\u0119sa", "municipalityName": "Gda\u0144sk", "location": {"lat": 54.3776, "lon": 18.4662}, "countryCode": "PL"}, "averageDailyFlights": 0.43, "operators": [{"name": "Wizz Air", "iata": "W6", "icao": "WZZ"}]}, {"destination": {"icao": "LSGG", "iata": "GVA", "name": "Geneva Cointrin", "shortName": "Cointrin", "municipalityName": "Geneva", "location": {"lat": 46.2381, "lon": 6.10895}, "countryCode": "CH"}, "averageDailyFlights": 0.43, "operators": [{"name": "Sprint Air", "iata": "P8", "icao": "SRN"}]}, {"destination": {"icao": "LTFM", "iata": "IST", "name": "Istanbul ", "shortName": "Istanbul", "municipalityName": "Istanbul", "location": {"lat": 41.275276, "lon": 28.751944}, "countryCode": "TR"}, "averageDailyFlights": 0.43, "operators": [{"name": "MNG Airlines", "iata": "MB", "icao": "MNB"}]}, {"destination": {"icao": "LIRN", "iata": "NAP", "name": "N\u00e1poli Naples", "shortName": "Naples", "municipalityName": "N\u00e1poli", "location": {"lat": 40.886, "lon": 14.2908}, "countryCode": "IT"}, "averageDailyFlights": 0.43, "operators": [{"name": "Eurowings", "iata": "EW", "icao": "EWG"}]}, {"destination": {"icao": "LYNI", "iata": "INI", "name": "Ni\u0161 Nis", "shortName": "Nis", "municipalityName": "Ni\u0161", "location": {"lat": 43.3373, "lon": 21.8537}, "countryCode": "RS"}, "averageDailyFlights": 0.43, "operators": [{"name": "Air Serbia", "iata": "JU", "icao": "ASL"}, {"name": "JetSMART", "iata": "JA", "icao": "JAT"}]}, {"destination": {"icao": "LCPH", "iata": "PFO", "name": "Paphos ", "shortName": "Paphos", "municipalityName": "Paphos", "location": {"lat": 34.718, "lon": 32.4857}, "countryCode": "CY"}, "averageDailyFlights": 0.43, "operators": [{"name": "Ryanair", "iata": "FR", "icao": "RYR"}]}, {"destination": {"icao": "LIRP", "iata": "PSA", "name": "Pisa ", "shortName": "Pisa", "municipalityName": "Pisa", "location": {"lat": 43.6839, "lon": 10.3927}, "countryCode": "IT"}, "averageDailyFlights": 0.43, "operators": [{"name": "Eurowings", "iata": "EW", "icao": "EWG"}]}, {"destination": {"icao": "LGSR", "iata": "JTR", "name": "Santorini Island Santorini", "shortName": "Santorini", "municipalityName": "Santorini Island", "location": {"lat": 36.3992, "lon": 25.4793}, "countryCode": "GR"}, "averageDailyFlights": 0.43, "operators": [{"name": "Eurowings", "iata": "EW", "icao": "EWG"}]}, {"destination": {"icao": "LQSA", "iata": "SJJ", "name": "Sarajevo ", "shortName": "Sarajevo", "municipalityName": "Sarajevo", "location": {"lat": 43.8246, "lon": 18.3315}, "countryCode": "BA"}, "averageDailyFlights": 0.43, "operators": [{"name": "Eurowings", "iata": "EW", "icao": "EWG"}]}, {"destination": {"icao": "LEZL", "iata": "SVQ", "name": "Seville Sevilla", "shortName": "Sevilla", "municipalityName": "Seville", "location": {"lat": 37.418, "lon": -5.893109}, "countryCode": "ES"}, "averageDailyFlights": 0.43, "operators": [{"name": "Ryanair", "iata": "FR", "icao": "RYR"}]}, {"destination": {"icao": "LBWN", "iata": "VAR", "name": "Varna ", "shortName": "Varna", "municipalityName": "Varna", "location": {"lat": 43.2321, "lon": 27.8251}, "countryCode": "BG"}, "averageDailyFlights": 0.32, "operators": [{"name": "Eurowings", "iata": "EW", "icao": "EWG"}, {"name": "Wizz Air", "iata": "W6", "icao": "WZZ"}]}, {"destination": {"icao": "ORER", "iata": "EBL", "name": "Arbil Erbil", "shortName": "Erbil", "municipalityName": "Arbil", "location": {"lat": 36.2376, "lon": 43.9632}, "countryCode": "IQ"}, "averageDailyFlights": 0.29, "operators": [{"name": "UR Airlines", "iata": "UD", "icao": "UBD"}]}, {"destination": {"icao": "LFBZ", "iata": "BIQ", "name": "Biarritz/Anglet/Bayonne Biarritz-Anglet-Bayonne", "shortName": "Biarritz-Anglet-Bayonne", "municipalityName": "Biarritz/Anglet/Bayonne", "location": {"lat": 43.4684, "lon": -1.523319}, "countryCode": "FR"}, "averageDailyFlights": 0.29, "operators": [{"name": "Ryanair", "iata": "FR", "icao": "RYR"}]}, {"destination": {"icao": "LBBG", "iata": "BOJ", "name": "Burgas ", "shortName": "Burgas", "municipalityName": "Burgas", "location": {"lat": 42.5696, "lon": 27.5152}, "countryCode": "BG"}, "averageDailyFlights": 0.29, "operators": [{"name": "Eurowings", "iata": "EW", "icao": "EWG"}]}, {"destination": {"icao": "HECA", "iata": "CAI", "name": "Cairo ", "shortName": "Cairo", "municipalityName": "Cairo", "location": {"lat": 30.1219, "lon": 31.4056}, "countryCode": "EG"}, "averageDailyFlights": 0.29, "operators": [{"name": "EgyptAir", "iata": "MS", "icao": "MSR"}]}, {"destination": {"icao": "EIKN", "iata": "NOC", "name": "Charleston Ireland West Knock", "shortName": "Ireland West Knock", "municipalityName": "Charleston", "location": {"lat": 53.9103, "lon": -8.81849}, "countryCode": "IE"}, "averageDailyFlights": 0.29, "operators": [{"name": "Ryanair", "iata": "FR", "icao": "RYR"}]}, {"destination": {"icao": "LTBS", "iata": "DLM", "name": "Dalaman ", "shortName": "Dalaman", "municipalityName": "Dalaman", "location": {"lat": 36.7131, "lon": 28.7925}, "countryCode": "TR"}, "averageDailyFlights": 0.29, "operators": [{"name": "Sun Express", "iata": "XQ", "icao": "SXS"}]}, {"destination": {"icao": "EYKA", "iata": "KUN", "localCode": "KUN", "name": "Kaunas ", "shortName": "Kaunas", "municipalityName": "Kaunas", "location": {"lat": 54.9639, "lon": 24.0848}, "countryCode": "LT"}, "averageDailyFlights": 0.29, "operators": [{"name": "Ryanair", "iata": "FR", "icao": "RYR"}]}, {"destination": {"icao": "LGKV", "iata": "KVA", "name": "Kavala Alexander the Great", "shortName": "Alexander the Great", "municipalityName": "Kavala", "location": {"lat": 40.9133, "lon": 24.6192}, "countryCode": "GR"}, "averageDailyFlights": 0.29, "operators": [{"name": "Eurowings", "iata": "EW", "icao": "EWG"}]}, {"destination": {"icao": "LCLK", "iata": "LCA", "name": "Larnarca Larnaca", "shortName": "Larnaca", "municipalityName": "Larnarca", "location": {"lat": 34.8751, "lon": 33.6249}, "countryCode": "CY"}, "averageDailyFlights": 0.29, "operators": [{"name": "Eurowings", "iata": "EW", "icao": "EWG"}]}, {"destination": {"icao": "EGLL", "iata": "LHR", "name": "London Heathrow", "shortName": "Heathrow", "municipalityName": "London", "location": {"lat": 51.4706, "lon": -0.461941}, "countryCode": "GB"}, "averageDailyFlights": 0.29, "operators": [{"name": "VJT"}, {"name": "Eurowings", "iata": "EW", "icao": "EWG"}]}, {"destination": {"icao": "LMML", "iata": "MLA", "name": "Luqa Malta", "shortName": "Malta", "municipalityName": "Luqa", "location": {"lat": 35.8575, "lon": 14.4775}, "countryCode": "MT"}, "averageDailyFlights": 0.29, "operators": [{"name": "Ryanair", "iata": "FR", "icao": "RYR"}]}, {"destination": {"icao": "LEMD", "iata": "MAD", "name": "Madrid Adolfo Su\u00e1rez \u2013Barajas", "shortName": "Adolfo Su\u00e1rez \u2013Barajas", "municipalityName": "Madrid", "location": {"lat": 40.4936, "lon": -3.56676}, "countryCode": "ES"}, "averageDailyFlights": 0.29, "operators": [{"name": "EAT Leipzig", "iata": "QY", "icao": "BCS"}]}, {"destination": {"icao": "GMMX", "iata": "RAK", "name": "Marrakech Menara", "shortName": "Menara", "municipalityName": "Marrakech", "location": {"lat": 31.6069, "lon": -8.036299}, "countryCode": "MA"}, "averageDailyFlights": 0.29, "operators": [{"name": "Ryanair", "iata": "FR", "icao": "RYR"}]}, {"destination": {"icao": "LFML", "iata": "MRS", "name": "Marseille Provence", "shortName": "Provence", "municipalityName": "Marseille", "location": {"lat": 43.43927, "lon": 5.221424}, "countryCode": "FR"}, "averageDailyFlights": 0.29, "operators": [{"name": "Star Air A/S", "iata": "DJ", "icao": "SRR"}]}, {"destination": {"icao": "LEMH", "iata": "MAH", "name": "Menorca Island Menorca", "shortName": "Menorca", "municipalityName": "Menorca Island", "location": {"lat": 39.8626, "lon": 4.218649}, "countryCode": "ES"}, "averageDailyFlights": 0.29, "operators": [{"name": "Eurowings", "iata": "EW", "icao": "EWG"}]}, {"destination": {"icao": "KJFK", "iata": "JFK", "name": "New York John F Kennedy", "shortName": "John F Kennedy", "municipalityName": "New York", "location": {"lat": 40.6398, "lon": -73.7789}, "countryCode": "US"}, "averageDailyFlights": 0.29, "operators": [{"name": "MNG Airlines", "iata": "MB", "icao": "MNB"}]}, {"destination": {"icao": "EGNX", "iata": "EMA", "name": "Nottingham East Midlands", "shortName": "East Midlands", "municipalityName": "Nottingham", "location": {"lat": 52.8311, "lon": -1.32806}, "countryCode": "GB"}, "averageDailyFlights": 0.29, "operators": [{"name": "Star Air A/S", "iata": "DJ", "icao": "SRR"}]}, {"destination": {"icao": "EPPO", "iata": "POZ", "name": "Pozna\u0144 -\u0141awica", "shortName": "-\u0141awica", "municipalityName": "Pozna\u0144", "location": {"lat": 52.421, "lon": 16.8263}, "countryCode": "PL"}, "averageDailyFlights": 0.29, "operators": [{"name": "Sprint Air", "iata": "P8", "icao": "SRN"}]}, {"destination": {"icao": "LKPR", "iata": "PRG", "name": "Prague Ruzyn\u011b", "shortName": "Ruzyn\u011b", "municipalityName": "Prague", "location": {"lat": 50.1008, "lon": 14.26}, "countryCode": "CZ"}, "averageDailyFlights": 0.29, "operators": [{"name": "Eurowings", "iata": "EW", "icao": "EWG"}]}, {"destination": {"icao": "EVRA", "iata": "RIX", "localCode": "\u0420\u0418\u0425", "name": "Riga ", "shortName": "Riga", "municipalityName": "Riga", "location": {"lat": 56.9236, "lon": 23.9711}, "countryCode": "LV"}, "averageDailyFlights": 0.29, "operators": [{"name": "Ryanair", "iata": "FR", "icao": "RYR"}]}, {"destination": {"icao": "EDDS", "iata": "STR", "name": "Stuttgart ", "shortName": "Stuttgart", "municipalityName": "Stuttgart", "location": {"lat": 48.6899, "lon": 9.22196}, "countryCode": "DE"}, "averageDailyFlights": 0.29, "operators": [{"name": "NJE"}, {"name": "EAT Leipzig", "iata": "QY", "icao": "BCS"}]}, {"destination": {"icao": "LQTZ", "iata": "TZL", "name": "Tuzla ", "shortName": "Tuzla", "municipalityName": "Tuzla", "location": {"lat": 44.4587, "lon": 18.7248}, "countryCode": "BA"}, "averageDailyFlights": 0.29, "operators": [{"name": "Wizz Air", "iata": "W6", "icao": "WZZ"}]}, {"destination": {"icao": "LTAF", "iata": "ADA", "name": "Adana ", "shortName": "Adana", "municipalityName": "Adana", "location": {"lat": 36.9822, "lon": 35.2804}, "countryCode": "TR"}, "averageDailyFlights": 0.14, "operators": [{"name": "Pegasus", "iata": "PC", "icao": "PGT"}]}, {"destination": {"icao": "LIBR", "iata": "BDS", "name": "Brindisi \u2013 Salento", "shortName": "\u2013 Salento", "municipalityName": "Brindisi", "location": {"lat": 40.6576, "lon": 17.947}, "countryCode": "IT"}, "averageDailyFlights": 0.14, "operators": [{"name": "Eurowings", "iata": "EW", "icao": "EWG"}]}, {"destination": {"icao": "EBBR", "iata": "BRU", "name": "Brussels ", "shortName": "Brussels", "municipalityName": "Brussels", "location": {"lat": 50.9014, "lon": 4.484439}, "countryCode": "BE"}, "averageDailyFlights": 0.14, "operators": [{"name": "EAT Leipzig", "iata": "QY", "icao": "BCS"}]}, {"destination": {"icao": "LFKC", "iata": "CLY", "name": "Calvi/Sainte-Catherine Calvi-Sainte-Catherine", "shortName": "Calvi-Sainte-Catherine", "municipalityName": "Calvi/Sainte-Catherine", "location": {"lat": 42.5308, "lon": 8.79319}, "countryCode": "FR"}, "averageDailyFlights": 0.14, "operators": [{"name": "Eurowings", "iata": "EW", "icao": "EWG"}]}, {"destination": {"icao": "LDDU", "iata": "DBV", "name": "Dubrovnik ", "shortName": "Dubrovnik", "municipalityName": "Dubrovnik", "location": {"lat": 42.5614, "lon": 18.2682}, "countryCode": "HR"}, "averageDailyFlights": 0.14, "operators": [{"name": "Eurowings", "iata": "EW", "icao": "EWG"}]}, {"destination": {"icao": "LTAU", "iata": "ASR", "name": "Kayseri Erkilet", "shortName": "Erkilet", "municipalityName": "Kayseri", "location": {"lat": 38.7704, "lon": 35.4954}, "countryCode": "TR"}, "averageDailyFlights": 0.14, "operators": [{"name": "Pegasus", "iata": "PC", "icao": "PGT"}]}, {"destination": {"icao": "LICA", "iata": "SUF", "name": "Lamezia Terme ", "shortName": "Lamezia Terme", "municipalityName": "Lamezia Terme", "location": {"lat": 38.9054, "lon": 16.2423}, "countryCode": "IT"}, "averageDailyFlights": 0.14, "operators": [{"name": "Eurowings", "iata": "EW", "icao": "EWG"}]}, {"destination": {"icao": "LOWL", "iata": "LNZ", "name": "Linz ", "shortName": "Linz", "municipalityName": "Linz", "location": {"lat": 48.2332, "lon": 14.1875}, "countryCode": "AT"}, "averageDailyFlights": 0.14, "operators": [{"name": "GAC"}]}, {"destination": {"icao": "LFLL", "iata": "LYS", "name": "Lyon Saint-Exup\u00e9ry", "shortName": "Saint-Exup\u00e9ry", "municipalityName": "Lyon", "location": {"lat": 45.7264, "lon": 5.090829}, "countryCode": "FR"}, "averageDailyFlights": 0.14, "operators": [{"name": "Star Air A/S", "iata": "DJ", "icao": "SRR"}]}, {"destination": {"icao": "HEMA", "iata": "RMF", "name": "Marsa Alam ", "shortName": "Marsa Alam", "municipalityName": "Marsa Alam", "location": {"lat": 25.5571, "lon": 34.5837}, "countryCode": "EG"}, "averageDailyFlights": 0.14, "operators": [{"name": "Air Cairo", "iata": "SM", "icao": "MSC"}]}, {"destination": {"icao": "DTMB", "iata": "MIR", "name": "Monastir Habib Bourguiba", "shortName": "Habib Bourguiba", "municipalityName": "Monastir", "location": {"lat": 35.7581, "lon": 10.754699}, "countryCode": "TN"}, "averageDailyFlights": 0.14, "operators": [{"name": "Eurowings", "iata": "EW", "icao": "EWG"}]}, {"destination": {"icao": "EGNT", "iata": "NCL", "name": "Newcastle upon Tyne Newcastle", "shortName": "Newcastle", "municipalityName": "Newcastle upon Tyne", "location": {"lat": 55.0375, "lon": -1.691669}, "countryCode": "GB"}, "averageDailyFlights": 0.14, "operators": [{"name": "ASL Airlines Belgium", "iata": "3V", "icao": "TAY"}]}, {"destination": {"icao": "LDPL", "iata": "PUY", "name": "Pula ", "shortName": "Pula", "municipalityName": "Pula", "location": {"lat": 44.8935, "lon": 13.9222}, "countryCode": "HR"}, "averageDailyFlights": 0.14, "operators": [{"name": "Eurowings", "iata": "EW", "icao": "EWG"}]}, {"destination": {"icao": "LDRI", "iata": "RJK", "name": "Rijeka ", "shortName": "Rijeka", "municipalityName": "Rijeka", "location": {"lat": 45.2169, "lon": 14.5703}, "countryCode": "HR"}, "averageDailyFlights": 0.14, "operators": [{"name": "Eurowings", "iata": "EW", "icao": "EWG"}]}, {"destination": {"icao": "HESH", "iata": "SSH", "name": "Sharm el Sheikh ", "shortName": "Sharm el Sheikh", "municipalityName": "Sharm el Sheikh", "location": {"lat": 27.9773, "lon": 34.395}, "countryCode": "EG"}, "averageDailyFlights": 0.14, "operators": [{"name": "SilkAir", "iata": "MI", "icao": "SLK"}]}, {"destination": {"icao": "OIIE", "iata": "IKA", "name": "Tehran Imam Khomeini", "shortName": "Imam Khomeini", "municipalityName": "Tehran", "location": {"lat": 35.4161, "lon": 51.1522}, "countryCode": "IR"}, "averageDailyFlights": 0.14, "operators": [{"name": "Iran Air", "iata": "IR", "icao": "IRA"}]}, {"destination": {"name": "Sharjah"}, "averageDailyFlights": 0.14, "operators": [{"name": "Jeju Air", "iata": "7C", "icao": "JJA"}]}]}