{"routes": [{"destination": {"icao": "LEBL", "iata": "BCN", "name": "Barcelona ", "shortName": "Barcelona", "municipalityName": "Barcelona", "location": {"lat": 41.2971, "lon": 2.078459}, "countryCode": "ES"}, "averageDailyFlights": 12.57, "operators": [{"name": "easyJet", "iata": "U2", "icao": "EZY"}, {"name": "Vueling", "iata": "VY", "icao": "VLG"}]}, {"destination": {"icao": "EIDW", "iata": "DUB", "name": "Dublin ", "shortName": "Dublin", "municipalityName": "Dublin", "location": {"lat": 53.4213, "lon": -6.27007}, "countryCode": "IE"}, "averageDailyFlights": 11.79, "operators": [{"name": "Aer Lingus", "iata": "EI", "icao": "EIN"}, {"name": "Ryanair", "iata": "FR", "icao": "RYR"}, {"name": "British Airways", "iata": "BA", "icao": "BAW"}]}, {"destination": {"icao": "LPFR", "iata": "FAO", "name": "Faro ", "shortName": "Faro", "municipalityName": "Faro", "location": {"lat": 37.0144, "lon": -7.965909}, "countryCode": "PT"}, "averageDailyFlights": 11.0, "operators": [{"name": "EFW"}, {"name": "Wizz Air UK", "iata": "W9", "icao": "WUK"}, {"name": "easyJet", "iata": "U2", "icao": "EZY"}, {"name": "British Airways", "iata": "BA", "icao": "BAW"}, {"name": "TUI Airways", "iata": "BY", "icao": "TOM"}]}, {"destination": {"icao": "LEMG", "iata": "AGP", "name": "M\u00e1laga ", "shortName": "M\u00e1laga", "municipalityName": "M\u00e1laga", "location": {"lat": 36.6749, "lon": -4.49911}, "countryCode": "ES"}, "averageDailyFlights": 11.0, "operators": [{"name": "EFW"}, {"name": "easyJet", "iata": "U2", "icao": "EZY"}, {"name": "TUI Airways", "iata": "BY", "icao": "TOM"}, {"name": "Vueling", "iata": "VY", "icao": "VLG"}, {"name": "Wizz Air UK", "iata": "W9", "icao": "WUK"}, {"name": "British Airways", "iata": "BA", "icao": "BAW"}]}, {"destination": {"icao": "LTAI", "iata": "AYT", "name": "Antalya ", "shortName": "Antalya", "municipalityName": "Antalya", "location": {"lat": 36.8987, "lon": 30.8005}, "countryCode": "TR"}, "averageDailyFlights": 9.86, "operators": [{"name": "EFW"}, {"name": "Corendon Air", "iata": "XC", "icao": "CAI"}, {"name": "Wizz Air UK", "iata": "W9", "icao": "WUK"}, {"name": "Sun Express", "iata": "XQ", "icao": "SXS"}, {"name": "Freebird Airlines", "iata": "FH", "icao": "FHY"}, {"name": "TUI Airways", "iata": "BY", "icao": "TOM"}, {"name": "easyJet", "iata": "U2", "icao": "EZY"}, {"name": "Turkish Airlines", "iata": "TK", "icao": "THY"}, {"name": "British Airways", "iata": "BA", "icao": "BAW"}]}, {"destination": {"icao": "EHAM", "iata": "AMS", "name": "Amsterdam Schiphol", "shortName": "Schiphol", "municipalityName": "Amsterdam", "location": {"lat": 52.3086, "lon": 4.763889}, "countryCode": "NL"}, "averageDailyFlights": 9.57, "operators": [{"name": "EFW"}, {"name": "easyJet", "iata": "U2", "icao": "EZY"}, {"name": "British Airways", "iata": "BA", "icao": "BAW"}]}, {"destination": {"icao": "LEPA", "iata": "PMI", "name": "Palma De Mallorca ", "shortName": "Palma De Mallorca", "municipalityName": "Palma De Mallorca", "location": {"lat": 39.5517, "lon": 2.73881}, "countryCode": "ES"}, "averageDailyFlights": 9.57, "operators": [{"name": "EFW"}, {"name": "TUI Airways", "iata": "BY", "icao": "TOM"}, {"name": "easyJet", "iata": "U2", "icao": "EZY"}, {"name": "British Airways", "iata": "BA", "icao": "BAW"}]}, {"destination": {"icao": "LIRF", "iata": "FCO", "name": "Rome Leonardo da Vinci\u2013Fiumicino", "shortName": "Leonardo da Vinci\u2013Fiumicino", "municipalityName": "Rome", "location": {"lat": 41.8045, "lon": 12.2508}, "countryCode": "IT"}, "averageDailyFlights": 8.71, "operators": [{"name": "WMT"}, {"name": "easyJet", "iata": "U2", "icao": "EZY"}, {"name": "Vueling", "iata": "VY", "icao": "VLG"}, {"name": "Ulendo Airlink", "iata": "W4"}]}, {"destination": {"icao": "EKCH", "iata": "CPH", "name": "Copenhagen Kastrup", "shortName": "Kastrup", "municipalityName": "Copenhagen", "location": {"lat": 55.6179, "lon": 12.656}, "countryCode": "DK"}, "averageDailyFlights": 7.86, "operators": [{"name": "NSZ"}, {"name": "Norwegian Air International", "iata": "D8", "icao": "IBK"}, {"name": "easyJet", "iata": "U2", "icao": "EZY"}]}, {"destination": {"icao": "LEAL", "iata": "ALC", "name": "Alicante ", "shortName": "Alicante", "municipalityName": "Alicante", "location": {"lat": 38.2822, "lon": -0.558156}, "countryCode": "ES"}, "averageDailyFlights": 7.71, "operators": [{"name": "EFW"}, {"name": "easyJet", "iata": "U2", "icao": "EZY"}, {"name": "British Airways", "iata": "BA", "icao": "BAW"}, {"name": "Ryanair", "iata": "FR", "icao": "RYR"}, {"name": "Vueling", "iata": "VY", "icao": "VLG"}, {"name": "TUI Airways", "iata": "BY", "icao": "TOM"}]}, {"destination": {"icao": "LFMN", "iata": "NCE", "name": "Nice -C\u00f4te d'Azur", "shortName": "-C\u00f4te d'Azur", "municipalityName": "Nice", "location": {"lat": 43.6584, "lon": 7.215869}, "countryCode": "FR"}, "averageDailyFlights": 7.29, "operators": [{"name": "EFW"}, {"name": "easyJet", "iata": "U2", "icao": "EZY"}, {"name": "Wizz Air UK", "iata": "W9", "icao": "WUK"}, {"name": "British Airways", "iata": "BA", "icao": "BAW"}]}, {"destination": {"icao": "LEMD", "iata": "MAD", "name": "Madrid Adolfo Su\u00e1rez \u2013Barajas", "shortName": "Adolfo Su\u00e1rez \u2013Barajas", "municipalityName": "Madrid", "location": {"lat": 40.4936, "lon": -3.56676}, "countryCode": "ES"}, "averageDailyFlights": 6.77, "operators": [{"name": "Iberia Express", "iata": "I2", "icao": "IBS"}, {"name": "Air Europa", "iata": "UX", "icao": "AEA"}, {"name": "easyJet", "iata": "U2", "icao": "EZY"}, {"name": "British Airways", "iata": "BA", "icao": "BAW"}]}, {"destination": {"icao": "LTBS", "iata": "DLM", "name": "Dalaman ", "shortName": "Dalaman", "municipalityName": "Dalaman", "location": {"lat": 36.7131, "lon": 28.7925}, "countryCode": "TR"}, "averageDailyFlights": 6.59, "operators": [{"name": "EFW"}, {"name": "easyJet", "iata": "U2", "icao": "EZY"}, {"name": "British Airways", "iata": "BA", "icao": "BAW"}, {"name": "Sun Express", "iata": "XQ", "icao": "SXS"}, {"name": "Wizz Air UK", "iata": "W9", "icao": "WUK"}, {"name": "Corendon Air", "iata": "XC", "icao": "CAI"}, {"name": "TUI Airways", "iata": "BY", "icao": "TOM"}]}, {"destination": {"icao": "EGJB", "iata": "GCI", "name": "St Peter Port Guernsey", "shortName": "Guernsey", "municipalityName": "St Peter Port", "location": {"lat": 49.435, "lon": -2.601969}, "countryCode": "GG"}, "averageDailyFlights": 6.29, "operators": [{"name": "Aurigny Air Services", "iata": "GR", "icao": "AUR"}]}, {"destination": {"icao": "LSGG", "iata": "GVA", "name": "Geneva Cointrin", "shortName": "Cointrin", "municipalityName": "Geneva", "location": {"lat": 46.2381, "lon": 6.10895}, "countryCode": "CH"}, "averageDailyFlights": 6.0, "operators": [{"name": "easyJet", "iata": "U2", "icao": "EZY"}]}, {"destination": {"icao": "EGPF", "iata": "GLA", "name": "Glasgow ", "shortName": "Glasgow", "municipalityName": "Glasgow", "location": {"lat": 55.8719, "lon": -4.43306}, "countryCode": "GB"}, "averageDailyFlights": 6.0, "operators": [{"name": "easyJet", "iata": "U2", "icao": "EZY"}, {"name": "British Airways", "iata": "BA", "icao": "BAW"}]}, {"destination": {"icao": "ENGM", "iata": "OSL", "name": "Oslo Gardermoen", "shortName": "Gardermoen", "municipalityName": "Oslo", "location": {"lat": 60.1939, "lon": 11.100399}, "countryCode": "NO"}, "averageDailyFlights": 5.86, "operators": [{"name": "NOZ"}, {"name": "Norwegian Air Shuttle", "iata": "DY", "icao": "NOZ"}]}, {"destination": {"icao": "ESSA", "iata": "ARN", "name": "Stockholm -Arlanda", "shortName": "-Arlanda", "municipalityName": "Stockholm", "location": {"lat": 59.6519, "lon": 17.9186}, "countryCode": "SE"}, "averageDailyFlights": 5.86, "operators": [{"name": "NSZ"}, {"name": "Norwegian Air International", "iata": "D8", "icao": "IBK"}]}, {"destination": {"icao": "EGAA", "iata": "BFS", "name": "Belfast ", "shortName": "Belfast", "municipalityName": "Belfast", "location": {"lat": 54.6575, "lon": -6.215829}, "countryCode": "GB"}, "averageDailyFlights": 5.43, "operators": [{"name": "easyJet", "iata": "U2", "icao": "EZY"}]}, {"destination": {"icao": "EGPH", "iata": "EDI", "name": "Edinburgh ", "shortName": "Edinburgh", "municipalityName": "Edinburgh", "location": {"lat": 55.95, "lon": -3.372499}, "countryCode": "GB"}, "averageDailyFlights": 5.43, "operators": [{"name": "easyJet", "iata": "U2", "icao": "EZY"}]}, {"destination": {"icao": "LIMC", "iata": "MXP", "name": "Milan Malpensa", "shortName": "Malpensa", "municipalityName": "Milan", "location": {"lat": 45.6306, "lon": 8.72811}, "countryCode": "IT"}, "averageDailyFlights": 5.43, "operators": [{"name": "WMT"}, {"name": "easyJet", "iata": "U2", "icao": "EZY"}, {"name": "Ulendo Airlink", "iata": "W4"}]}, {"destination": {"icao": "GCTS", "iata": "TFS", "name": "Tenerife Island Tenerife South", "shortName": "Tenerife South", "municipalityName": "Tenerife Island", "location": {"lat": 28.0445, "lon": -16.5725}, "countryCode": "ES"}, "averageDailyFlights": 5.43, "operators": [{"name": "TUI Airways", "iata": "BY", "icao": "TOM"}, {"name": "easyJet", "iata": "U2", "icao": "EZY"}, {"name": "Vueling", "iata": "VY", "icao": "VLG"}, {"name": "British Airways", "iata": "BA", "icao": "BAW"}, {"name": "EFW"}]}, {"destination": {"icao": "LEIB", "iata": "IBZ", "name": "Ibiza Town Ibiza", "shortName": "Ibiza", "municipalityName": "Ibiza Town", "location": {"lat": 38.8729, "lon": 1.373119}, "countryCode": "ES"}, "averageDailyFlights": 5.29, "operators": [{"name": "EFW"}, {"name": "easyJet", "iata": "U2", "icao": "EZY"}, {"name": "TUI Airways", "iata": "BY", "icao": "TOM"}, {"name": "British Airways", "iata": "BA", "icao": "BAW"}]}, {"destination": {"icao": "LPPT", "iata": "LIS", "name": "Lisbon Portela", "shortName": "Portela", "municipalityName": "Lisbon", "location": {"lat": 38.7813, "lon": -9.135919}, "countryCode": "PT"}, "averageDailyFlights": 5.0, "operators": [{"name": "TAP Air Portugal", "iata": "TP", "icao": "TAP"}, {"name": "easyJet", "iata": "U2", "icao": "EZY"}]}, {"destination": {"icao": "LGAV", "iata": "ATH", "name": "Athens Eleftherios Venizelos", "shortName": "Eleftherios Venizelos", "municipalityName": "Athens", "location": {"lat": 37.9364, "lon": 23.944498}, "countryCode": "GR"}, "averageDailyFlights": 4.86, "operators": [{"name": "easyJet", "iata": "U2", "icao": "EZY"}, {"name": "Sky Express", "iata": "GQ", "icao": "SEH"}, {"name": "Wizz Air UK", "iata": "W9", "icao": "WUK"}]}, {"destination": {"icao": "LFPG", "iata": "CDG", "name": "Paris Charles de Gaulle", "shortName": "Charles de Gaulle", "municipalityName": "Paris", "location": {"lat": 49.0128, "lon": 2.549999}, "countryCode": "FR"}, "averageDailyFlights": 4.86, "operators": [{"name": "easyJet", "iata": "U2", "icao": "EZY"}]}, {"destination": {"icao": "EGJJ", "iata": "JER", "name": "St Helier Jersey", "shortName": "Jersey", "municipalityName": "St Helier", "location": {"lat": 49.2079, "lon": -2.195509}, "countryCode": "JE"}, "averageDailyFlights": 4.86, "operators": [{"name": "easyJet", "iata": "U2", "icao": "EZY"}]}, {"destination": {"icao": "LGRP", "iata": "RHO", "name": "Rodes Island Diagoras", "shortName": "Diagoras", "municipalityName": "Rodes Island", "location": {"lat": 36.4054, "lon": 28.0862}, "countryCode": "GR"}, "averageDailyFlights": 4.85, "operators": [{"name": "TUI Airways", "iata": "BY", "icao": "TOM"}, {"name": "EFW"}, {"name": "easyJet", "iata": "U2", "icao": "EZY"}, {"name": "British Airways", "iata": "BA", "icao": "BAW"}, {"name": "American Airlines", "iata": "AA", "icao": "AAL"}, {"name": "Enter Air", "iata": "E4", "icao": "ENT"}]}, {"destination": {"icao": "LIPZ", "iata": "VCE", "name": "Venice Marco Polo", "shortName": "Marco Polo", "municipalityName": "Venice", "location": {"lat": 45.5053, "lon": 12.3519}, "countryCode": "IT"}, "averageDailyFlights": 4.45, "operators": [{"name": "WMT"}, {"name": "British Airways", "iata": "BA", "icao": "BAW"}, {"name": "EFW"}, {"name": "easyJet", "iata": "U2", "icao": "EZY"}, {"name": "Ulendo Airlink", "iata": "W4"}, {"name": "Vueling", "iata": "VY", "icao": "VLG"}]}, {"destination": {"icao": "LEVC", "iata": "VLC", "name": "Valencia ", "shortName": "Valencia", "municipalityName": "Valencia", "location": {"lat": 39.4893, "lon": -0.481624}, "countryCode": "ES"}, "averageDailyFlights": 4.43, "operators": [{"name": "Vueling", "iata": "VY", "icao": "VLG"}, {"name": "easyJet", "iata": "U2", "icao": "EZY"}]}, {"destination": {"icao": "LCPH", "iata": "PFO", "name": "Paphos ", "shortName": "Paphos", "municipalityName": "Paphos", "location": {"lat": 34.718, "lon": 32.4857}, "countryCode": "CY"}, "averageDailyFlights": 4.36, "operators": [{"name": "EFW"}, {"name": "easyJet", "iata": "U2", "icao": "EZY"}, {"name": "British Airways", "iata": "BA", "icao": "BAW"}, {"name": "TUI Airways", "iata": "BY", "icao": "TOM"}]}, {"destination": {"icao": "LTFM", "iata": "IST", "name": "Istanbul ", "shortName": "Istanbul", "municipalityName": "Istanbul", "location": {"lat": 41.275276, "lon": 28.751944}, "countryCode": "TR"}, "averageDailyFlights": 4.29, "operators": [{"name": "Turkish Airlines", "iata": "TK", "icao": "THY"}, {"name": "Wizz Air UK", "iata": "W9", "icao": "WUK"}]}, {"destination": {"icao": "GCRR", "iata": "ACE", "name": "Lanzarote Island Lanzarote", "shortName": "Lanzarote", "municipalityName": "Lanzarote Island", "location": {"lat": 28.9455, "lon": -13.605199}, "countryCode": "ES"}, "averageDailyFlights": 4.29, "operators": [{"name": "EFW"}, {"name": "easyJet", "iata": "U2", "icao": "EZY"}, {"name": "TUI Airways", "iata": "BY", "icao": "TOM"}, {"name": "British Airways", "iata": "BA", "icao": "BAW"}]}, {"destination": {"icao": "KJFK", "iata": "JFK", "name": "New York John F Kennedy", "shortName": "John F Kennedy", "municipalityName": "New York", "location": {"lat": 40.6398, "lon": -73.7789}, "countryCode": "US"}, "averageDailyFlights": 4.18, "operators": [{"name": "UBT"}, {"name": "JetBlue Airways", "iata": "B6", "icao": "JBU"}, {"name": "Delta Air Lines", "iata": "DL", "icao": "DAL"}, {"name": "British Airways", "iata": "BA", "icao": "BAW"}, {"name": "Z0"}]}, {"destination": {"icao": "LEBB", "iata": "BIO", "name": "Bilbao ", "shortName": "Bilbao", "municipalityName": "Bilbao", "location": {"lat": 43.3011, "lon": -2.910609}, "countryCode": "ES"}, "averageDailyFlights": 4.14, "operators": [{"name": "easyJet", "iata": "U2", "icao": "EZY"}, {"name": "Vueling", "iata": "VY", "icao": "VLG"}]}, {"destination": {"icao": "LEMH", "iata": "MAH", "name": "Menorca Island Menorca", "shortName": "Menorca", "municipalityName": "Menorca Island", "location": {"lat": 39.8626, "lon": 4.218649}, "countryCode": "ES"}, "averageDailyFlights": 4.0, "operators": [{"name": "EFW"}, {"name": "easyJet", "iata": "U2", "icao": "EZY"}, {"name": "TUI Airways", "iata": "BY", "icao": "TOM"}, {"name": "Vueling", "iata": "VY", "icao": "VLG"}]}, {"destination": {"icao": "LPPR", "iata": "OPO", "name": "Porto Francisco de S\u00e1 Carneiro", "shortName": "Francisco de S\u00e1 Carneiro", "municipalityName": "Porto", "location": {"lat": 41.2481, "lon": -8.681389}, "countryCode": "PT"}, "averageDailyFlights": 4.0, "operators": [{"name": "easyJet", "iata": "U2", "icao": "EZY"}, {"name": "TAP Air Portugal", "iata": "TP", "icao": "TAP"}]}, {"destination": {"icao": "GMMX", "iata": "RAK", "name": "Marrakech Menara", "shortName": "Menara", "municipalityName": "Marrakech", "location": {"lat": 31.6069, "lon": -8.036299}, "countryCode": "MA"}, "averageDailyFlights": 3.93, "operators": [{"name": "EFW"}, {"name": "easyJet", "iata": "U2", "icao": "EZY"}, {"name": "British Airways", "iata": "BA", "icao": "BAW"}, {"name": "Wizz Air UK", "iata": "W9", "icao": "WUK"}, {"name": "TUI Airways", "iata": "BY", "icao": "TOM"}]}, {"destination": {"icao": "LIPX", "iata": "VRN", "name": "Verona Villafranca", "shortName": "Villafranca", "municipalityName": "Verona", "location": {"lat": 45.3957, "lon": 10.8885}, "countryCode": "IT"}, "averageDailyFlights": 3.86, "operators": [{"name": "EFW"}, {"name": "British Airways", "iata": "BA", "icao": "BAW"}, {"name": "easyJet", "iata": "U2", "icao": "EZY"}, {"name": "TUI Airways", "iata": "BY", "icao": "TOM"}, {"name": "Vueling", "iata": "VY", "icao": "VLG"}]}, {"destination": {"icao": "LMML", "iata": "MLA", "name": "Luqa Malta", "shortName": "Malta", "municipalityName": "Luqa", "location": {"lat": 35.8575, "lon": 14.4775}, "countryCode": "MT"}, "averageDailyFlights": 3.71, "operators": [{"name": "EFW"}, {"name": "easyJet", "iata": "U2", "icao": "EZY"}, {"name": "Air Malta", "iata": "KM", "icao": "AMC"}, {"name": "British Airways", "iata": "BA", "icao": "BAW"}]}, {"destination": {"icao": "LGIR", "iata": "HER", "name": "Heraklion Nikos Kazantzakis", "shortName": "Nikos Kazantzakis", "municipalityName": "Heraklion", "location": {"lat": 35.3397, "lon": 25.1803}, "countryCode": "GR"}, "averageDailyFlights": 3.64, "operators": [{"name": "EFW"}, {"name": "British Airways", "iata": "BA", "icao": "BAW"}, {"name": "easyJet", "iata": "U2", "icao": "EZY"}, {"name": "TUI Airways", "iata": "BY", "icao": "TOM"}]}, {"destination": {"icao": "LEZL", "iata": "SVQ", "name": "Seville Sevilla", "shortName": "Sevilla", "municipalityName": "Seville", "location": {"lat": 37.418, "lon": -5.893109}, "countryCode": "ES"}, "averageDailyFlights": 3.63, "operators": [{"name": "EFW"}, {"name": "easyJet", "iata": "U2", "icao": "EZY"}, {"name": "British Airways", "iata": "BA", "icao": "BAW"}, {"name": "Vueling", "iata": "VY", "icao": "VLG"}]}, {"destination": {"icao": "LDDU", "iata": "DBV", "name": "Dubrovnik ", "shortName": "Dubrovnik", "municipalityName": "Dubrovnik", "location": {"lat": 42.5614, "lon": 18.2682}, "countryCode": "HR"}, "averageDailyFlights": 3.44, "operators": [{"name": "EFW"}, {"name": "British Airways", "iata": "BA", "icao": "BAW"}, {"name": "easyJet", "iata": "U2", "icao": "EZY"}, {"name": "TUI Airways", "iata": "BY", "icao": "TOM"}]}, {"destination": {"icao": "EGPE", "iata": "INV", "name": "Inverness ", "shortName": "Inverness", "municipalityName": "Inverness", "location": {"lat": 57.5425, "lon": -4.0475}, "countryCode": "GB"}, "averageDailyFlights": 3.29, "operators": [{"name": "easyJet", "iata": "U2", "icao": "EZY"}]}, {"destination": {"icao": "LCLK", "iata": "LCA", "name": "Larnarca Larnaca", "shortName": "Larnaca", "municipalityName": "Larnarca", "location": {"lat": 34.8751, "lon": 33.6249}, "countryCode": "CY"}, "averageDailyFlights": 3.2, "operators": [{"name": "easyJet", "iata": "U2", "icao": "EZY"}, {"name": "Wizz Air", "iata": "W6", "icao": "WZZ"}, {"name": "Wizz Air UK", "iata": "W9", "icao": "WUK"}, {"name": "TUI Airways", "iata": "BY", "icao": "TOM"}]}, {"destination": {"icao": "OMDB", "iata": "DXB", "name": "Dubai ", "shortName": "Dubai", "municipalityName": "Dubai", "location": {"lat": 25.252798, "lon": 55.3644}, "countryCode": "AE"}, "averageDailyFlights": 3.16, "operators": [{"name": "Emirates", "iata": "EK", "icao": "UAE"}, {"name": "Qantas", "iata": "QF", "icao": "QFA"}]}, {"destination": {"icao": "LIRN", "iata": "NAP", "name": "N\u00e1poli Naples", "shortName": "Naples", "municipalityName": "N\u00e1poli", "location": {"lat": 40.886, "lon": 14.2908}, "countryCode": "IT"}, "averageDailyFlights": 3.14, "operators": [{"name": "easyJet", "iata": "U2", "icao": "EZY"}, {"name": "Ulendo Airlink", "iata": "W4"}]}, {"destination": {"icao": "LOWW", "iata": "VIE", "name": "Vienna Schwechat", "shortName": "Schwechat", "municipalityName": "Vienna", "location": {"lat": 48.1103, "lon": 16.5697}, "countryCode": "AT"}, "averageDailyFlights": 3.14, "operators": [{"name": "WMT"}, {"name": "Ulendo Airlink", "iata": "W4"}]}, {"destination": {"icao": "LDSP", "iata": "SPU", "name": "Split ", "shortName": "Split", "municipalityName": "Split", "location": {"lat": 43.5389, "lon": 16.298}, "countryCode": "HR"}, "averageDailyFlights": 3.1, "operators": [{"name": "easyJet", "iata": "U2", "icao": "EZY"}, {"name": "Croatia Airlines", "iata": "OU", "icao": "CTN"}, {"name": "TUI Airways", "iata": "BY", "icao": "TOM"}]}, {"destination": {"icao": "LGKO", "iata": "KGS", "name": "Kos Island Kos", "shortName": "Kos", "municipalityName": "Kos Island", "location": {"lat": 36.7933, "lon": 27.0917}, "countryCode": "GR"}, "averageDailyFlights": 2.89, "operators": [{"name": "EFW"}, {"name": "TUI Airways", "iata": "BY", "icao": "TOM"}, {"name": "easyJet", "iata": "U2", "icao": "EZY"}, {"name": "British Airways", "iata": "BA", "icao": "BAW"}]}, {"destination": {"icao": "LIRP", "iata": "PSA", "name": "Pisa ", "shortName": "Pisa", "municipalityName": "Pisa", "location": {"lat": 43.6839, "lon": 10.3927}, "countryCode": "IT"}, "averageDailyFlights": 2.86, "operators": [{"name": "easyJet", "iata": "U2", "icao": "EZY"}]}, {"destination": {"icao": "LGSR", "iata": "JTR", "name": "Santorini Island Santorini", "shortName": "Santorini", "municipalityName": "Santorini Island", "location": {"lat": 36.3992, "lon": 25.4793}, "countryCode": "GR"}, "averageDailyFlights": 2.86, "operators": [{"name": "EFW"}, {"name": "easyJet", "iata": "U2", "icao": "EZY"}, {"name": "British Airways", "iata": "BA", "icao": "BAW"}]}, {"destination": {"icao": "EDDB", "iata": "BER", "name": "Berlin Brandenburg", "shortName": "Brandenburg", "municipalityName": "Berlin", "location": {"lat": 52.35139, "lon": 13.493889}, "countryCode": "DE"}, "averageDailyFlights": 2.71, "operators": [{"name": "easyJet", "iata": "U2", "icao": "EZY"}]}, {"destination": {"icao": "EGNS", "iata": "IOM", "name": "Castletown Isle of Man", "shortName": "Isle of Man", "municipalityName": "Castletown", "location": {"lat": 54.0833, "lon": -4.623889}, "countryCode": "IM"}, "averageDailyFlights": 2.71, "operators": [{"name": "easyJet", "iata": "U2", "icao": "EZY"}]}, {"destination": {"icao": "LGTS", "iata": "SKG", "name": "Thessaloniki Macedonia", "shortName": "Macedonia", "municipalityName": "Thessaloniki", "location": {"lat": 40.5197, "lon": 22.9709}, "countryCode": "GR"}, "averageDailyFlights": 2.68, "operators": [{"name": "EFW"}, {"name": "easyJet", "iata": "U2", "icao": "EZY"}, {"name": "British Airways", "iata": "BA", "icao": "BAW"}, {"name": "TUI Airways", "iata": "BY", "icao": "TOM"}]}, {"destination": {"icao": "GCLP", "iata": "LPA", "name": "Gran Canaria Island Gran Canaria", "shortName": "Gran Canaria", "municipalityName": "Gran Canaria Island", "location": {"lat": 27.9319, "lon": -15.386599}, "countryCode": "ES"}, "averageDailyFlights": 2.58, "operators": [{"name": "easyJet", "iata": "U2", "icao": "EZY"}, {"name": "EFW"}, {"name": "TUI Airways", "iata": "BY", "icao": "TOM"}, {"name": "Vueling", "iata": "VY", "icao": "VLG"}]}, {"destination": {"icao": "ENBR", "iata": "BGO", "name": "Bergen Flesland", "shortName": "Flesland", "municipalityName": "Bergen", "location": {"lat": 60.2934, "lon": 5.21814}, "countryCode": "NO"}, "averageDailyFlights": 2.57, "operators": [{"name": "NOZ"}, {"name": "Norwegian Air Shuttle", "iata": "DY", "icao": "NOZ"}]}, {"destination": {"icao": "LICC", "iata": "CTA", "name": "Catania -Fontanarossa", "shortName": "-Fontanarossa", "municipalityName": "Catania", "location": {"lat": 37.4668, "lon": 15.066399}, "countryCode": "IT"}, "averageDailyFlights": 2.54, "operators": [{"name": "EFW"}, {"name": "easyJet", "iata": "U2", "icao": "EZY"}, {"name": "Wizz Air UK", "iata": "W9", "icao": "WUK"}, {"name": "British Airways", "iata": "BA", "icao": "BAW"}]}, {"destination": {"icao": "KMCO", "iata": "MCO", "name": "Orlando ", "shortName": "Orlando", "municipalityName": "Orlando", "location": {"lat": 28.4294, "lon": -81.309}, "countryCode": "US"}, "averageDailyFlights": 2.5, "operators": [{"name": "British Airways", "iata": "BA", "icao": "BAW"}, {"name": "UBT"}, {"name": "Iberia", "iata": "IB", "icao": "IBE"}, {"name": "Z0"}, {"name": "American Airlines", "iata": "AA", "icao": "AAL"}]}, {"destination": {"icao": "LFBD", "iata": "BOD", "name": "Bordeaux/M\u00e9rignac Bordeaux-M\u00e9rignac", "shortName": "Bordeaux-M\u00e9rignac", "municipalityName": "Bordeaux/M\u00e9rignac", "location": {"lat": 44.8283, "lon": -0.715556}, "countryCode": "FR"}, "averageDailyFlights": 2.43, "operators": [{"name": "easyJet", "iata": "U2", "icao": "EZY"}, {"name": "British Airways", "iata": "BA", "icao": "BAW"}, {"name": "EFW"}]}, {"destination": {"icao": "LIRQ", "iata": "FLR", "name": "Firenze Peretola", "shortName": "Peretola", "municipalityName": "Firenze", "location": {"lat": 43.81, "lon": 11.2051}, "countryCode": "IT"}, "averageDailyFlights": 2.43, "operators": [{"name": "Vueling", "iata": "VY", "icao": "VLG"}]}, {"destination": {"icao": "EGPD", "iata": "ABZ", "name": "Aberdeen Dyce", "shortName": "Dyce", "municipalityName": "Aberdeen", "location": {"lat": 57.2019, "lon": -2.197779}, "countryCode": "GB"}, "averageDailyFlights": 2.29, "operators": [{"name": "easyJet", "iata": "U2", "icao": "EZY"}]}, {"destination": {"icao": "LFSB", "iata": "BSL", "name": "B\u00e2le/Mulhouse Euro Basel-Mulhouse-Freiburg", "shortName": "Euro Basel-Mulhouse-Freiburg", "municipalityName": "B\u00e2le/Mulhouse", "location": {"lat": 47.5896, "lon": 7.52991}, "countryCode": "FR"}, "averageDailyFlights": 2.29, "operators": [{"name": "easyJet", "iata": "U2", "icao": "EZY"}]}, {"destination": {"icao": "EDDF", "iata": "FRA", "name": "Frankfurt-am-Main ", "shortName": "Frankfurt-am-Main", "municipalityName": "Frankfurt-am-Main", "location": {"lat": 50.0264, "lon": 8.543129}, "countryCode": "DE"}, "averageDailyFlights": 2.29, "operators": [{"name": "Lufthansa", "iata": "LH", "icao": "DLH"}]}, {"destination": {"icao": "LGSA", "iata": "CHQ", "name": "Souda Chania", "shortName": "Chania", "municipalityName": "Souda", "location": {"lat": 35.5317, "lon": 24.1497}, "countryCode": "GR"}, "averageDailyFlights": 2.29, "operators": [{"name": "TUI Airways", "iata": "BY", "icao": "TOM"}, {"name": "easyJet", "iata": "U2", "icao": "EZY"}]}, {"destination": {"icao": "LGZA", "iata": "ZTH", "name": "Zakynthos Island Dionysios Solomos", "shortName": "Dionysios Solomos", "municipalityName": "Zakynthos Island", "location": {"lat": 37.7509, "lon": 20.8843}, "countryCode": "GR"}, "averageDailyFlights": 2.16, "operators": [{"name": "TUI Airways", "iata": "BY", "icao": "TOM"}, {"name": "easyJet", "iata": "U2", "icao": "EZY"}]}, {"destination": {"icao": "LTFE", "iata": "BJV", "name": "Bodrum Milas", "shortName": "Milas", "municipalityName": "Bodrum", "location": {"lat": 37.2506, "lon": 27.6643}, "countryCode": "TR"}, "averageDailyFlights": 2.14, "operators": [{"name": "easyJet", "iata": "U2", "icao": "EZY"}, {"name": "TUI Airways", "iata": "BY", "icao": "TOM"}]}, {"destination": {"icao": "LFLL", "iata": "LYS", "name": "Lyon Saint-Exup\u00e9ry", "shortName": "Saint-Exup\u00e9ry", "municipalityName": "Lyon", "location": {"lat": 45.7264, "lon": 5.090829}, "countryCode": "FR"}, "averageDailyFlights": 2.14, "operators": [{"name": "easyJet", "iata": "U2", "icao": "EZY"}]}, {"destination": {"icao": "LEMI", "iata": "RMU", "name": "Murcia -Corvera", "shortName": "-Corvera", "municipalityName": "Murcia", "location": {"lat": 37.80258, "lon": -1.125389}, "countryCode": "ES"}, "averageDailyFlights": 2.14, "operators": [{"name": "easyJet", "iata": "U2", "icao": "EZY"}]}, {"destination": {"icao": "LFPO", "iata": "ORY", "name": "Paris -Orly", "shortName": "-Orly", "municipalityName": "Paris", "location": {"lat": 48.7253, "lon": 2.35944}, "countryCode": "FR"}, "averageDailyFlights": 2.14, "operators": [{"name": "Vueling", "iata": "VY", "icao": "VLG"}]}, {"destination": {"icao": "ENZV", "iata": "SVG", "name": "Stavanger Sola", "shortName": "Sola", "municipalityName": "Stavanger", "location": {"lat": 58.8767, "lon": 5.63778}, "countryCode": "NO"}, "averageDailyFlights": 2.14, "operators": [{"name": "NOZ"}, {"name": "Norwegian Air Shuttle", "iata": "DY", "icao": "NOZ"}]}, {"destination": {"icao": "LSZH", "iata": "ZRH", "name": "Zurich Kloten", "shortName": "Kloten", "municipalityName": "Zurich", "location": {"lat": 47.4647, "lon": 8.549169}, "countryCode": "CH"}, "averageDailyFlights": 2.14, "operators": [{"name": "easyJet", "iata": "U2", "icao": "EZY"}]}, {"destination": {"icao": "LGKF", "iata": "EFL", "name": "Kefallinia Island Kefallinia", "shortName": "Kefallinia", "municipalityName": "Kefallinia Island", "location": {"lat": 38.1201, "lon": 20.5005}, "countryCode": "GR"}, "averageDailyFlights": 2.01, "operators": [{"name": "TUI Airways", "iata": "BY", "icao": "TOM"}, {"name": "easyJet", "iata": "U2", "icao": "EZY"}]}, {"destination": {"icao": "GCFV", "iata": "FUE", "name": "Fuerteventura Island Fuerteventura", "shortName": "Fuerteventura", "municipalityName": "Fuerteventura Island", "location": {"lat": 28.4527, "lon": -13.8638}, "countryCode": "ES"}, "averageDailyFlights": 2.0, "operators": [{"name": "TUI Airways", "iata": "BY", "icao": "TOM"}, {"name": "easyJet", "iata": "U2", "icao": "EZY"}]}, {"destination": {"icao": "LXGB", "iata": "GIB", "name": "Gibraltar ", "shortName": "Gibraltar", "municipalityName": "Gibraltar", "location": {"lat": 36.1512, "lon": -5.349659}, "countryCode": "GI"}, "averageDailyFlights": 2.0, "operators": [{"name": "easyJet", "iata": "U2", "icao": "EZY"}]}, {"destination": {"icao": "LFMT", "iata": "MPL", "name": "Montpellier/M\u00e9diterran\u00e9e Montpellier-M\u00e9diterran\u00e9e", "shortName": "Montpellier-M\u00e9diterran\u00e9e", "municipalityName": "Montpellier/M\u00e9diterran\u00e9e", "location": {"lat": 43.5762, "lon": 3.96301}, "countryCode": "FR"}, "averageDailyFlights": 2.0, "operators": [{"name": "easyJet", "iata": "U2", "icao": "EZY"}, {"name": "British Airways", "iata": "BA", "icao": "BAW"}, {"name": "EFW"}]}, {"destination": {"icao": "EVRA", "iata": "RIX", "localCode": "\u0420\u0418\u0425", "name": "Riga ", "shortName": "Riga", "municipalityName": "Riga", "location": {"lat": 56.9236, "lon": 23.9711}, "countryCode": "LV"}, "averageDailyFlights": 2.0, "operators": [{"name": "airBaltic", "iata": "BT", "icao": "BTI"}]}, {"destination": {"icao": "LIEE", "iata": "CAG", "name": "Cagliari Elmas", "shortName": "Elmas", "municipalityName": "Cagliari", "location": {"lat": 39.2515, "lon": 9.05428}, "countryCode": "IT"}, "averageDailyFlights": 1.87, "operators": [{"name": "EFW"}, {"name": "British Airways", "iata": "BA", "icao": "BAW"}, {"name": "easyJet", "iata": "U2", "icao": "EZY"}, {"name": "Vueling", "iata": "VY", "icao": "VLG"}]}, {"destination": {"icao": "OTHH", "iata": "DOH", "name": "Doha Hamad", "shortName": "Hamad", "municipalityName": "Doha", "location": {"lat": 25.273056, "lon": 51.608055}, "countryCode": "QA"}, "averageDailyFlights": 1.86, "operators": [{"name": "Qatar Airways", "iata": "QR", "icao": "QTR"}, {"name": "British Airways", "iata": "BA", "icao": "BAW"}]}, {"destination": {"icao": "LIBD", "iata": "BRI", "name": "Bari Karol Wojty\u0142a", "shortName": "Karol Wojty\u0142a", "municipalityName": "Bari", "location": {"lat": 41.1389, "lon": 16.7606}, "countryCode": "IT"}, "averageDailyFlights": 1.71, "operators": [{"name": "EFW"}, {"name": "easyJet", "iata": "U2", "icao": "EZY"}, {"name": "British Airways", "iata": "BA", "icao": "BAW"}]}, {"destination": {"icao": "LHBP", "iata": "BUD", "name": "Budapest Ferenc Liszt", "shortName": "Ferenc Liszt", "municipalityName": "Budapest", "location": {"lat": 47.4369, "lon": 19.255598}, "countryCode": "HU"}, "averageDailyFlights": 1.71, "operators": [{"name": "Wizz Air", "iata": "W6", "icao": "WZZ"}, {"name": "easyJet", "iata": "U2", "icao": "EZY"}]}, {"destination": {"icao": "LPMA", "iata": "FNC", "name": "Funchal Madeira", "shortName": "Madeira", "municipalityName": "Funchal", "location": {"lat": 32.6979, "lon": -16.7745}, "countryCode": "PT"}, "averageDailyFlights": 1.71, "operators": [{"name": "easyJet", "iata": "U2", "icao": "EZY"}]}, {"destination": {"icao": "LGKR", "iata": "CFU", "name": "Kerkyra Island Ioannis Kapodistrias", "shortName": "Ioannis Kapodistrias", "municipalityName": "Kerkyra Island", "location": {"lat": 39.6019, "lon": 19.9117}, "countryCode": "GR"}, "averageDailyFlights": 1.71, "operators": [{"name": "TUI Airways", "iata": "BY", "icao": "TOM"}, {"name": "easyJet", "iata": "U2", "icao": "EZY"}]}, {"destination": {"icao": "EPKK", "iata": "KRK", "name": "Krak\u00f3w John Paul II   -Balice", "shortName": "John Paul II   -Balice", "municipalityName": "Krak\u00f3w", "location": {"lat": 50.0777, "lon": 19.7848}, "countryCode": "PL"}, "averageDailyFlights": 1.71, "operators": [{"name": "easyJet", "iata": "U2", "icao": "EZY"}, {"name": "Wizz Air", "iata": "W6", "icao": "WZZ"}]}, {"destination": {"icao": "LIEO", "iata": "OLB", "name": "Olbia Costa Smeralda", "shortName": "Costa Smeralda", "municipalityName": "Olbia", "location": {"lat": 40.8987, "lon": 9.517629}, "countryCode": "IT"}, "averageDailyFlights": 1.59, "operators": [{"name": "easyJet", "iata": "U2", "icao": "EZY"}, {"name": "TUI Airways", "iata": "BY", "icao": "TOM"}]}, {"destination": {"icao": "LROP", "iata": "OTP", "name": "Bucharest Henri Coand\u0103", "shortName": "Henri Coand\u0103", "municipalityName": "Bucharest", "location": {"lat": 44.5722, "lon": 26.1022}, "countryCode": "RO"}, "averageDailyFlights": 1.57, "operators": [{"name": "WMT"}, {"name": "Ulendo Airlink", "iata": "W4"}]}, {"destination": {"icao": "LFML", "iata": "MRS", "name": "Marseille Provence", "shortName": "Provence", "municipalityName": "Marseille", "location": {"lat": 43.43927, "lon": 5.221424}, "countryCode": "FR"}, "averageDailyFlights": 1.57, "operators": [{"name": "easyJet", "iata": "U2", "icao": "EZY"}]}, {"destination": {"icao": "LGMK", "iata": "JMK", "name": "Mykonos Island Mikonos", "shortName": "Mikonos", "municipalityName": "Mykonos Island", "location": {"lat": 37.4351, "lon": 25.3481}, "countryCode": "GR"}, "averageDailyFlights": 1.57, "operators": [{"name": "easyJet", "iata": "U2", "icao": "EZY"}]}, {"destination": {"icao": "LGPZ", "iata": "PVK", "name": "Preveza/Lefkada Aktion National", "shortName": "Aktion National", "municipalityName": "Preveza/Lefkada", "location": {"lat": 38.9255, "lon": 20.7653}, "countryCode": "GR"}, "averageDailyFlights": 1.57, "operators": [{"name": "easyJet", "iata": "U2", "icao": "EZY"}, {"name": "Enter Air", "iata": "E4", "icao": "ENT"}, {"name": "British Airways", "iata": "BA", "icao": "BAW"}, {"name": "TUI Airways", "iata": "BY", "icao": "TOM"}]}, {"destination": {"icao": "BIKF", "iata": "KEF", "name": "Reykjavik Keflavik", "shortName": "Keflavik", "municipalityName": "Reykjavik", "location": {"lat": 63.985, "lon": -22.6056}, "countryCode": "IS"}, "averageDailyFlights": 1.57, "operators": [{"name": "easyJet", "iata": "U2", "icao": "EZY"}, {"name": "Icelandair", "iata": "FI", "icao": "ICE"}]}, {"destination": {"icao": "HESH", "iata": "SSH", "name": "Sharm el Sheikh ", "shortName": "Sharm el Sheikh", "municipalityName": "Sharm el Sheikh", "location": {"lat": 27.9773, "lon": 34.395}, "countryCode": "EG"}, "averageDailyFlights": 1.57, "operators": [{"name": "TUI Airways", "iata": "BY", "icao": "TOM"}, {"name": "easyJet", "iata": "U2", "icao": "EZY"}]}, {"destination": {"icao": "EDDM", "iata": "MUC", "name": "Munich ", "shortName": "Munich", "municipalityName": "Munich", "location": {"lat": 48.3538, "lon": 11.7861}, "countryCode": "DE"}, "averageDailyFlights": 1.43, "operators": [{"name": "easyJet", "iata": "U2", "icao": "EZY"}]}, {"destination": {"icao": "CYYZ", "iata": "YYZ", "name": "Toronto Pearson", "shortName": "Pearson", "municipalityName": "Toronto", "location": {"lat": 43.6772, "lon": -79.6306}, "countryCode": "CA"}, "averageDailyFlights": 1.43, "operators": [{"name": "Air Transat", "iata": "TS", "icao": "TSC"}]}, {"destination": {"icao": "ENVA", "iata": "TRD", "name": "Trondheim V\u00e6rnes", "shortName": "V\u00e6rnes", "municipalityName": "Trondheim", "location": {"lat": 63.4578, "lon": 10.923999}, "countryCode": "NO"}, "averageDailyFlights": 1.43, "operators": [{"name": "NOZ"}, {"name": "Norwegian Air Shuttle", "iata": "DY", "icao": "NOZ"}]}, {"destination": {"icao": "LIMF", "iata": "TRN", "name": "Torino Turin", "shortName": "Turin", "municipalityName": "Torino", "location": {"lat": 45.2008, "lon": 7.64963}, "countryCode": "IT"}, "averageDailyFlights": 1.29, "operators": [{"name": "EFW"}, {"name": "British Airways", "iata": "BA", "icao": "BAW"}, {"name": "easyJet", "iata": "U2", "icao": "EZY"}]}, {"destination": {"icao": "LEST", "iata": "SCQ", "name": "Santiago de Compostela ", "shortName": "Santiago de Compostela", "municipalityName": "Santiago de Compostela", "location": {"lat": 42.8963, "lon": -8.41514}, "countryCode": "ES"}, "averageDailyFlights": 1.16, "operators": [{"name": "Vueling", "iata": "VY", "icao": "VLG"}, {"name": "easyJet", "iata": "U2", "icao": "EZY"}, {"name": "British Airways", "iata": "BA", "icao": "BAW"}, {"name": "Iberia", "iata": "IB", "icao": "IBE"}]}, {"destination": {"icao": "KBOS", "iata": "BOS", "name": "Boston General Edward Lawrence Logan", "shortName": "General Edward Lawrence Logan", "municipalityName": "Boston", "location": {"lat": 42.3643, "lon": -71.0052}, "countryCode": "US"}, "averageDailyFlights": 1.14, "operators": [{"name": "JetBlue Airways", "iata": "B6", "icao": "JBU"}]}, {"destination": {"icao": "CYYC", "iata": "YYC", "name": "Calgary ", "shortName": "Calgary", "municipalityName": "Calgary", "location": {"lat": 51.1139, "lon": -114.02}, "countryCode": "CA"}, "averageDailyFlights": 1.14, "operators": [{"name": "WestJet", "iata": "WS", "icao": "WJA"}]}, {"destination": {"icao": "GMMN", "iata": "CMN", "name": "Casablanca Mohammed V", "shortName": "Mohammed V", "municipalityName": "Casablanca", "location": {"lat": 33.3675, "lon": -7.58997}, "countryCode": "MA"}, "averageDailyFlights": 1.14, "operators": [{"name": "Royal Air Maroc", "iata": "AT", "icao": "RAM"}]}, {"destination": {"icao": "EICK", "iata": "ORK", "name": "Cork ", "shortName": "Cork", "municipalityName": "Cork", "location": {"lat": 51.8413, "lon": -8.491109}, "countryCode": "IE"}, "averageDailyFlights": 1.14, "operators": [{"name": "Ryanair", "iata": "FR", "icao": "RYR"}]}, {"destination": {"icao": "EINN", "iata": "SNN", "name": "Limerick city Shannon", "shortName": "Shannon", "municipalityName": "Limerick city", "location": {"lat": 52.702, "lon": -8.924819}, "countryCode": "IE"}, "averageDailyFlights": 1.14, "operators": [{"name": "Ryanair", "iata": "FR", "icao": "RYR"}]}, {"destination": {"icao": "LFRS", "iata": "NTE", "name": "Nantes Atlantique", "shortName": "Atlantique", "municipalityName": "Nantes", "location": {"lat": 47.1532, "lon": -1.61073}, "countryCode": "FR"}, "averageDailyFlights": 1.14, "operators": [{"name": "easyJet", "iata": "U2", "icao": "EZY"}]}, {"destination": {"icao": "LKPR", "iata": "PRG", "name": "Prague Ruzyn\u011b", "shortName": "Ruzyn\u011b", "municipalityName": "Prague", "location": {"lat": 50.1008, "lon": 14.26}, "countryCode": "CZ"}, "averageDailyFlights": 1.14, "operators": [{"name": "easyJet", "iata": "U2", "icao": "EZY"}]}, {"destination": {"name": "Arrecife"}, "averageDailyFlights": 1.14, "operators": [{"name": "Vueling", "iata": "VY", "icao": "VLG"}]}, {"destination": {"icao": "KTPA", "iata": "TPA", "name": "Tampa ", "shortName": "Tampa", "municipalityName": "Tampa", "location": {"lat": 27.9755, "lon": -82.5332}, "countryCode": "US"}, "averageDailyFlights": 1.02, "operators": [{"name": "British Airways", "iata": "BA", "icao": "BAW"}, {"name": "Iberia", "iata": "IB", "icao": "IBE"}]}, {"destination": {"icao": "GMAD", "iata": "AGA", "name": "Agadir Al Massira", "shortName": "Al Massira", "municipalityName": "Agadir", "location": {"lat": 30.325, "lon": -9.413069}, "countryCode": "MA"}, "averageDailyFlights": 1.0, "operators": [{"name": "TUI Airways", "iata": "BY", "icao": "TOM"}, {"name": "easyJet", "iata": "U2", "icao": "EZY"}]}, {"destination": {"icao": "MMUN", "iata": "CUN", "name": "Canc\u00fan ", "shortName": "Canc\u00fan", "municipalityName": "Canc\u00fan", "location": {"lat": 21.0365, "lon": -86.8771}, "countryCode": "MX"}, "averageDailyFlights": 1.0, "operators": [{"name": "TUI Airways", "iata": "BY", "icao": "TOM"}, {"name": "British Airways", "iata": "BA", "icao": "BAW"}]}, {"destination": {"icao": "DTNH", "iata": "NBE", "name": "Enfidha - Hammamet", "shortName": "- Hammamet", "municipalityName": "Enfidha", "location": {"lat": 36.075832, "lon": 10.438611}, "countryCode": "TN"}, "averageDailyFlights": 1.0, "operators": [{"name": "easyJet", "iata": "U2", "icao": "EZY"}, {"name": "TUI Airways", "iata": "BY", "icao": "TOM"}]}, {"destination": {"icao": "EDDH", "iata": "HAM", "name": "Hamburg ", "shortName": "Hamburg", "municipalityName": "Hamburg", "location": {"lat": 53.6304, "lon": 9.988229}, "countryCode": "DE"}, "averageDailyFlights": 1.0, "operators": [{"name": "easyJet", "iata": "U2", "icao": "EZY"}]}, {"destination": {"icao": "EFHK", "iata": "HEL", "name": "Helsinki Vantaa", "shortName": "Vantaa", "municipalityName": "Helsinki", "location": {"lat": 60.3172, "lon": 24.9633}, "countryCode": "FI"}, "averageDailyFlights": 1.0, "operators": [{"name": "Norwegian Air International", "iata": "D8", "icao": "IBK"}, {"name": "NSZ"}]}, {"destination": {"icao": "HEGN", "iata": "HRG", "name": "Hurghada ", "shortName": "Hurghada", "municipalityName": "Hurghada", "location": {"lat": 27.1783, "lon": 33.7994}, "countryCode": "EG"}, "averageDailyFlights": 1.0, "operators": [{"name": "TUI Airways", "iata": "BY", "icao": "TOM"}, {"name": "easyJet", "iata": "U2", "icao": "EZY"}]}, {"destination": {"icao": "LJLJ", "iata": "LJU", "name": "Ljubljana Jo\u017ee Pu\u010dnik", "shortName": "Jo\u017ee Pu\u010dnik", "municipalityName": "Ljubljana", "location": {"lat": 46.2237, "lon": 14.457599}, "countryCode": "SI"}, "averageDailyFlights": 1.0, "operators": [{"name": "easyJet", "iata": "U2", "icao": "EZY"}]}, {"destination": {"icao": "LICJ", "iata": "PMO", "name": "Palermo Falcone\u2013Borsellino", "shortName": "Falcone\u2013Borsellino", "municipalityName": "Palermo", "location": {"lat": 38.176, "lon": 13.090999}, "countryCode": "IT"}, "averageDailyFlights": 1.0, "operators": [{"name": "easyJet", "iata": "U2", "icao": "EZY"}]}, {"destination": {"icao": "LOWS", "iata": "SZG", "name": "Salzburg ", "shortName": "Salzburg", "municipalityName": "Salzburg", "location": {"lat": 47.7933, "lon": 13.0043}, "countryCode": "AT"}, "averageDailyFlights": 1.0, "operators": [{"name": "EFW"}, {"name": "TUI Airways", "iata": "BY", "icao": "TOM"}, {"name": "easyJet", "iata": "U2", "icao": "EZY"}, {"name": "British Airways", "iata": "BA", "icao": "BAW"}]}, {"destination": {"icao": "LLBG", "iata": "TLV", "name": "Tel Aviv Yafo Ben Gurion", "shortName": "Ben Gurion", "municipalityName": "Tel Aviv Yafo", "location": {"lat": 32.0114, "lon": 34.8867}, "countryCode": "IL"}, "averageDailyFlights": 1.0, "operators": [{"name": "Wizz Air UK", "iata": "W9", "icao": "WUK"}]}, {"destination": {"icao": "DTTA", "iata": "TUN", "name": "Tunis Carthage", "shortName": "Carthage", "municipalityName": "Tunis", "location": {"lat": 36.851, "lon": 10.227199}, "countryCode": "TN"}, "averageDailyFlights": 1.0, "operators": [{"name": "Tunisair", "iata": "TU", "icao": "TAR"}, {"name": "Nouvelair Tunisie", "iata": "BJ", "icao": "LBT"}]}, {"destination": {"icao": "LEAM", "iata": "LEI", "name": "Almer\u00eda ", "shortName": "Almer\u00eda", "municipalityName": "Almer\u00eda", "location": {"lat": 36.8439, "lon": -2.3701}, "countryCode": "ES"}, "averageDailyFlights": 0.86, "operators": [{"name": "easyJet", "iata": "U2", "icao": "EZY"}]}, {"destination": {"icao": "LTBJ", "iata": "ADB", "name": "\u0130zmir Adnan Menderes", "shortName": "Adnan Menderes", "municipalityName": "\u0130zmir", "location": {"lat": 38.2924, "lon": 27.157}, "countryCode": "TR"}, "averageDailyFlights": 0.86, "operators": [{"name": "easyJet", "iata": "U2", "icao": "EZY"}, {"name": "TUI Airways", "iata": "BY", "icao": "TOM"}]}, {"destination": {"icao": "CYUL", "iata": "YUL", "name": "Montreal Trudeau", "shortName": "Trudeau", "municipalityName": "Montreal", "location": {"lat": 45.4706, "lon": -73.7408}, "countryCode": "CA"}, "averageDailyFlights": 0.86, "operators": [{"name": "Air Transat", "iata": "TS", "icao": "TSC"}]}, {"destination": {"icao": "LBSF", "iata": "SOF", "name": "Sofia ", "shortName": "Sofia", "municipalityName": "Sofia", "location": {"lat": 42.696693, "lon": 23.411436}, "countryCode": "BG"}, "averageDailyFlights": 0.86, "operators": [{"name": "easyJet", "iata": "U2", "icao": "EZY"}]}, {"destination": {"icao": "LFBO", "iata": "TLS", "name": "Toulouse-Blagnac ", "shortName": "Toulouse-Blagnac", "municipalityName": "Toulouse-Blagnac", "location": {"lat": 43.6291, "lon": 1.363819}, "countryCode": "FR"}, "averageDailyFlights": 0.86, "operators": [{"name": "easyJet", "iata": "U2", "icao": "EZY"}]}, {"destination": {"name": "Washington"}, "averageDailyFlights": 0.86, "operators": [{"name": "Z0"}]}, {"destination": {"icao": "TLPL", "iata": "UVF", "name": "Vieux Fort Hewanorra", "shortName": "Hewanorra", "municipalityName": "Vieux Fort", "location": {"lat": 13.7332, "lon": -60.9526}, "countryCode": "LC"}, "averageDailyFlights": 0.82, "operators": [{"name": "British Airways", "iata": "BA", "icao": "BAW"}, {"name": "Z0"}]}, {"destination": {"icao": "LIPE", "iata": "BLQ", "name": "Bologna Guglielmo Marconi", "shortName": "Guglielmo Marconi", "municipalityName": "Bologna", "location": {"lat": 44.5354, "lon": 11.2887}, "countryCode": "IT"}, "averageDailyFlights": 0.71, "operators": [{"name": "easyJet", "iata": "U2", "icao": "EZY"}]}, {"destination": {"icao": "LECO", "iata": "LCG", "name": "Culleredo A Coru\u00f1a", "shortName": "A Coru\u00f1a", "municipalityName": "Culleredo", "location": {"lat": 43.3021, "lon": -8.37726}, "countryCode": "ES"}, "averageDailyFlights": 0.71, "operators": [{"name": "Vueling", "iata": "VY", "icao": "VLG"}]}, {"destination": {"icao": "OEJN", "iata": "JED", "name": "Jeddah King Abdulaziz", "shortName": "King Abdulaziz", "municipalityName": "Jeddah", "location": {"lat": 21.6796, "lon": 39.1565}, "countryCode": "SA"}, "averageDailyFlights": 0.71, "operators": [{"name": "Saudi Arabian Airlines", "iata": "SV", "icao": "SVA"}]}, {"destination": {"icao": "LDPL", "iata": "PUY", "name": "Pula ", "shortName": "Pula", "municipalityName": "Pula", "location": {"lat": 44.8935, "lon": 13.9222}, "countryCode": "HR"}, "averageDailyFlights": 0.71, "operators": [{"name": "easyJet", "iata": "U2", "icao": "EZY"}, {"name": "TUI Airways", "iata": "BY", "icao": "TOM"}]}, {"destination": {"icao": "LEAS", "iata": "OVD", "name": "Ran\u00f3n Asturias", "shortName": "Asturias", "municipalityName": "Ran\u00f3n", "location": {"lat": 43.5636, "lon": -6.034619}, "countryCode": "ES"}, "averageDailyFlights": 0.71, "operators": [{"name": "Vueling", "iata": "VY", "icao": "VLG"}]}, {"destination": {"icao": "VAAH", "iata": "AMD", "name": "Ahmedabad Sardar Vallabhbhai Patel", "shortName": "Sardar Vallabhbhai Patel", "municipalityName": "Ahmedabad", "location": {"lat": 23.0772, "lon": 72.6347}, "countryCode": "IN"}, "averageDailyFlights": 0.57, "operators": [{"name": "Air India", "iata": "AI", "icao": "AIC"}]}, {"destination": {"icao": "VIAR", "iata": "ATQ", "name": "Amritsar Sri Guru Ram Dass Jee", "shortName": "Sri Guru Ram Dass Jee", "municipalityName": "Amritsar", "location": {"lat": 31.7096, "lon": 74.7973}, "countryCode": "IN"}, "averageDailyFlights": 0.57, "operators": [{"name": "Air India", "iata": "AI", "icao": "AIC"}]}, {"destination": {"icao": "LIME", "iata": "BGY", "name": "Bergamo Orio al Serio", "shortName": "Orio al Serio", "municipalityName": "Bergamo", "location": {"lat": 45.6739, "lon": 9.70417}, "countryCode": "IT"}, "averageDailyFlights": 0.57, "operators": [{"name": "easyJet", "iata": "U2", "icao": "EZY"}]}, {"destination": {"icao": "LYTV", "iata": "TIV", "name": "Tivat ", "shortName": "Tivat", "municipalityName": "Tivat", "location": {"lat": 42.4047, "lon": 18.7233}, "countryCode": "ME"}, "averageDailyFlights": 0.57, "operators": [{"name": "easyJet", "iata": "U2", "icao": "EZY"}]}, {"destination": {"name": "Boa Vista"}, "averageDailyFlights": 0.57, "operators": [{"name": "TUI Airways", "iata": "BY", "icao": "TOM"}]}, {"destination": {"name": "Bourgas"}, "averageDailyFlights": 0.57, "operators": [{"name": "TUI Airways", "iata": "BY", "icao": "TOM"}, {"name": "BH Air", "iata": "8H", "icao": "BGH"}]}, {"destination": {"name": "Krakow"}, "averageDailyFlights": 0.57, "operators": [{"name": "easyJet", "iata": "U2", "icao": "EZY"}, {"name": "Wizz Air", "iata": "W6", "icao": "WZZ"}]}, {"destination": {"name": "Mahon"}, "averageDailyFlights": 0.57, "operators": [{"name": "British Airways", "iata": "BA", "icao": "BAW"}]}, {"destination": {"icao": "LIMJ", "iata": "GOA", "name": "Genova Genoa Cristoforo Colombo", "shortName": "Genoa Cristoforo Colombo", "municipalityName": "Genova", "location": {"lat": 44.4133, "lon": 8.837499}, "countryCode": "IT"}, "averageDailyFlights": 0.43, "operators": [{"name": "Vueling", "iata": "VY", "icao": "VLG"}]}, {"destination": {"icao": "LEGR", "iata": "GRX", "name": "Granada Federico Garcia Lorca", "shortName": "Federico Garcia Lorca", "municipalityName": "Granada", "location": {"lat": 37.1887, "lon": -3.777359}, "countryCode": "ES"}, "averageDailyFlights": 0.43, "operators": [{"name": "Vueling", "iata": "VY", "icao": "VLG"}]}, {"destination": {"icao": "LOWI", "iata": "INN", "name": "Innsbruck ", "shortName": "Innsbruck", "municipalityName": "Innsbruck", "location": {"lat": 47.2602, "lon": 11.343999}, "countryCode": "AT"}, "averageDailyFlights": 0.43, "operators": [{"name": "easyJet", "iata": "U2", "icao": "EZY"}]}, {"destination": {"icao": "VOCI", "iata": "COK", "name": "Kochi Cochin", "shortName": "Cochin", "municipalityName": "Kochi", "location": {"lat": 10.152, "lon": 76.4019}, "countryCode": "IN"}, "averageDailyFlights": 0.43, "operators": [{"name": "Air India", "iata": "AI", "icao": "AIC"}]}, {"destination": {"icao": "LFBH", "iata": "LRH", "name": "La Rochelle/\u00cele de R\u00e9 La Rochelle-\u00cele de R\u00e9", "shortName": "La Rochelle-\u00cele de R\u00e9", "municipalityName": "La Rochelle/\u00cele de R\u00e9", "location": {"lat": 46.1792, "lon": -1.195279}, "countryCode": "FR"}, "averageDailyFlights": 0.43, "operators": [{"name": "easyJet", "iata": "U2", "icao": "EZY"}]}, {"destination": {"icao": "LFBL", "iata": "LIG", "name": "Limoges/Bellegarde Limoges", "shortName": "Limoges", "municipalityName": "Limoges/Bellegarde", "location": {"lat": 45.8628, "lon": 1.17944}, "countryCode": "FR"}, "averageDailyFlights": 0.43, "operators": [{"name": "easyJet", "iata": "U2", "icao": "EZY"}]}, {"destination": {"icao": "EETN", "iata": "TLL", "localCode": "TLL", "name": "Tallinn Lennart Meri", "shortName": "Lennart Meri", "municipalityName": "Tallinn", "location": {"lat": 59.4133, "lon": 24.8328}, "countryCode": "EE"}, "averageDailyFlights": 0.43, "operators": [{"name": "airBaltic", "iata": "BT", "icao": "BTI"}]}, {"destination": {"icao": "GMTT", "iata": "TNG", "name": "Tangier Ibn Batouta", "shortName": "Ibn Batouta", "municipalityName": "Tangier", "location": {"lat": 35.7269, "lon": -5.91689}, "countryCode": "MA"}, "averageDailyFlights": 0.43, "operators": [{"name": "Air Arabia Maroc", "iata": "3O", "icao": "MAC"}]}, {"destination": {"icao": "LATI", "iata": "TIA", "name": "Tirana Mother Teresa", "shortName": "Mother Teresa", "municipalityName": "Tirana", "location": {"lat": 41.4147, "lon": 19.7206}, "countryCode": "AL"}, "averageDailyFlights": 0.43, "operators": [{"name": "easyJet", "iata": "U2", "icao": "EZY"}]}, {"destination": {"icao": "CYVR", "iata": "YVR", "name": "Vancouver ", "shortName": "Vancouver", "municipalityName": "Vancouver", "location": {"lat": 49.1939, "lon": -123.184}, "countryCode": "CA"}, "averageDailyFlights": 0.43, "operators": [{"name": "British Airways", "iata": "BA", "icao": "BAW"}]}, {"destination": {"icao": "VOGO", "iata": "GOI", "name": "Vasco da Gama Dabolim", "shortName": "Dabolim", "municipalityName": "Vasco da Gama", "location": {"lat": 15.3808, "lon": 73.8314}, "countryCode": "IN"}, "averageDailyFlights": 0.43, "operators": [{"name": "Air India", "iata": "AI", "icao": "AIC"}]}, {"destination": {"name": "Guernsey"}, "averageDailyFlights": 0.43, "operators": [{"name": "Aurigny Air Services", "iata": "GR", "icao": "AUR"}]}, {"destination": {"name": "Reus"}, "averageDailyFlights": 0.43, "operators": [{"name": "TUI Airways", "iata": "BY", "icao": "TOM"}]}, {"destination": {"name": "Turin"}, "averageDailyFlights": 0.43, "operators": [{"name": "Vueling", "iata": "VY", "icao": "VLG"}]}, {"destination": {"icao": "LGSK", "iata": "JSI", "name": "Skiathos Island National", "shortName": "Island National", "municipalityName": "Skiathos", "location": {"lat": 39.1771, "lon": 23.5037}, "countryCode": "GR"}, "averageDailyFlights": 0.33, "operators": [{"name": "TUI Airways", "iata": "BY", "icao": "TOM"}, {"name": "Enter Air", "iata": "E4", "icao": "ENT"}]}, {"destination": {"icao": "LGKL", "iata": "KLX", "name": "Kalamata ", "shortName": "Kalamata", "municipalityName": "Kalamata", "location": {"lat": 37.0683, "lon": 22.0255}, "countryCode": "GR"}, "averageDailyFlights": 0.32, "operators": [{"name": "easyJet", "iata": "U2", "icao": "EZY"}, {"name": "Enter Air", "iata": "E4", "icao": "ENT"}]}, {"destination": {"icao": "LFKB", "iata": "BIA", "name": "Bastia/Poretta Bastia-Poretta", "shortName": "Bastia-Poretta", "municipalityName": "Bastia/Poretta", "location": {"lat": 42.5527, "lon": 9.48373}, "countryCode": "FR"}, "averageDailyFlights": 0.29, "operators": [{"name": "easyJet", "iata": "U2", "icao": "EZY"}]}, {"destination": {"icao": "LFBZ", "iata": "BIQ", "name": "Biarritz/Anglet/Bayonne Biarritz-Anglet-Bayonne", "shortName": "Biarritz-Anglet-Bayonne", "municipalityName": "Biarritz/Anglet/Bayonne", "location": {"lat": 43.4684, "lon": -1.523319}, "countryCode": "FR"}, "averageDailyFlights": 0.29, "operators": [{"name": "easyJet", "iata": "U2", "icao": "EZY"}]}, {"destination": {"icao": "LIBR", "iata": "BDS", "name": "Brindisi \u2013 Salento", "shortName": "\u2013 Salento", "municipalityName": "Brindisi", "location": {"lat": 40.6576, "lon": 17.947}, "countryCode": "IT"}, "averageDailyFlights": 0.29, "operators": [{"name": "easyJet", "iata": "U2", "icao": "EZY"}]}, {"destination": {"icao": "KFLL", "iata": "FLL", "name": "Fort Lauderdale Hollywood", "shortName": "Hollywood", "municipalityName": "Fort Lauderdale", "location": {"lat": 26.0726, "lon": -80.1527}, "countryCode": "US"}, "averageDailyFlights": 0.29, "operators": [{"name": "UBT"}]}, {"destination": {"icao": "LEGE", "iata": "GRO", "name": "Girona ", "shortName": "Girona", "municipalityName": "Girona", "location": {"lat": 41.901, "lon": 2.76055}, "countryCode": "ES"}, "averageDailyFlights": 0.29, "operators": [{"name": "TUI Airways", "iata": "BY", "icao": "TOM"}]}, {"destination": {"icao": "VVTS", "iata": "SGN", "name": "Ho Chi Minh City Tan Son Nhat", "shortName": "Tan Son Nhat", "municipalityName": "Ho Chi Minh City", "location": {"lat": 10.818799, "lon": 106.652}, "countryCode": "VN"}, "averageDailyFlights": 0.29, "operators": [{"name": "Bamboo Airways", "iata": "QH", "icao": "BAV"}]}, {"destination": {"icao": "KLAS", "iata": "LAS", "name": "Las Vegas McCarran", "shortName": "McCarran", "municipalityName": "Las Vegas", "location": {"lat": 36.0801, "lon": -115.152}, "countryCode": "US"}, "averageDailyFlights": 0.29, "operators": [{"name": "British Airways", "iata": "BA", "icao": "BAW"}]}, {"destination": {"icao": "MKJS", "iata": "MBJ", "name": "Montego Bay Sangster", "shortName": "Sangster", "municipalityName": "Montego Bay", "location": {"lat": 18.5037, "lon": -77.9134}, "countryCode": "JM"}, "averageDailyFlights": 0.29, "operators": [{"name": "TUI Airways", "iata": "BY", "icao": "TOM"}]}, {"destination": {"icao": "LWOH", "iata": "OHD", "name": "Ohrid St. Paul the Apostle", "shortName": "St. Paul the Apostle", "municipalityName": "Ohrid", "location": {"lat": 41.18, "lon": 20.7423}, "countryCode": "MK"}, "averageDailyFlights": 0.29, "operators": [{"name": "TUI Airways", "iata": "BY", "icao": "TOM"}]}, {"destination": {"icao": "LYPG", "iata": "TGD", "name": "Podgorica ", "shortName": "Podgorica", "municipalityName": "Podgorica", "location": {"lat": 42.3594, "lon": 19.2519}, "countryCode": "ME"}, "averageDailyFlights": 0.29, "operators": [{"name": "Wizz Air UK", "iata": "W9", "icao": "WUK"}]}, {"destination": {"icao": "MDPC", "iata": "PUJ", "name": "Punta Cana ", "shortName": "Punta Cana", "municipalityName": "Punta Cana", "location": {"lat": 18.567398, "lon": -68.3634}, "countryCode": "DO"}, "averageDailyFlights": 0.29, "operators": [{"name": "TUI Airways", "iata": "BY", "icao": "TOM"}]}, {"destination": {"icao": "LFRN", "iata": "RNS", "name": "Rennes/Saint-Jacques Rennes-Saint-Jacques", "shortName": "Rennes-Saint-Jacques", "municipalityName": "Rennes/Saint-Jacques", "location": {"lat": 48.0695, "lon": -1.734789}, "countryCode": "FR"}, "averageDailyFlights": 0.29, "operators": [{"name": "easyJet", "iata": "U2", "icao": "EZY"}]}, {"destination": {"icao": "LDRI", "iata": "RJK", "name": "Rijeka ", "shortName": "Rijeka", "municipalityName": "Rijeka", "location": {"lat": 45.2169, "lon": 14.5703}, "countryCode": "HR"}, "averageDailyFlights": 0.29, "operators": [{"name": "easyJet", "iata": "U2", "icao": "EZY"}]}, {"destination": {"icao": "TAPA", "iata": "ANU", "name": "St. George V.C. Bird", "shortName": "V.C. Bird", "municipalityName": "St. George", "location": {"lat": 17.1367, "lon": -61.7927}, "countryCode": "AG"}, "averageDailyFlights": 0.29, "operators": [{"name": "British Airways", "iata": "BA", "icao": "BAW"}, {"name": "TUI Airways", "iata": "BY", "icao": "TOM"}]}, {"destination": {"icao": "LFTH", "iata": "TLN", "name": "Toulon/Hy\u00e8res/Le Palyvestre Toulon-Hy\u00e8res", "shortName": "Toulon-Hy\u00e8res", "municipalityName": "Toulon/Hy\u00e8res/Le Palyvestre", "location": {"lat": 43.0973, "lon": 6.146029}, "countryCode": "FR"}, "averageDailyFlights": 0.29, "operators": [{"name": "easyJet", "iata": "U2", "icao": "EZY"}]}, {"destination": {"icao": "LPPS", "iata": "PXO", "name": "Vila Baleira Porto Santo", "shortName": "Porto Santo", "municipalityName": "Vila Baleira", "location": {"lat": 33.0734, "lon": -16.35}, "countryCode": "PT"}, "averageDailyFlights": 0.29, "operators": [{"name": "TUI Airways", "iata": "BY", "icao": "TOM"}, {"name": "easyJet", "iata": "U2", "icao": "EZY"}]}, {"destination": {"name": "Cancun"}, "averageDailyFlights": 0.29, "operators": [{"name": "TUI Airways", "iata": "BY", "icao": "TOM"}]}, {"destination": {"name": "Chania"}, "averageDailyFlights": 0.29, "operators": [{"name": "TUI Airways", "iata": "BY", "icao": "TOM"}]}, {"destination": {"name": "Corfu"}, "averageDailyFlights": 0.29, "operators": [{"name": "TUI Airways", "iata": "BY", "icao": "TOM"}, {"name": "Enter Air", "iata": "E4", "icao": "ENT"}]}, {"destination": {"name": "Kavala"}, "averageDailyFlights": 0.29, "operators": [{"name": "TUI Airways", "iata": "BY", "icao": "TOM"}]}, {"destination": {"name": "Malta"}, "averageDailyFlights": 0.29, "operators": [{"name": "TUI Airways", "iata": "BY", "icao": "TOM"}]}, {"destination": {"name": "Mytilene"}, "averageDailyFlights": 0.29, "operators": [{"name": "Enter Air", "iata": "E4", "icao": "ENT"}]}, {"destination": {"name": "Naples"}, "averageDailyFlights": 0.29, "operators": [{"name": "TUI Airways", "iata": "BY", "icao": "TOM"}]}, {"destination": {"name": "Sal"}, "averageDailyFlights": 0.29, "operators": [{"name": "TUI Airways", "iata": "BY", "icao": "TOM"}]}, {"destination": {"icao": "TBPB", "iata": "BGI", "name": "Bridgetown Sir Grantley Adams", "shortName": "Sir Grantley Adams", "municipalityName": "Bridgetown", "location": {"lat": 13.0746, "lon": -59.4925}, "countryCode": "BB"}, "averageDailyFlights": 0.14, "operators": [{"name": "TUI Airways", "iata": "BY", "icao": "TOM"}]}, {"destination": {"icao": "VVNB", "iata": "HAN", "name": "Hanoi Noi Bai", "shortName": "Noi Bai", "municipalityName": "Hanoi", "location": {"lat": 21.2212, "lon": 105.807}, "countryCode": "VN"}, "averageDailyFlights": 0.14, "operators": [{"name": "Bamboo Airways", "iata": "QH", "icao": "BAV"}]}, {"destination": {"icao": "LEJR", "iata": "XRY", "name": "Jerez de la Forntera Jerez", "shortName": "Jerez", "municipalityName": "Jerez de la Forntera", "location": {"lat": 36.7446, "lon": -6.06011}, "countryCode": "ES"}, "averageDailyFlights": 0.14, "operators": [{"name": "TUI Airways", "iata": "BY", "icao": "TOM"}]}, {"destination": {"icao": "EGCC", "iata": "MAN", "name": "Manchester ", "shortName": "Manchester", "municipalityName": "Manchester", "location": {"lat": 53.3537, "lon": -2.27495}, "countryCode": "GB"}, "averageDailyFlights": 0.14, "operators": [{"name": "FHM"}]}, {"destination": {"icao": "FIMP", "iata": "MRU", "name": "Port Louis Sir Seewoosagur Ramgoolam", "shortName": "Sir Seewoosagur Ramgoolam", "municipalityName": "Port Louis", "location": {"lat": -20.4302, "lon": 57.6836}, "countryCode": "MU"}, "averageDailyFlights": 0.14, "operators": [{"name": "British Airways", "iata": "BA", "icao": "BAW"}]}, {"destination": {"icao": "TTPP", "iata": "POS", "name": "Port of Spain Piarco", "shortName": "Piarco", "municipalityName": "Port of Spain", "location": {"lat": 10.595399, "lon": -61.3372}, "countryCode": "TT"}, "averageDailyFlights": 0.14, "operators": [{"name": "British Airways", "iata": "BA", "icao": "BAW"}]}, {"destination": {"icao": "GCLA", "iata": "SPC", "name": "Sta Cruz de la Palma, La Palma Island La Palma", "shortName": "La Palma", "municipalityName": "Sta Cruz de la Palma, La Palma Island", "location": {"lat": 28.6265, "lon": -17.755598}, "countryCode": "ES"}, "averageDailyFlights": 0.14, "operators": [{"name": "TUI Airways", "iata": "BY", "icao": "TOM"}]}, {"destination": {"icao": "MUVR", "iata": "VRA", "name": "Varadero Juan Gualberto Gomez", "shortName": "Juan Gualberto Gomez", "municipalityName": "Varadero", "location": {"lat": 23.0344, "lon": -81.4353}, "countryCode": "CU"}, "averageDailyFlights": 0.14, "operators": [{"name": "TUI Airways", "iata": "BY", "icao": "TOM"}]}, {"destination": {"name": "Lamezia-Terme"}, "averageDailyFlights": 0.14, "operators": [{"name": "TUI Airways", "iata": "BY", "icao": "TOM"}]}, {"destination": {"name": "Lemnos"}, "averageDailyFlights": 0.14, "operators": [{"name": "Enter Air", "iata": "E4", "icao": "ENT"}]}, {"destination": {"name": "Melbourne Fl"}, "averageDailyFlights": 0.14, "operators": [{"name": "TUI Airways", "iata": "BY", "icao": "TOM"}]}, {"destination": {"name": "Newquay"}, "averageDailyFlights": 0.14, "operators": [{"name": "Eastern Airways", "iata": "T3", "icao": "EZE"}]}, {"destination": {"name": "Samos"}, "averageDailyFlights": 0.14, "operators": [{"name": "TUI Airways", "iata": "BY", "icao": "TOM"}]}]}