{"routes": [{"destination": {"icao": "HAAB", "iata": "ADD", "name": "Addis Ababa Bole", "shortName": "Bole", "municipalityName": "Addis Ababa", "location": {"lat": 8.97789, "lon": 38.7993}, "countryCode": "ET"}, "averageDailyFlights": 1.14, "operators": [{"name": "Ethiopian Airlines", "iata": "ET", "icao": "ETH"}]}, {"destination": {"icao": "FNLU", "iata": "LAD", "name": "Luanda Quatro de Fevereiro", "shortName": "Quatro de Fevereiro", "municipalityName": "Luanda", "location": {"lat": -8.858369, "lon": 13.2312}, "countryCode": "AO"}, "averageDailyFlights": 0.57, "operators": [{"name": "Air France", "iata": "AF", "icao": "AFR"}]}, {"destination": {"icao": "DIAP", "iata": "ABJ", "name": "Abidjan Port Bouet", "shortName": "Port Bouet", "municipalityName": "Abidjan", "location": {"lat": 5.26139, "lon": -3.92629}, "countryCode": "CI"}, "averageDailyFlights": 0.43, "operators": [{"name": "Air Cote D'Ivoire", "iata": "HF", "icao": "VRE"}]}, {"destination": {"icao": "LTFM", "iata": "IST", "name": "Istanbul ", "shortName": "Istanbul", "municipalityName": "Istanbul", "location": {"lat": 41.275276, "lon": 28.751944}, "countryCode": "TR"}, "averageDailyFlights": 0.43, "operators": [{"name": "Turkish Airlines", "iata": "TK", "icao": "THY"}]}, {"destination": {"icao": "FOOL", "iata": "LBV", "name": "Libreville Leon M'ba", "shortName": "Leon M'ba", "municipalityName": "Libreville", "location": {"lat": 0.4586, "lon": 9.41228}, "countryCode": "GA"}, "averageDailyFlights": 0.43, "operators": [{"name": "Afrijet", "iata": "J7", "icao": "ABS"}]}, {"destination": {"icao": "FOOG", "iata": "POG", "name": "Port Gentil ", "shortName": "Port Gentil", "municipalityName": "Port Gentil", "location": {"lat": -0.711739, "lon": 8.75438}, "countryCode": "GA"}, "averageDailyFlights": 0.43, "operators": [{"name": "Equaflight Service", "iata": "E7", "icao": "EKA"}]}, {"destination": {"icao": "FCBB", "iata": "BZV", "name": "Brazzaville Maya-Maya", "shortName": "Maya-Maya", "municipalityName": "Brazzaville", "location": {"lat": -4.251699, "lon": 15.253}, "countryCode": "CG"}, "averageDailyFlights": 0.29, "operators": [{"name": "Mauritania Airlines International", "iata": "L6", "icao": "MAI"}]}, {"destination": {"icao": "FZAA", "iata": "FIH", "name": "Kinshasa Ndjili", "shortName": "Ndjili", "municipalityName": "Kinshasa", "location": {"lat": -4.385749, "lon": 15.4446}, "countryCode": "CD"}, "averageDailyFlights": 0.14, "operators": [{"name": "Afrijet", "iata": "J7", "icao": "ABS"}]}]}