{"routes": [{"destination": {"icao": "KDFW", "iata": "DFW", "name": "Dallas-Fort Worth ", "shortName": "Dallas-Fort Worth", "municipalityName": "Dallas-Fort Worth", "location": {"lat": 32.8968, "lon": -97.038}, "countryCode": "US"}, "averageDailyFlights": 4.16, "operators": [{"name": "American Airlines", "iata": "AA", "icao": "AAL"}, {"name": "Envoy Air", "iata": "MQ", "icao": "ENY"}]}, {"destination": {"icao": "KTYR", "iata": "TYR", "name": "Tyler Pounds Regional", "shortName": "Pounds Regional", "municipalityName": "Tyler", "location": {"lat": 32.3541, "lon": -95.4024}, "countryCode": "US"}, "averageDailyFlights": 0.57, "operators": [{"name": "CXK"}, {"name": "TRF"}]}, {"destination": {"icao": "KAUS", "iata": "AUS", "name": "Austin Bergstrom", "shortName": "Bergstrom", "municipalityName": "Austin", "location": {"lat": 30.194498, "lon": -97.6699}, "countryCode": "US"}, "averageDailyFlights": 0.29, "operators": [{"name": "TEXDOT"}, {"name": "Southwest Airlines", "iata": "WN", "icao": "SWA"}]}, {"destination": {"icao": "KEGE", "iata": "EGE", "name": "Eagle County Regional", "shortName": "County Regional", "municipalityName": "Eagle", "location": {"lat": 39.6426, "lon": -106.918}, "countryCode": "US"}, "averageDailyFlights": 0.29, "operators": [{"name": "JRE"}]}, {"destination": {"icao": "KBTR", "iata": "BTR", "name": "Baton Rouge Ryan Field", "shortName": "Ryan Field", "municipalityName": "Baton Rouge", "location": {"lat": 30.5332, "lon": -91.1496}, "countryCode": "US"}, "averageDailyFlights": 0.14, "operators": [{"name": "NetJets Aviation", "iata": "1I", "icao": "EJA"}]}, {"destination": {"icao": "KDAL", "iata": "DAL", "name": "Dallas Love Field", "shortName": "Love Field", "municipalityName": "Dallas", "location": {"lat": 32.8471, "lon": -96.8518}, "countryCode": "US"}, "averageDailyFlights": 0.14, "operators": [{"name": "NetJets Aviation", "iata": "1I", "icao": "EJA"}]}, {"destination": {"icao": "KSGR", "iata": "SGR", "name": "Houston Sugar Land Regional", "shortName": "Sugar Land Regional", "municipalityName": "Houston", "location": {"lat": 29.6223, "lon": -95.6565}, "countryCode": "US"}, "averageDailyFlights": 0.14, "operators": [{"name": "IJA"}]}, {"destination": {"icao": "KABQ", "iata": "ABQ", "name": "The Duke City Albuquerque  Sunport", "shortName": "Albuquerque  Sunport", "municipalityName": "The Duke City", "location": {"lat": 35.0402, "lon": -106.609}, "countryCode": "US"}, "averageDailyFlights": 0.14, "operators": [{"name": "Sun Country Airlines", "iata": "SY", "icao": "SCX"}]}, {"destination": {"icao": "KVRB", "iata": "VRB", "name": "Vero Beach Municipal", "shortName": "Municipal", "municipalityName": "Vero Beach", "location": {"lat": 27.6556, "lon": -80.4179}, "countryCode": "US"}, "averageDailyFlights": 0.14, "operators": [{"name": "NetJets Aviation", "iata": "1I", "icao": "EJA"}]}, {"destination": {"icao": "KACT", "iata": "ACT", "name": "Waco Regional", "shortName": "Regional", "municipalityName": "Waco", "location": {"lat": 31.6113, "lon": -97.2305}, "countryCode": "US"}, "averageDailyFlights": 0.14, "operators": [{"name": "RMT"}]}]}