{"routes": [{"destination": {"icao": "KDFW", "iata": "DFW", "name": "Dallas-Fort Worth ", "shortName": "Dallas-Fort Worth", "municipalityName": "Dallas-Fort Worth", "location": {"lat": 32.8968, "lon": -97.038}, "countryCode": "US"}, "averageDailyFlights": 3.43, "operators": [{"name": "American Airlines", "iata": "AA", "icao": "AAL"}]}, {"destination": {"icao": "KPDK", "iata": "PDK", "name": "Atlanta DeKalb Peachtree", "shortName": "DeKalb Peachtree", "municipalityName": "Atlanta", "location": {"lat": 33.8756, "lon": -84.302}, "countryCode": "US"}, "averageDailyFlights": 1.16, "operators": [{"name": "JTZ"}, {"name": "Delta Air Lines", "iata": "DL", "icao": "DAL"}]}, {"destination": {"icao": "KHRL", "iata": "HRL", "name": "Harlingen Valley", "shortName": "Valley", "municipalityName": "Harlingen", "location": {"lat": 26.2285, "lon": -97.6544}, "countryCode": "US"}, "averageDailyFlights": 0.86, "operators": [{"name": "Swift Air", "iata": "WQ", "icao": "SWQ"}]}, {"destination": {"icao": "KIWA", "iata": "AZA", "name": "Phoenix -Mesa-Gateway", "shortName": "-Mesa-Gateway", "municipalityName": "Phoenix", "location": {"lat": 33.3078, "lon": -111.655}, "countryCode": "US"}, "averageDailyFlights": 0.57, "operators": [{"name": "Swift Air", "iata": "WQ", "icao": "SWQ"}]}, {"destination": {"icao": "MHLM", "iata": "SAP", "name": "La Mesa Ram\u00f3n Villeda Morales", "shortName": "Ram\u00f3n Villeda Morales", "municipalityName": "La Mesa", "location": {"lat": 15.452599, "lon": -87.9236}, "countryCode": "HN"}, "averageDailyFlights": 0.43, "operators": [{"name": "Swift Air", "iata": "WQ", "icao": "SWQ"}]}, {"destination": {"icao": "KMSY", "iata": "MSY", "name": "New Orleans Louis Armstrong", "shortName": "Louis Armstrong", "municipalityName": "New Orleans", "location": {"lat": 29.9934, "lon": -90.258}, "countryCode": "US"}, "averageDailyFlights": 0.43, "operators": [{"name": "JTZ"}, {"name": "NetJets Aviation", "iata": "1I", "icao": "EJA"}]}, {"destination": {"icao": "KSAT", "iata": "SAT", "name": "San Antonio ", "shortName": "San Antonio", "municipalityName": "San Antonio", "location": {"lat": 29.5337, "lon": -98.4698}, "countryCode": "US"}, "averageDailyFlights": 0.43, "operators": [{"name": "Swift Air", "iata": "WQ", "icao": "SWQ"}]}, {"destination": {"icao": "KNYL", "iata": "YUM", "name": "Yuma ", "shortName": "Yuma", "municipalityName": "Yuma", "location": {"lat": 32.6566, "lon": -114.606}, "countryCode": "US"}, "averageDailyFlights": 0.43, "operators": [{"name": "Swift Air", "iata": "WQ", "icao": "SWQ"}]}, {"destination": {"icao": "SKBO", "iata": "BOG", "name": "Bogot\u00e1 El Dorado", "shortName": "El Dorado", "municipalityName": "Bogot\u00e1", "location": {"lat": 4.70159, "lon": -74.1469}, "countryCode": "CO"}, "averageDailyFlights": 0.29, "operators": [{"name": "Swift Air", "iata": "WQ", "icao": "SWQ"}]}, {"destination": {"icao": "KLUK", "iata": "LUK", "name": "Cincinnati Municipal  Lunken Field", "shortName": "Municipal  Lunken Field", "municipalityName": "Cincinnati", "location": {"lat": 39.1033, "lon": -84.4186}, "countryCode": "US"}, "averageDailyFlights": 0.29, "operators": [{"name": "Nordwind Airlines", "iata": "N4", "icao": "NWS"}]}, {"destination": {"icao": "MGGT", "iata": "GUA", "name": "Guatemala City La Aurora", "shortName": "La Aurora", "municipalityName": "Guatemala City", "location": {"lat": 14.583299, "lon": -90.5275}, "countryCode": "GT"}, "averageDailyFlights": 0.29, "operators": [{"name": "Swift Air", "iata": "WQ", "icao": "SWQ"}]}, {"destination": {"icao": "KHBG", "iata": "HBG", "name": "Hattiesburg Bobby L Chain Municipal", "shortName": "Bobby L Chain Municipal", "municipalityName": "Hattiesburg", "location": {"lat": 31.2648, "lon": -89.2528}, "countryCode": "US"}, "averageDailyFlights": 0.29, "operators": [{"name": "JTZ"}]}, {"destination": {"icao": "KBFI", "iata": "BFI", "name": "Seattle Boeing Field King County", "shortName": "Boeing Field King County", "municipalityName": "Seattle", "location": {"lat": 47.53, "lon": -122.302}, "countryCode": "US"}, "averageDailyFlights": 0.29, "operators": [{"name": "Swift Air", "iata": "WQ", "icao": "SWQ"}]}, {"destination": {"icao": "KBED", "iata": "BED", "name": "Bedford Laurence G Hanscom Field", "shortName": "Laurence G Hanscom Field", "municipalityName": "Bedford", "location": {"lat": 42.47, "lon": -71.289}, "countryCode": "US"}, "averageDailyFlights": 0.14, "operators": [{"name": "Swift Air", "iata": "WQ", "icao": "SWQ"}]}, {"destination": {"icao": "KGSO", "iata": "GSO", "name": "Greensboro Piedmont Triad", "shortName": "Piedmont Triad", "municipalityName": "Greensboro", "location": {"lat": 36.0978, "lon": -79.9373}, "countryCode": "US"}, "averageDailyFlights": 0.14, "operators": [{"name": "Swift Air", "iata": "WQ", "icao": "SWQ"}]}, {"destination": {"icao": "KIAH", "iata": "IAH", "name": "Houston George Bush", "shortName": "George Bush", "municipalityName": "Houston", "location": {"lat": 29.9844, "lon": -95.3414}, "countryCode": "US"}, "averageDailyFlights": 0.14, "operators": [{"name": "NetJets Aviation", "iata": "1I", "icao": "EJA"}]}, {"destination": {"icao": "KMSP", "iata": "MSP", "name": "Minneapolis Wold-Chamberlain", "shortName": "Wold-Chamberlain", "municipalityName": "Minneapolis", "location": {"lat": 44.882, "lon": -93.2218}, "countryCode": "US"}, "averageDailyFlights": 0.14, "operators": [{"name": "Swift Air", "iata": "WQ", "icao": "SWQ"}]}, {"destination": {"icao": "MTPP", "iata": "PAP", "name": "Port-au-Prince Toussaint Louverture", "shortName": "Toussaint Louverture", "municipalityName": "Port-au-Prince", "location": {"lat": 18.58, "lon": -72.2925}, "countryCode": "HT"}, "averageDailyFlights": 0.14, "operators": [{"name": "Swift Air", "iata": "WQ", "icao": "SWQ"}]}, {"destination": {"icao": "KRSN", "iata": "RSN", "name": "Ruston Regional", "shortName": "Regional", "municipalityName": "Ruston", "location": {"lat": 32.5144, "lon": -92.5917}, "countryCode": "US"}, "averageDailyFlights": 0.14, "operators": [{"name": "JTZ"}]}, {"destination": {"icao": "KSAN", "iata": "SAN", "name": "San Diego ", "shortName": "San Diego", "municipalityName": "San Diego", "location": {"lat": 32.7336, "lon": -117.19}, "countryCode": "US"}, "averageDailyFlights": 0.14, "operators": [{"name": "Swift Air", "iata": "WQ", "icao": "SWQ"}]}, {"destination": {"icao": "MDSD", "iata": "SDQ", "name": "Santo Domingo City Las Am\u00e9ricas", "shortName": "Las Am\u00e9ricas", "municipalityName": "Santo Domingo City", "location": {"lat": 18.4297, "lon": -69.6689}, "countryCode": "DO"}, "averageDailyFlights": 0.14, "operators": [{"name": "Swift Air", "iata": "WQ", "icao": "SWQ"}]}]}