{"routes": [{"destination": {"icao": "KSJC", "iata": "SJC", "name": "San Jose Norman Y. Mineta", "shortName": "Norman Y. Mineta", "municipalityName": "San Jose", "location": {"lat": 37.3626, "lon": -121.929}, "countryCode": "US"}, "averageDailyFlights": 0.86, "operators": [{"name": "NetJets Aviation", "iata": "1I", "icao": "EJA"}, {"name": "RGY"}]}, {"destination": {"icao": "KVNY", "iata": "VNY", "name": "Van Nuys ", "shortName": "Van Nuys", "municipalityName": "Van Nuys", "location": {"lat": 34.2098, "lon": -118.49}, "countryCode": "US"}, "averageDailyFlights": 0.86, "operators": [{"name": "TWY"}, {"name": "GAJ"}, {"name": "LXJ"}, {"name": "PEG"}]}, {"destination": {"icao": "KGYR", "iata": "GYR", "name": "Goodyear Phoenix", "shortName": "Phoenix", "municipalityName": "Goodyear", "location": {"lat": 33.4225, "lon": -112.376}, "countryCode": "US"}, "averageDailyFlights": 0.71, "operators": [{"name": "VECA", "iata": "VU", "icao": "VAR"}]}, {"destination": {"icao": "KMRY", "iata": "MRY", "name": "Monterey Peninsula", "shortName": "Peninsula", "municipalityName": "Monterey", "location": {"lat": 36.587, "lon": -121.843}, "countryCode": "US"}, "averageDailyFlights": 0.71, "operators": [{"name": "WSP"}, {"name": "SCN"}, {"name": "NetJets Aviation", "iata": "1I", "icao": "EJA"}]}, {"destination": {"icao": "KFAT", "iata": "FAT", "name": "Fresno Yosemite", "shortName": "Yosemite", "municipalityName": "Fresno", "location": {"lat": 36.7762, "lon": -119.718}, "countryCode": "US"}, "averageDailyFlights": 0.57, "operators": [{"name": "Vuela El Salvador", "iata": "N3", "icao": "VOS"}, {"name": "NetJets Aviation", "iata": "1I", "icao": "EJA"}, {"name": "TOG"}]}, {"destination": {"icao": "KOAK", "iata": "OAK", "name": "Oakland Metropolitan", "shortName": "Metropolitan", "municipalityName": "Oakland", "location": {"lat": 37.7213, "lon": -122.221}, "countryCode": "US"}, "averageDailyFlights": 0.57, "operators": [{"name": "NetJets Aviation", "iata": "1I", "icao": "EJA"}, {"name": "TWY"}, {"name": "LXJ"}]}, {"destination": {"icao": "KPHX", "iata": "PHX", "name": "Phoenix Sky Harbor", "shortName": "Sky Harbor", "municipalityName": "Phoenix", "location": {"lat": 33.4343, "lon": -112.012}, "countryCode": "US"}, "averageDailyFlights": 0.57, "operators": [{"name": "NetJets Aviation", "iata": "1I", "icao": "EJA"}, {"name": "WSP"}]}, {"destination": {"icao": "KSLC", "iata": "SLC", "name": "Salt Lake City ", "shortName": "Salt Lake City", "municipalityName": "Salt Lake City", "location": {"lat": 40.7884, "lon": -111.978}, "countryCode": "US"}, "averageDailyFlights": 0.57, "operators": [{"name": "WDY"}, {"name": "DJR"}, {"name": "Vuela El Salvador", "iata": "N3", "icao": "VOS"}]}, {"destination": {"icao": "KSBA", "iata": "SBA", "name": "Santa Barbara Municipal", "shortName": "Municipal", "municipalityName": "Santa Barbara", "location": {"lat": 34.4262, "lon": -119.84}, "countryCode": "US"}, "averageDailyFlights": 0.57, "operators": [{"name": "WSP"}, {"name": "NetJets Aviation", "iata": "1I", "icao": "EJA"}]}, {"destination": {"icao": "KTEB", "iata": "TEB", "name": "Teterboro ", "shortName": "Teterboro", "municipalityName": "Teterboro", "location": {"lat": 40.8501, "lon": -74.0608}, "countryCode": "US"}, "averageDailyFlights": 0.57, "operators": [{"name": "XOJ"}, {"name": "TWY"}]}, {"destination": {"icao": "KIPL", "iata": "IPL", "name": "Imperial County", "shortName": "County", "municipalityName": "Imperial", "location": {"lat": 32.8342, "lon": -115.579}, "countryCode": "US"}, "averageDailyFlights": 0.43, "operators": [{"name": "CXK"}]}, {"destination": {"icao": "KHND", "iata": "HSH", "name": "Las Vegas Henderson Executive", "shortName": "Henderson Executive", "municipalityName": "Las Vegas", "location": {"lat": 35.9728, "lon": -115.134}, "countryCode": "US"}, "averageDailyFlights": 0.43, "operators": [{"name": "GAJ"}, {"name": "WSP"}]}, {"destination": {"icao": "KLAS", "iata": "LAS", "name": "Las Vegas McCarran", "shortName": "McCarran", "municipalityName": "Las Vegas", "location": {"lat": 36.0801, "lon": -115.152}, "countryCode": "US"}, "averageDailyFlights": 0.43, "operators": [{"name": "NetJets Aviation", "iata": "1I", "icao": "EJA"}, {"name": "XSM"}]}, {"destination": {"icao": "KLGB", "iata": "LGB", "name": "Long Beach Daugherty Field/", "shortName": "Daugherty Field/", "municipalityName": "Long Beach", "location": {"lat": 33.8177, "lon": -118.152}, "countryCode": "US"}, "averageDailyFlights": 0.43, "operators": [{"name": "CXK"}]}, {"destination": {"icao": "KPRC", "iata": "PRC", "name": "Prescott Ernest A. Love Field", "shortName": "Ernest A. Love Field", "municipalityName": "Prescott", "location": {"lat": 34.6545, "lon": -112.42}, "countryCode": "US"}, "averageDailyFlights": 0.43, "operators": [{"name": "National Airlines", "iata": "N8", "icao": "NCR"}, {"name": "ERU"}]}, {"destination": {"icao": "KRNO", "iata": "RNO", "name": "Reno Tahoe", "shortName": "Tahoe", "municipalityName": "Reno", "location": {"lat": 39.4991, "lon": -119.768}, "countryCode": "US"}, "averageDailyFlights": 0.43, "operators": [{"name": "RGY"}]}, {"destination": {"icao": "KRAL", "iata": "RAL", "name": "Riverside Municipal", "shortName": "Municipal", "municipalityName": "Riverside", "location": {"lat": 33.9519, "lon": -117.445}, "countryCode": "US"}, "averageDailyFlights": 0.43, "operators": [{"name": "CXK"}]}, {"destination": {"icao": "KSMO", "iata": "SMO", "name": "Santa Monica Municipal", "shortName": "Municipal", "municipalityName": "Santa Monica", "location": {"lat": 34.0158, "lon": -118.451}, "countryCode": "US"}, "averageDailyFlights": 0.43, "operators": [{"name": "WSP"}]}, {"destination": {"icao": "KSDL", "iata": "SCF", "name": "Scottsdale ", "shortName": "Scottsdale", "municipalityName": "Scottsdale", "location": {"lat": 33.6229, "lon": -111.911}, "countryCode": "US"}, "averageDailyFlights": 0.43, "operators": [{"name": "NetJets Aviation", "iata": "1I", "icao": "EJA"}]}, {"destination": {"icao": "KMDW", "iata": "MDW", "name": "Chicago Midway", "shortName": "Midway", "municipalityName": "Chicago", "location": {"lat": 41.786, "lon": -87.7524}, "countryCode": "US"}, "averageDailyFlights": 0.29, "operators": [{"name": "National Airlines", "iata": "N8", "icao": "NCR"}]}, {"destination": {"icao": "KCOS", "iata": "COS", "name": "Colorado Springs City of  Municipal", "shortName": "City of  Municipal", "municipalityName": "Colorado Springs", "location": {"lat": 38.8058, "lon": -104.701}, "countryCode": "US"}, "averageDailyFlights": 0.29, "operators": [{"name": "NetJets Aviation", "iata": "1I", "icao": "EJA"}]}, {"destination": {"icao": "KJAC", "iata": "JAC", "name": "Jackson Hole", "shortName": "Hole", "municipalityName": "Jackson", "location": {"lat": 43.6073, "lon": -110.738}, "countryCode": "US"}, "averageDailyFlights": 0.29, "operators": [{"name": "JRE"}, {"name": "FTH"}]}, {"destination": {"icao": "CYLW", "iata": "YLW", "name": "Kelowna ", "shortName": "Kelowna", "municipalityName": "Kelowna", "location": {"lat": 49.9561, "lon": -119.378}, "countryCode": "CA"}, "averageDailyFlights": 0.29, "operators": [{"name": "RGY"}]}, {"destination": {"icao": "KAPC", "iata": "APC", "name": "Napa County", "shortName": "County", "municipalityName": "Napa", "location": {"lat": 38.2132, "lon": -122.281}, "countryCode": "US"}, "averageDailyFlights": 0.29, "operators": [{"name": "LXJ"}]}, {"destination": {"icao": "KIWA", "iata": "AZA", "name": "Phoenix -Mesa-Gateway", "shortName": "-Mesa-Gateway", "municipalityName": "Phoenix", "location": {"lat": 33.3078, "lon": -111.655}, "countryCode": "US"}, "averageDailyFlights": 0.29, "operators": [{"name": "FTH"}, {"name": "TIV"}]}, {"destination": {"icao": "KSAN", "iata": "SAN", "name": "San Diego ", "shortName": "San Diego", "municipalityName": "San Diego", "location": {"lat": 32.7336, "lon": -117.19}, "countryCode": "US"}, "averageDailyFlights": 0.29, "operators": [{"name": "NetJets Aviation", "iata": "1I", "icao": "EJA"}, {"name": "OPT"}]}, {"destination": {"icao": "KSBP", "iata": "SBP", "name": "San Luis Obispo San Luis County Regional", "shortName": "San Luis County Regional", "municipalityName": "San Luis Obispo", "location": {"lat": 35.2368, "lon": -120.642}, "countryCode": "US"}, "averageDailyFlights": 0.29, "operators": [{"name": "CXK"}]}, {"destination": {"icao": "KSNA", "iata": "SNA", "name": "Santa Ana John Wayne -Orange County", "shortName": "John Wayne -Orange County", "municipalityName": "Santa Ana", "location": {"lat": 33.6757, "lon": -117.868}, "countryCode": "US"}, "averageDailyFlights": 0.29, "operators": [{"name": "NetJets Aviation", "iata": "1I", "icao": "EJA"}]}, {"destination": {"icao": "KTUL", "iata": "TUL", "name": "Tulsa ", "shortName": "Tulsa", "municipalityName": "Tulsa", "location": {"lat": 36.1984, "lon": -95.8881}, "countryCode": "US"}, "averageDailyFlights": 0.29, "operators": [{"name": "XLJ"}]}, {"destination": {"icao": "KBED", "iata": "BED", "name": "Bedford Laurence G Hanscom Field", "shortName": "Laurence G Hanscom Field", "municipalityName": "Bedford", "location": {"lat": 42.47, "lon": -71.289}, "countryCode": "US"}, "averageDailyFlights": 0.14, "operators": [{"name": "NetJets Aviation", "iata": "1I", "icao": "EJA"}]}, {"destination": {"icao": "KBOI", "iata": "BOI", "name": "Boise Gowen field", "shortName": "Gowen field", "municipalityName": "Boise", "location": {"lat": 43.5644, "lon": -116.223}, "countryCode": "US"}, "averageDailyFlights": 0.14, "operators": [{"name": "NetJets Aviation", "iata": "1I", "icao": "EJA"}]}, {"destination": {"icao": "KBVU", "iata": "BLD", "name": "Boulder City Municipal", "shortName": "Municipal", "municipalityName": "Boulder City", "location": {"lat": 35.9475, "lon": -114.861}, "countryCode": "US"}, "averageDailyFlights": 0.14, "operators": [{"name": "CNS"}]}, {"destination": {"icao": "KAPA", "iata": "APA", "name": "Denver Centennial", "shortName": "Centennial", "municipalityName": "Denver", "location": {"lat": 39.5701, "lon": -104.849}, "countryCode": "US"}, "averageDailyFlights": 0.14, "operators": [{"name": "NetJets Aviation", "iata": "1I", "icao": "EJA"}]}, {"destination": {"icao": "KIAD", "iata": "IAD", "name": "District of Columbia Washington Dulles", "shortName": "Washington Dulles", "municipalityName": "District of Columbia", "location": {"lat": 38.9445, "lon": -77.4558}, "countryCode": "US"}, "averageDailyFlights": 0.14, "operators": [{"name": "NetJets Aviation", "iata": "1I", "icao": "EJA"}]}, {"destination": {"icao": "KDRO", "iata": "DRO", "name": "Durango La Plata County", "shortName": "La Plata County", "municipalityName": "Durango", "location": {"lat": 37.1515, "lon": -107.754}, "countryCode": "US"}, "averageDailyFlights": 0.14, "operators": [{"name": "XLJ"}]}, {"destination": {"icao": "KFLG", "iata": "FLG", "name": "Flagstaff Pulliam", "shortName": "Pulliam", "municipalityName": "Flagstaff", "location": {"lat": 35.1385, "lon": -111.671}, "countryCode": "US"}, "averageDailyFlights": 0.14, "operators": [{"name": "NetJets Aviation", "iata": "1I", "icao": "EJA"}]}, {"destination": {"icao": "KGCK", "iata": "GCK", "name": "Garden City Regional", "shortName": "Regional", "municipalityName": "Garden City", "location": {"lat": 37.9275, "lon": -100.724}, "countryCode": "US"}, "averageDailyFlights": 0.14, "operators": [{"name": "NWF"}]}, {"destination": {"icao": "KHOU", "iata": "HOU", "name": "Houston William P Hobby", "shortName": "William P Hobby", "municipalityName": "Houston", "location": {"lat": 29.6454, "lon": -95.2789}, "countryCode": "US"}, "averageDailyFlights": 0.14, "operators": [{"name": "NetJets Aviation", "iata": "1I", "icao": "EJA"}]}, {"destination": {"icao": "KERV", "iata": "ERV", "name": "Kerrville Municipal Louis Schreiner Field", "shortName": "Municipal Louis Schreiner Field", "municipalityName": "Kerrville", "location": {"lat": 29.9767, "lon": -99.0857}, "countryCode": "US"}, "averageDailyFlights": 0.14, "operators": [{"name": "FTH"}]}, {"destination": {"icao": "KLAX", "iata": "LAX", "name": "Los Angeles ", "shortName": "Los Angeles", "municipalityName": "Los Angeles", "location": {"lat": 33.9425, "lon": -118.408}, "countryCode": "US"}, "averageDailyFlights": 0.14, "operators": [{"name": "NetJets Aviation", "iata": "1I", "icao": "EJA"}]}, {"destination": {"icao": "KMMH", "iata": "MMH", "name": "Mammoth Lakes Mammoth Yosemite", "shortName": "Mammoth Yosemite", "municipalityName": "Mammoth Lakes", "location": {"lat": 37.6241, "lon": -118.838}, "countryCode": "US"}, "averageDailyFlights": 0.14, "operators": [{"name": "NetJets Aviation", "iata": "1I", "icao": "EJA"}]}, {"destination": {"icao": "KMFR", "iata": "MFR", "name": "Medford Rogue Valley", "shortName": "Rogue Valley", "municipalityName": "Medford", "location": {"lat": 42.3742, "lon": -122.873}, "countryCode": "US"}, "averageDailyFlights": 0.14, "operators": [{"name": "RGY"}]}, {"destination": {"icao": "KOMA", "iata": "OMA", "name": "Omaha Eppley Airfield", "shortName": "Eppley Airfield", "municipalityName": "Omaha", "location": {"lat": 41.3032, "lon": -95.8941}, "countryCode": "US"}, "averageDailyFlights": 0.14, "operators": [{"name": "NetJets Aviation", "iata": "1I", "icao": "EJA"}]}, {"destination": {"icao": "KOXR", "iata": "OXR", "name": "Oxnard ", "shortName": "Oxnard", "municipalityName": "Oxnard", "location": {"lat": 34.2008, "lon": -119.207}, "countryCode": "US"}, "averageDailyFlights": 0.14, "operators": [{"name": "CNS"}]}, {"destination": {"icao": "KPGA", "iata": "PGA", "name": "Page Municipal", "shortName": "Municipal", "municipalityName": "Page", "location": {"lat": 36.9261, "lon": -111.448}, "countryCode": "US"}, "averageDailyFlights": 0.14, "operators": [{"name": "WSP"}]}, {"destination": {"icao": "KPSP", "iata": "PSP", "name": "Palm Springs ", "shortName": "Palm Springs", "municipalityName": "Palm Springs", "location": {"lat": 33.8297, "lon": -116.507}, "countryCode": "US"}, "averageDailyFlights": 0.14, "operators": [{"name": "Kabo Air", "iata": "N9", "icao": "QNK"}]}, {"destination": {"icao": "KTRM", "iata": "TRM", "name": "Palm Springs Jacqueline Cochran Regional", "shortName": "Jacqueline Cochran Regional", "municipalityName": "Palm Springs", "location": {"lat": 33.6267, "lon": -116.16}, "countryCode": "US"}, "averageDailyFlights": 0.14, "operators": [{"name": "CXK"}]}, {"destination": {"icao": "KDVT", "iata": "DVT", "name": "Phoenix Deer Valley", "shortName": "Deer Valley", "municipalityName": "Phoenix", "location": {"lat": 33.6883, "lon": -112.083}, "countryCode": "US"}, "averageDailyFlights": 0.14, "operators": [{"name": "NDU"}]}, {"destination": {"icao": "KPUB", "iata": "PUB", "name": "Pueblo Memorial", "shortName": "Memorial", "municipalityName": "Pueblo", "location": {"lat": 38.2891, "lon": -104.497}, "countryCode": "US"}, "averageDailyFlights": 0.14, "operators": [{"name": "NWF"}]}, {"destination": {"icao": "KRDD", "iata": "RDD", "name": "Redding Municipal", "shortName": "Municipal", "municipalityName": "Redding", "location": {"lat": 40.509, "lon": -122.293}, "countryCode": "US"}, "averageDailyFlights": 0.14, "operators": [{"name": "DJR"}]}, {"destination": {"icao": "KRDM", "iata": "RDM", "name": "Redmond Roberts Field", "shortName": "Roberts Field", "municipalityName": "Redmond", "location": {"lat": 44.2541, "lon": -121.15}, "countryCode": "US"}, "averageDailyFlights": 0.14, "operators": [{"name": "TFF"}]}, {"destination": {"icao": "KSAT", "iata": "SAT", "name": "San Antonio ", "shortName": "San Antonio", "municipalityName": "San Antonio", "location": {"lat": 29.5337, "lon": -98.4698}, "countryCode": "US"}, "averageDailyFlights": 0.14, "operators": [{"name": "XOJ"}]}, {"destination": {"icao": "KSEE", "iata": "SEE", "name": "San Diego/El Cajon Gillespie Field", "shortName": "Gillespie Field", "municipalityName": "San Diego/El Cajon", "location": {"lat": 32.8262, "lon": -116.972}, "countryCode": "US"}, "averageDailyFlights": 0.14, "operators": [{"name": "My Jet Xpress Airlines", "iata": "N7", "icao": "NEP"}]}, {"destination": {"icao": "KSFO", "iata": "SFO", "name": "San Francisco ", "shortName": "San Francisco", "municipalityName": "San Francisco", "location": {"lat": 37.619, "lon": -122.375}, "countryCode": "US"}, "averageDailyFlights": 0.14, "operators": [{"name": "YEL"}]}, {"destination": {"icao": "KSHR", "iata": "SHR", "name": "Sheridan County", "shortName": "County", "municipalityName": "Sheridan", "location": {"lat": 44.7692, "lon": -106.98}, "countryCode": "US"}, "averageDailyFlights": 0.14, "operators": [{"name": "NetJets Aviation", "iata": "1I", "icao": "EJA"}]}, {"destination": {"icao": "KSCK", "iata": "SCK", "name": "Stockton Metropolitan", "shortName": "Metropolitan", "municipalityName": "Stockton", "location": {"lat": 37.8942, "lon": -121.238}, "countryCode": "US"}, "averageDailyFlights": 0.14, "operators": [{"name": "GAJ"}]}, {"destination": {"icao": "KTEX", "iata": "TEX", "name": "Telluride Regional", "shortName": "Regional", "municipalityName": "Telluride", "location": {"lat": 37.9538, "lon": -107.908}, "countryCode": "US"}, "averageDailyFlights": 0.14, "operators": [{"name": "JTZ"}]}, {"destination": {"icao": "KTUS", "iata": "TUS", "name": "Tucson ", "shortName": "Tucson", "municipalityName": "Tucson", "location": {"lat": 32.1161, "lon": -110.941}, "countryCode": "US"}, "averageDailyFlights": 0.14, "operators": [{"name": "NetJets Aviation", "iata": "1I", "icao": "EJA"}]}, {"destination": {"icao": "KICT", "iata": "ICT", "name": "Wichita Mid Continent", "shortName": "Mid Continent", "municipalityName": "Wichita", "location": {"lat": 37.6499, "lon": -97.4331}, "countryCode": "US"}, "averageDailyFlights": 0.14, "operators": [{"name": "FTH"}]}]}