{"routes": [{"destination": {"icao": "KMSP", "iata": "MSP", "name": "Minneapolis Wold-Chamberlain", "shortName": "Wold-Chamberlain", "municipalityName": "Minneapolis", "location": {"lat": 44.882, "lon": -93.2218}, "countryCode": "US"}, "averageDailyFlights": 5.29, "operators": [{"name": "Bemidji Aviation", "iata": "CH", "icao": "BMJ"}, {"name": "Delta Air Lines", "iata": "DL", "icao": "DAL"}, {"name": "MTN"}, {"name": "NetJets Aviation", "iata": "1I", "icao": "EJA"}]}, {"destination": {"icao": "KORD", "iata": "ORD", "name": "Chicago O'Hare", "shortName": "O'Hare", "municipalityName": "Chicago", "location": {"lat": 41.9786, "lon": -87.9048}, "countryCode": "US"}, "averageDailyFlights": 2.57, "operators": [{"name": "United Airlines", "iata": "UA", "icao": "UAL"}]}, {"destination": {"icao": "KDLH", "iata": "DLH", "name": "Duluth ", "shortName": "Duluth", "municipalityName": "Duluth", "location": {"lat": 46.8421, "lon": -92.1936}, "countryCode": "US"}, "averageDailyFlights": 0.57, "operators": [{"name": "N2"}]}, {"destination": {"icao": "KGFK", "iata": "GFK", "name": "Grand Forks ", "shortName": "Grand Forks", "municipalityName": "Grand Forks", "location": {"lat": 47.9493, "lon": -97.1761}, "countryCode": "US"}, "averageDailyFlights": 0.57, "operators": [{"name": "NDU"}, {"name": "N2"}]}, {"destination": {"icao": "KATW", "iata": "ATW", "name": "Appleton ", "shortName": "Appleton", "municipalityName": "Appleton", "location": {"lat": 44.2581, "lon": -88.5191}, "countryCode": "US"}, "averageDailyFlights": 0.43, "operators": [{"name": "NTW"}]}, {"destination": {"icao": "KFWA", "iata": "FWA", "name": "Fort Wayne ", "shortName": "Fort Wayne", "municipalityName": "Fort Wayne", "location": {"lat": 40.9785, "lon": -85.1951}, "countryCode": "US"}, "averageDailyFlights": 0.43, "operators": [{"name": "NWF"}]}, {"destination": {"icao": "KBGR", "iata": "BGR", "name": "Bangor ", "shortName": "Bangor", "municipalityName": "Bangor", "location": {"lat": 44.8074, "lon": -68.8281}, "countryCode": "US"}, "averageDailyFlights": 0.29, "operators": [{"name": "BGR"}]}, {"destination": {"icao": "KAPA", "iata": "APA", "name": "Denver Centennial", "shortName": "Centennial", "municipalityName": "Denver", "location": {"lat": 39.5701, "lon": -104.849}, "countryCode": "US"}, "averageDailyFlights": 0.29, "operators": [{"name": "Libyan Airlines", "iata": "LN", "icao": "LAA"}]}, {"destination": {"icao": "KEAU", "iata": "EAU", "name": "Eau Claire Chippewa Valley Regional", "shortName": "Chippewa Valley Regional", "municipalityName": "Eau Claire", "location": {"lat": 44.8658, "lon": -91.4843}, "countryCode": "US"}, "averageDailyFlights": 0.29, "operators": [{"name": "MVK"}]}, {"destination": {"icao": "KGTF", "iata": "GTF", "name": "Great Falls ", "shortName": "Great Falls", "municipalityName": "Great Falls", "location": {"lat": 47.482, "lon": -111.371}, "countryCode": "US"}, "averageDailyFlights": 0.29, "operators": [{"name": "TMB"}]}, {"destination": {"icao": "KOWD", "iata": "OWD", "name": "Norwood Memorial", "shortName": "Memorial", "municipalityName": "Norwood", "location": {"lat": 42.1905, "lon": -71.1729}, "countryCode": "US"}, "averageDailyFlights": 0.29, "operators": [{"name": "NetJets Aviation", "iata": "1I", "icao": "EJA"}]}, {"destination": {"icao": "CYAM", "iata": "YAM", "name": "Sault Ste Marie ", "shortName": "Sault Ste Marie", "municipalityName": "Sault Ste Marie", "location": {"lat": 46.485, "lon": -84.5094}, "countryCode": "CA"}, "averageDailyFlights": 0.29, "operators": [{"name": "BGR"}]}, {"destination": {"icao": "KCNM", "iata": "CNM", "name": "Carlsbad Cavern City Air Terminal", "shortName": "Cavern City Air Terminal", "municipalityName": "Carlsbad", "location": {"lat": 32.3375, "lon": -104.263}, "countryCode": "US"}, "averageDailyFlights": 0.14, "operators": [{"name": "NTW"}]}, {"destination": {"icao": "KMDW", "iata": "MDW", "name": "Chicago Midway", "shortName": "Midway", "municipalityName": "Chicago", "location": {"lat": 41.786, "lon": -87.7524}, "countryCode": "US"}, "averageDailyFlights": 0.14, "operators": [{"name": "WSP"}]}, {"destination": {"icao": "KCKN", "iata": "CKN", "name": "Crookston Municipal Kirkwood Field", "shortName": "Municipal Kirkwood Field", "municipalityName": "Crookston", "location": {"lat": 47.8417, "lon": -96.6216}, "countryCode": "US"}, "averageDailyFlights": 0.14, "operators": [{"name": "FLC"}]}, {"destination": {"icao": "KGLR", "iata": "GLR", "name": "Gaylord Regional", "shortName": "Regional", "municipalityName": "Gaylord", "location": {"lat": 45.0135, "lon": -84.7036}, "countryCode": "US"}, "averageDailyFlights": 0.14, "operators": [{"name": "NKT"}]}, {"destination": {"icao": "KHXD", "iata": "HHH", "name": "Hilton Head ", "shortName": "Hilton Head", "municipalityName": "Hilton Head", "location": {"lat": 32.2244, "lon": -80.6975}, "countryCode": "US"}, "averageDailyFlights": 0.14, "operators": [{"name": "N9WV"}]}, {"destination": {"icao": "KTYS", "iata": "TYS", "name": "Knoxville McGhee Tyson", "shortName": "McGhee Tyson", "municipalityName": "Knoxville", "location": {"lat": 35.811, "lon": -83.994}, "countryCode": "US"}, "averageDailyFlights": 0.14, "operators": [{"name": "N1"}]}, {"destination": {"icao": "KFCM", "iata": "FCM", "name": "Minneapolis Flying Cloud", "shortName": "Flying Cloud", "municipalityName": "Minneapolis", "location": {"lat": 44.8272, "lon": -93.4571}, "countryCode": "US"}, "averageDailyFlights": 0.14, "operators": [{"name": "MVK"}]}, {"destination": {"icao": "KMSO", "iata": "MSO", "name": "Missoula ", "shortName": "Missoula", "municipalityName": "Missoula", "location": {"lat": 46.9163, "lon": -114.091}, "countryCode": "US"}, "averageDailyFlights": 0.14, "operators": [{"name": "PHX"}]}, {"destination": {"icao": "KSTP", "iata": "STP", "name": "St Paul Downtown Holman Field", "shortName": "Downtown Holman Field", "municipalityName": "St Paul", "location": {"lat": 44.9345, "lon": -93.06}, "countryCode": "US"}, "averageDailyFlights": 0.14, "operators": [{"name": "MVK"}]}]}