{"routes": [{"destination": {"icao": "KDEN", "iata": "DEN", "name": "Denver ", "shortName": "Denver", "municipalityName": "Denver", "location": {"lat": 39.8617, "lon": -104.673}, "countryCode": "US"}, "averageDailyFlights": 5.71, "operators": [{"name": "United Airlines", "iata": "UA", "icao": "UAL"}, {"name": "Alpine Air Express", "iata": "5A", "icao": "AIP"}]}, {"destination": {"icao": "KDFW", "iata": "DFW", "name": "Dallas-Fort Worth ", "shortName": "Dallas-Fort Worth", "municipalityName": "Dallas-Fort Worth", "location": {"lat": 32.8968, "lon": -97.038}, "countryCode": "US"}, "averageDailyFlights": 5.23, "operators": [{"name": "American Airlines", "iata": "AA", "icao": "AAL"}, {"name": "SkyWest Airlines", "iata": "OO", "icao": "SKW"}]}, {"destination": {"icao": "KPHX", "iata": "PHX", "name": "Phoenix Sky Harbor", "shortName": "Sky Harbor", "municipalityName": "Phoenix", "location": {"lat": 33.4343, "lon": -112.012}, "countryCode": "US"}, "averageDailyFlights": 3.29, "operators": [{"name": "American Airlines", "iata": "AA", "icao": "AAL"}]}, {"destination": {"icao": "KABQ", "iata": "ABQ", "name": "The Duke City Albuquerque  Sunport", "shortName": "Albuquerque  Sunport", "municipalityName": "The Duke City", "location": {"lat": 35.0402, "lon": -106.609}, "countryCode": "US"}, "averageDailyFlights": 2.14, "operators": [{"name": "CSI"}, {"name": "HPN"}]}, {"destination": {"icao": "KAPA", "iata": "APA", "name": "Denver Centennial", "shortName": "Centennial", "municipalityName": "Denver", "location": {"lat": 39.5701, "lon": -104.849}, "countryCode": "US"}, "averageDailyFlights": 1.14, "operators": [{"name": "Libyan Airlines", "iata": "LN", "icao": "LAA"}, {"name": "WSP"}]}, {"destination": {"icao": "KGUC", "iata": "GUC", "name": "Gunnison Crested Butte Regional", "shortName": "Crested Butte Regional", "municipalityName": "Gunnison", "location": {"lat": 38.5339, "lon": -106.933}, "countryCode": "US"}, "averageDailyFlights": 0.86, "operators": [{"name": "Alpine Air Express", "iata": "5A", "icao": "AIP"}]}, {"destination": {"icao": "KCOS", "iata": "COS", "name": "Colorado Springs City of  Municipal", "shortName": "City of  Municipal", "municipalityName": "Colorado Springs", "location": {"lat": 38.8058, "lon": -104.701}, "countryCode": "US"}, "averageDailyFlights": 0.57, "operators": [{"name": "Libyan Airlines", "iata": "LN", "icao": "LAA"}]}, {"destination": {"icao": "KLAS", "iata": "LAS", "name": "Las Vegas McCarran", "shortName": "McCarran", "municipalityName": "Las Vegas", "location": {"lat": 36.0801, "lon": -115.152}, "countryCode": "US"}, "averageDailyFlights": 0.43, "operators": [{"name": "LXJ"}, {"name": "GAJ"}]}, {"destination": {"icao": "KASE", "iata": "ASE", "name": "Aspen Sardy Field", "shortName": "Sardy Field", "municipalityName": "Aspen", "location": {"lat": 39.2232, "lon": -106.869}, "countryCode": "US"}, "averageDailyFlights": 0.29, "operators": [{"name": "NetJets Aviation", "iata": "1I", "icao": "EJA"}, {"name": "Libyan Airlines", "iata": "LN", "icao": "LAA"}]}, {"destination": {"icao": "KPSO", "iata": "PGO", "name": "Pagosa Springs Stevens Field", "shortName": "Stevens Field", "municipalityName": "Pagosa Springs", "location": {"lat": 37.2863, "lon": -107.056}, "countryCode": "US"}, "averageDailyFlights": 0.29, "operators": [{"name": "WSP"}]}, {"destination": {"icao": "KTRM", "iata": "TRM", "name": "Palm Springs Jacqueline Cochran Regional", "shortName": "Jacqueline Cochran Regional", "municipalityName": "Palm Springs", "location": {"lat": 33.6267, "lon": -116.16}, "countryCode": "US"}, "averageDailyFlights": 0.29, "operators": [{"name": "TMB"}]}, {"destination": {"icao": "KTVL", "iata": "TVL", "name": "South Lake Tahoe Lake Tahoe", "shortName": "Lake Tahoe", "municipalityName": "South Lake Tahoe", "location": {"lat": 38.8939, "lon": -119.995}, "countryCode": "US"}, "averageDailyFlights": 0.29, "operators": [{"name": "WSP"}]}, {"destination": {"icao": "KTUL", "iata": "TUL", "name": "Tulsa ", "shortName": "Tulsa", "municipalityName": "Tulsa", "location": {"lat": 36.1984, "lon": -95.8881}, "countryCode": "US"}, "averageDailyFlights": 0.29, "operators": [{"name": "NetJets Aviation", "iata": "1I", "icao": "EJA"}]}, {"destination": {"icao": "KAMA", "iata": "AMA", "name": "Amarillo Rick Husband", "shortName": "Rick Husband", "municipalityName": "Amarillo", "location": {"lat": 35.2194, "lon": -101.706}, "countryCode": "US"}, "averageDailyFlights": 0.14, "operators": [{"name": "American Airlines", "iata": "AA", "icao": "AAL"}]}, {"destination": {"icao": "KBHM", "iata": "BHM", "name": "Birmingham -Shuttlesworth", "shortName": "-Shuttlesworth", "municipalityName": "Birmingham", "location": {"lat": 33.5629, "lon": -86.7535}, "countryCode": "US"}, "averageDailyFlights": 0.14, "operators": [{"name": "NetJets Aviation", "iata": "1I", "icao": "EJA"}]}, {"destination": {"icao": "KCEZ", "iata": "CEZ", "name": "Cortez Municipal", "shortName": "Municipal", "municipalityName": "Cortez", "location": {"lat": 37.303, "lon": -108.628}, "countryCode": "US"}, "averageDailyFlights": 0.14, "operators": [{"name": "Libyan Airlines", "iata": "LN", "icao": "LAA"}]}, {"destination": {"icao": "KADS", "iata": "ADS", "name": "Dallas Addison", "shortName": "Addison", "municipalityName": "Dallas", "location": {"lat": 32.9686, "lon": -96.8364}, "countryCode": "US"}, "averageDailyFlights": 0.14, "operators": [{"name": "LXJ"}]}, {"destination": {"icao": "KEKO", "iata": "EKO", "name": "Elko Regional", "shortName": "Regional", "municipalityName": "Elko", "location": {"lat": 40.8249, "lon": -115.792}, "countryCode": "US"}, "averageDailyFlights": 0.14, "operators": [{"name": "NetJets Aviation", "iata": "1I", "icao": "EJA"}]}, {"destination": {"icao": "KAFW", "iata": "AFW", "name": "Fort Worth Alliance", "shortName": "Alliance", "municipalityName": "Fort Worth", "location": {"lat": 32.9876, "lon": -97.3188}, "countryCode": "US"}, "averageDailyFlights": 0.14, "operators": [{"name": "Jet Linx Aviation", "iata": "JL", "icao": "JTL"}]}, {"destination": {"icao": "KLVS", "iata": "LVS", "name": "Las Vegas Municipal", "shortName": "Municipal", "municipalityName": "Las Vegas", "location": {"lat": 35.6542, "lon": -105.142}, "countryCode": "US"}, "averageDailyFlights": 0.14, "operators": [{"name": "CSI"}]}, {"destination": {"icao": "KMIA", "iata": "MIA", "name": "Miami ", "shortName": "Miami", "municipalityName": "Miami", "location": {"lat": 25.7932, "lon": -80.2906}, "countryCode": "US"}, "averageDailyFlights": 0.14, "operators": [{"name": "LXJ"}]}, {"destination": {"icao": "KCNY", "iata": "CNY", "name": "Moab Canyonlands Field", "shortName": "Canyonlands Field", "municipalityName": "Moab", "location": {"lat": 38.755, "lon": -109.755}, "countryCode": "US"}, "averageDailyFlights": 0.14, "operators": [{"name": "FTH"}]}, {"destination": {"icao": "KMTJ", "iata": "MTJ", "name": "Montrose Regional", "shortName": "Regional", "municipalityName": "Montrose", "location": {"lat": 38.5098, "lon": -107.894}, "countryCode": "US"}, "averageDailyFlights": 0.14, "operators": [{"name": "Jet Linx Aviation", "iata": "JL", "icao": "JTL"}]}, {"destination": {"icao": "KRDM", "iata": "RDM", "name": "Redmond Roberts Field", "shortName": "Roberts Field", "municipalityName": "Redmond", "location": {"lat": 44.2541, "lon": -121.15}, "countryCode": "US"}, "averageDailyFlights": 0.14, "operators": [{"name": "LXJ"}]}, {"destination": {"icao": "KSAN", "iata": "SAN", "name": "San Diego ", "shortName": "San Diego", "municipalityName": "San Diego", "location": {"lat": 32.7336, "lon": -117.19}, "countryCode": "US"}, "averageDailyFlights": 0.14, "operators": [{"name": "NetJets Aviation", "iata": "1I", "icao": "EJA"}]}, {"destination": {"icao": "KSAF", "iata": "SAF", "name": "Santa Fe Municipal", "shortName": "Municipal", "municipalityName": "Santa Fe", "location": {"lat": 35.6171, "lon": -106.089}, "countryCode": "US"}, "averageDailyFlights": 0.14, "operators": [{"name": "GAJ"}]}, {"destination": {"icao": "KSDL", "iata": "SCF", "name": "Scottsdale ", "shortName": "Scottsdale", "municipalityName": "Scottsdale", "location": {"lat": 33.6229, "lon": -111.911}, "countryCode": "US"}, "averageDailyFlights": 0.14, "operators": [{"name": "XLJ"}]}]}