{"routes": [{"destination": {"icao": "KORD", "iata": "ORD", "name": "Chicago O'Hare", "shortName": "O'Hare", "municipalityName": "Chicago", "location": {"lat": 41.9786, "lon": -87.9048}, "countryCode": "US"}, "averageDailyFlights": 5.86, "operators": [{"name": "United Airlines", "iata": "UA", "icao": "UAL"}, {"name": "Envoy Air", "iata": "MQ", "icao": "ENY"}, {"name": "American Airlines", "iata": "AA", "icao": "AAL"}, {"name": "SkyWest Airlines", "iata": "OO", "icao": "SKW"}]}, {"destination": {"icao": "KMSP", "iata": "MSP", "name": "Minneapolis Wold-Chamberlain", "shortName": "Wold-Chamberlain", "municipalityName": "Minneapolis", "location": {"lat": 44.882, "lon": -93.2218}, "countryCode": "US"}, "averageDailyFlights": 5.0, "operators": [{"name": "Delta Air Lines", "iata": "DL", "icao": "DAL"}]}, {"destination": {"icao": "KDEN", "iata": "DEN", "name": "Denver ", "shortName": "Denver", "municipalityName": "Denver", "location": {"lat": 39.8617, "lon": -104.673}, "countryCode": "US"}, "averageDailyFlights": 3.86, "operators": [{"name": "United Airlines", "iata": "UA", "icao": "UAL"}, {"name": "Frontier Airlines", "iata": "F9", "icao": "FFT"}]}, {"destination": {"icao": "KRAP", "iata": "RAP", "name": "Rapid City Regional", "shortName": "Regional", "municipalityName": "Rapid City", "location": {"lat": 44.0453, "lon": -103.057}, "countryCode": "US"}, "averageDailyFlights": 2.43, "operators": [{"name": "Alpine Air Express", "iata": "5A", "icao": "AIP"}, {"name": "Empire Airlines", "iata": "EM", "icao": "CFS"}, {"name": "N1LT"}, {"name": "Kabo Air", "iata": "N9", "icao": "QNK"}]}, {"destination": {"icao": "KDFW", "iata": "DFW", "name": "Dallas-Fort Worth ", "shortName": "Dallas-Fort Worth", "municipalityName": "Dallas-Fort Worth", "location": {"lat": 32.8968, "lon": -97.038}, "countryCode": "US"}, "averageDailyFlights": 2.29, "operators": [{"name": "American Airlines", "iata": "AA", "icao": "AAL"}]}, {"destination": {"icao": "KABR", "iata": "ABR", "name": "Aberdeen Regional", "shortName": "Regional", "municipalityName": "Aberdeen", "location": {"lat": 45.4491, "lon": -98.4218}, "countryCode": "US"}, "averageDailyFlights": 1.57, "operators": [{"name": "Alpine Air Express", "iata": "5A", "icao": "AIP"}, {"name": "IRO"}]}, {"destination": {"icao": "KATL", "iata": "ATL", "name": "Atlanta Hartsfield Jackson", "shortName": "Hartsfield Jackson", "municipalityName": "Atlanta", "location": {"lat": 33.6367, "lon": -84.4281}, "countryCode": "US"}, "averageDailyFlights": 1.14, "operators": [{"name": "Delta Air Lines", "iata": "DL", "icao": "DAL"}]}, {"destination": {"icao": "KPHX", "iata": "PHX", "name": "Phoenix Sky Harbor", "shortName": "Sky Harbor", "municipalityName": "Phoenix", "location": {"lat": 33.4343, "lon": -112.012}, "countryCode": "US"}, "averageDailyFlights": 1.14, "operators": [{"name": "Envoy Air", "iata": "MQ", "icao": "ENY"}, {"name": "American Airlines", "iata": "AA", "icao": "AAL"}]}, {"destination": {"icao": "KYIP", "iata": "YIP", "name": "Detroit Willow Run", "shortName": "Willow Run", "municipalityName": "Detroit", "location": {"lat": 42.2379, "lon": -83.5304}, "countryCode": "US"}, "averageDailyFlights": 0.86, "operators": [{"name": "CSJ"}]}, {"destination": {"icao": "KMBG", "iata": "MBG", "name": "Mobridge Municipal", "shortName": "Municipal", "municipalityName": "Mobridge", "location": {"lat": 45.5465, "lon": -100.408}, "countryCode": "US"}, "averageDailyFlights": 0.86, "operators": [{"name": "Alpine Air Express", "iata": "5A", "icao": "AIP"}]}, {"destination": {"icao": "KPIR", "iata": "PIR", "name": "Pierre Regional", "shortName": "Regional", "municipalityName": "Pierre", "location": {"lat": 44.3827, "lon": -100.286}, "countryCode": "US"}, "averageDailyFlights": 0.86, "operators": [{"name": "IRO"}]}, {"destination": {"icao": "KBNA", "iata": "BNA", "name": "Nashville ", "shortName": "Nashville", "municipalityName": "Nashville", "location": {"lat": 36.1245, "lon": -86.6782}, "countryCode": "US"}, "averageDailyFlights": 0.71, "operators": [{"name": "Allegiant Air", "iata": "G4", "icao": "AAY"}]}, {"destination": {"icao": "KSPF", "iata": "SPF", "name": "Spearfish Black Hills -Clyde Ice Field", "shortName": "Black Hills -Clyde Ice Field", "municipalityName": "Spearfish", "location": {"lat": 44.4803, "lon": -103.783}, "countryCode": "US"}, "averageDailyFlights": 0.71, "operators": [{"name": "Alpine Air Express", "iata": "5A", "icao": "AIP"}]}, {"destination": {"icao": "KLAS", "iata": "LAS", "name": "Las Vegas McCarran", "shortName": "McCarran", "municipalityName": "Las Vegas", "location": {"lat": 36.0801, "lon": -115.152}, "countryCode": "US"}, "averageDailyFlights": 0.57, "operators": [{"name": "Allegiant Air", "iata": "G4", "icao": "AAY"}]}, {"destination": {"icao": "KIWA", "iata": "AZA", "name": "Phoenix -Mesa-Gateway", "shortName": "-Mesa-Gateway", "municipalityName": "Phoenix", "location": {"lat": 33.3078, "lon": -111.655}, "countryCode": "US"}, "averageDailyFlights": 0.57, "operators": [{"name": "Allegiant Air", "iata": "G4", "icao": "AAY"}]}, {"destination": {"icao": "KFAR", "iata": "FAR", "name": "Fargo Hector", "shortName": "Hector", "municipalityName": "Fargo", "location": {"lat": 46.9207, "lon": -96.8158}, "countryCode": "US"}, "averageDailyFlights": 0.43, "operators": [{"name": "BXX"}, {"name": "Alpine Air Express", "iata": "5A", "icao": "AIP"}]}, {"destination": {"icao": "KMOD", "iata": "MOD", "name": "Modesto City Co-Harry Sham Field", "shortName": "City Co-Harry Sham Field", "municipalityName": "Modesto", "location": {"lat": 37.6258, "lon": -120.954}, "countryCode": "US"}, "averageDailyFlights": 0.43, "operators": [{"name": "PKW"}, {"name": "Nolinor", "iata": "N5", "icao": "NRL"}]}, {"destination": {"icao": "KOMA", "iata": "OMA", "name": "Omaha Eppley Airfield", "shortName": "Eppley Airfield", "municipalityName": "Omaha", "location": {"lat": 41.3032, "lon": -95.8941}, "countryCode": "US"}, "averageDailyFlights": 0.43, "operators": [{"name": "Jet Linx Aviation", "iata": "JL", "icao": "JTL"}]}, {"destination": {"icao": "KSFB", "iata": "SFB", "name": "Orlando Sanford", "shortName": "Sanford", "municipalityName": "Orlando", "location": {"lat": 28.7776, "lon": -81.2375}, "countryCode": "US"}, "averageDailyFlights": 0.43, "operators": [{"name": "Allegiant Air", "iata": "G4", "icao": "AAY"}]}, {"destination": {"icao": "KPIE", "iata": "PIE", "name": "St Petersburg-Clearwater St Petersburg Clearwater", "shortName": "St Petersburg Clearwater", "municipalityName": "St Petersburg-Clearwater", "location": {"lat": 27.9102, "lon": -82.6874}, "countryCode": "US"}, "averageDailyFlights": 0.43, "operators": [{"name": "Allegiant Air", "iata": "G4", "icao": "AAY"}]}, {"destination": {"icao": "KAUS", "iata": "AUS", "name": "Austin Bergstrom", "shortName": "Bergstrom", "municipalityName": "Austin", "location": {"lat": 30.194498, "lon": -97.6699}, "countryCode": "US"}, "averageDailyFlights": 0.29, "operators": [{"name": "Allegiant Air", "iata": "G4", "icao": "AAY"}]}, {"destination": {"icao": "KBIS", "iata": "BIS", "name": "Bismarck Municipal", "shortName": "Municipal", "municipalityName": "Bismarck", "location": {"lat": 46.7727, "lon": -100.746}, "countryCode": "US"}, "averageDailyFlights": 0.29, "operators": [{"name": "WIS"}]}, {"destination": {"icao": "KAPA", "iata": "APA", "name": "Denver Centennial", "shortName": "Centennial", "municipalityName": "Denver", "location": {"lat": 39.5701, "lon": -104.849}, "countryCode": "US"}, "averageDailyFlights": 0.29, "operators": [{"name": "TCA", "iata": "N6", "icao": "TZS"}]}, {"destination": {"icao": "KDSM", "iata": "DSM", "name": "Des Moines ", "shortName": "Des Moines", "municipalityName": "Des Moines", "location": {"lat": 41.534, "lon": -93.6631}, "countryCode": "US"}, "averageDailyFlights": 0.29, "operators": [{"name": "Sun Country Airlines", "iata": "SY", "icao": "SCX"}]}, {"destination": {"icao": "KMHE", "iata": "MHE", "name": "Mitchell Municipal", "shortName": "Municipal", "municipalityName": "Mitchell", "location": {"lat": 43.7748, "lon": -98.0386}, "countryCode": "US"}, "averageDailyFlights": 0.29, "operators": [{"name": "DCM"}]}, {"destination": {"icao": "KSAN", "iata": "SAN", "name": "San Diego ", "shortName": "San Diego", "municipalityName": "San Diego", "location": {"lat": 32.7336, "lon": -117.19}, "countryCode": "US"}, "averageDailyFlights": 0.29, "operators": [{"name": "Allegiant Air", "iata": "G4", "icao": "AAY"}]}, {"destination": {"icao": "KSHR", "iata": "SHR", "name": "Sheridan County", "shortName": "County", "municipalityName": "Sheridan", "location": {"lat": 44.7692, "lon": -106.98}, "countryCode": "US"}, "averageDailyFlights": 0.29, "operators": [{"name": "SWD"}]}, {"destination": {"icao": "KBTM", "iata": "BTM", "name": "Butte Bert Mooney", "shortName": "Bert Mooney", "municipalityName": "Butte", "location": {"lat": 45.9548, "lon": -112.497}, "countryCode": "US"}, "averageDailyFlights": 0.14, "operators": [{"name": "Jet Linx Aviation", "iata": "JL", "icao": "JTL"}]}, {"destination": {"icao": "KMDW", "iata": "MDW", "name": "Chicago Midway", "shortName": "Midway", "municipalityName": "Chicago", "location": {"lat": 41.786, "lon": -87.7524}, "countryCode": "US"}, "averageDailyFlights": 0.14, "operators": [{"name": "NetJets Aviation", "iata": "1I", "icao": "EJA"}]}, {"destination": {"icao": "KDAL", "iata": "DAL", "name": "Dallas Love Field", "shortName": "Love Field", "municipalityName": "Dallas", "location": {"lat": 32.8471, "lon": -96.8518}, "countryCode": "US"}, "averageDailyFlights": 0.14, "operators": [{"name": "LXJ"}]}, {"destination": {"icao": "KGRI", "iata": "GRI", "name": "Grand Island Central Nebraska Regional", "shortName": "Central Nebraska Regional", "municipalityName": "Grand Island", "location": {"lat": 40.9675, "lon": -98.3096}, "countryCode": "US"}, "averageDailyFlights": 0.14, "operators": [{"name": "CNS"}]}, {"destination": {"icao": "KSUN", "iata": "SUN", "name": "Hailey Friedman Memorial", "shortName": "Friedman Memorial", "municipalityName": "Hailey", "location": {"lat": 43.5044, "lon": -114.296}, "countryCode": "US"}, "averageDailyFlights": 0.14, "operators": [{"name": "SWD"}]}, {"destination": {"icao": "KSGR", "iata": "SGR", "name": "Houston Sugar Land Regional", "shortName": "Sugar Land Regional", "municipalityName": "Houston", "location": {"lat": 29.6223, "lon": -95.6565}, "countryCode": "US"}, "averageDailyFlights": 0.14, "operators": [{"name": "LXJ"}]}, {"destination": {"icao": "KLAX", "iata": "LAX", "name": "Los Angeles ", "shortName": "Los Angeles", "municipalityName": "Los Angeles", "location": {"lat": 33.9425, "lon": -118.408}, "countryCode": "US"}, "averageDailyFlights": 0.14, "operators": [{"name": "Allegiant Air", "iata": "G4", "icao": "AAY"}]}, {"destination": {"icao": "KAGC", "iata": "AGC", "name": "Pittsburgh Allegheny County", "shortName": "Allegheny County", "municipalityName": "Pittsburgh", "location": {"lat": 40.3544, "lon": -79.9302}, "countryCode": "US"}, "averageDailyFlights": 0.14, "operators": [{"name": "UWD"}]}, {"destination": {"icao": "KTPA", "iata": "TPA", "name": "Tampa ", "shortName": "Tampa", "municipalityName": "Tampa", "location": {"lat": 27.9755, "lon": -82.5332}, "countryCode": "US"}, "averageDailyFlights": 0.14, "operators": [{"name": "EDG"}]}, {"destination": {"icao": "KTEB", "iata": "TEB", "name": "Teterboro ", "shortName": "Teterboro", "municipalityName": "Teterboro", "location": {"lat": 40.8501, "lon": -74.0608}, "countryCode": "US"}, "averageDailyFlights": 0.14, "operators": [{"name": "JRE"}]}, {"destination": {"icao": "KVTN", "iata": "VTN", "name": "Valentine Miller Field", "shortName": "Miller Field", "municipalityName": "Valentine", "location": {"lat": 42.8578, "lon": -100.548}, "countryCode": "US"}, "averageDailyFlights": 0.14, "operators": [{"name": "Libyan Airlines", "iata": "LN", "icao": "LAA"}]}, {"destination": {"icao": "KATY", "iata": "ATY", "name": "Watertown Regional", "shortName": "Regional", "municipalityName": "Watertown", "location": {"lat": 44.914, "lon": -97.1547}, "countryCode": "US"}, "averageDailyFlights": 0.14, "operators": [{"name": "Alpine Air Express", "iata": "5A", "icao": "AIP"}]}, {"destination": {"icao": "CYWG", "iata": "YWG", "name": "Winnipeg James Armstrong Richardson", "shortName": "James Armstrong Richardson", "municipalityName": "Winnipeg", "location": {"lat": 49.91, "lon": -97.2399}, "countryCode": "CA"}, "averageDailyFlights": 0.14, "operators": [{"name": "KEW"}]}]}