{"routes": [{"destination": {"icao": "KORD", "iata": "ORD", "name": "Chicago O'Hare", "shortName": "O'Hare", "municipalityName": "Chicago", "location": {"lat": 41.9786, "lon": -87.9048}, "countryCode": "US"}, "averageDailyFlights": 6.29, "operators": [{"name": "Delta Air Lines", "iata": "DL", "icao": "DAL"}, {"name": "Envoy Air", "iata": "MQ", "icao": "ENY"}, {"name": "United Airlines", "iata": "UA", "icao": "UAL"}, {"name": "Air Wisconsin", "iata": "ZW", "icao": "AWI"}, {"name": "American Airlines", "iata": "AA", "icao": "AAL"}]}, {"destination": {"icao": "KDTW", "iata": "DTW", "name": "Detroit Metropolitan Wayne County", "shortName": "Metropolitan Wayne County", "municipalityName": "Detroit", "location": {"lat": 42.2124, "lon": -83.3534}, "countryCode": "US"}, "averageDailyFlights": 3.43, "operators": [{"name": "Delta Air Lines", "iata": "DL", "icao": "DAL"}]}, {"destination": {"icao": "KMSP", "iata": "MSP", "name": "Minneapolis Wold-Chamberlain", "shortName": "Wold-Chamberlain", "municipalityName": "Minneapolis", "location": {"lat": 44.882, "lon": -93.2218}, "countryCode": "US"}, "averageDailyFlights": 3.29, "operators": [{"name": "Delta Air Lines", "iata": "DL", "icao": "DAL"}]}, {"destination": {"icao": "KMKE", "iata": "MKE", "name": "Milwaukee General Mitchell", "shortName": "General Mitchell", "municipalityName": "Milwaukee", "location": {"lat": 42.9472, "lon": -87.8966}, "countryCode": "US"}, "averageDailyFlights": 2.43, "operators": [{"name": "Delta Air Lines", "iata": "DL", "icao": "DAL"}, {"name": "WIS"}, {"name": "NTW"}, {"name": "NJM"}, {"name": "CRE"}]}, {"destination": {"icao": "KATL", "iata": "ATL", "name": "Atlanta Hartsfield Jackson", "shortName": "Hartsfield Jackson", "municipalityName": "Atlanta", "location": {"lat": 33.6367, "lon": -84.4281}, "countryCode": "US"}, "averageDailyFlights": 1.14, "operators": [{"name": "Delta Air Lines", "iata": "DL", "icao": "DAL"}]}, {"destination": {"icao": "KOSH", "iata": "OSH", "name": "Oshkosh Wittman Regional", "shortName": "Wittman Regional", "municipalityName": "Oshkosh", "location": {"lat": 43.9844, "lon": -88.557}, "countryCode": "US"}, "averageDailyFlights": 0.86, "operators": [{"name": "WIS"}]}, {"destination": {"icao": "KDEN", "iata": "DEN", "name": "Denver ", "shortName": "Denver", "municipalityName": "Denver", "location": {"lat": 39.8617, "lon": -104.673}, "countryCode": "US"}, "averageDailyFlights": 0.71, "operators": [{"name": "Frontier Airlines", "iata": "F9", "icao": "FFT"}, {"name": "Sun Country Airlines", "iata": "SY", "icao": "SCX"}]}, {"destination": {"icao": "KDPA", "iata": "DPA", "name": "Chicago/West Chicago Dupage", "shortName": "Dupage", "municipalityName": "Chicago/West Chicago", "location": {"lat": 41.9078, "lon": -88.2486}, "countryCode": "US"}, "averageDailyFlights": 0.29, "operators": [{"name": "Nordwind Airlines", "iata": "N4", "icao": "NWS"}, {"name": "DPJ"}]}, {"destination": {"icao": "KDSM", "iata": "DSM", "name": "Des Moines ", "shortName": "Des Moines", "municipalityName": "Des Moines", "location": {"lat": 41.534, "lon": -93.6631}, "countryCode": "US"}, "averageDailyFlights": 0.29, "operators": [{"name": "JRE"}]}, {"destination": {"icao": "KMSN", "iata": "MSN", "name": "Madison Dane County Regional Truax Field", "shortName": "Dane County Regional Truax Field", "municipalityName": "Madison", "location": {"lat": 43.1399, "lon": -89.3375}, "countryCode": "US"}, "averageDailyFlights": 0.29, "operators": [{"name": "EJM"}]}, {"destination": {"icao": "CYUL", "iata": "YUL", "name": "Montreal Trudeau", "shortName": "Trudeau", "municipalityName": "Montreal", "location": {"lat": 45.4706, "lon": -73.7408}, "countryCode": "CA"}, "averageDailyFlights": 0.29, "operators": [{"name": "PNO"}]}, {"destination": {"icao": "KMCO", "iata": "MCO", "name": "Orlando ", "shortName": "Orlando", "municipalityName": "Orlando", "location": {"lat": 28.4294, "lon": -81.309}, "countryCode": "US"}, "averageDailyFlights": 0.29, "operators": [{"name": "Sun Country Airlines", "iata": "SY", "icao": "SCX"}]}, {"destination": {"icao": "KBED", "iata": "BED", "name": "Bedford Laurence G Hanscom Field", "shortName": "Laurence G Hanscom Field", "municipalityName": "Bedford", "location": {"lat": 42.47, "lon": -71.289}, "countryCode": "US"}, "averageDailyFlights": 0.14, "operators": [{"name": "COL"}]}, {"destination": {"icao": "KBOS", "iata": "BOS", "name": "Boston General Edward Lawrence Logan", "shortName": "General Edward Lawrence Logan", "municipalityName": "Boston", "location": {"lat": 42.3643, "lon": -71.0052}, "countryCode": "US"}, "averageDailyFlights": 0.14, "operators": [{"name": "EJM"}]}, {"destination": {"icao": "KCLT", "iata": "CLT", "name": "Charlotte Douglas", "shortName": "Douglas", "municipalityName": "Charlotte", "location": {"lat": 35.214, "lon": -80.9431}, "countryCode": "US"}, "averageDailyFlights": 0.14, "operators": [{"name": "TWY"}]}, {"destination": {"icao": "KADS", "iata": "ADS", "name": "Dallas Addison", "shortName": "Addison", "municipalityName": "Dallas", "location": {"lat": 32.9686, "lon": -96.8364}, "countryCode": "US"}, "averageDailyFlights": 0.14, "operators": [{"name": "NetJets Aviation", "iata": "1I", "icao": "EJA"}]}, {"destination": {"icao": "KDLH", "iata": "DLH", "name": "Duluth ", "shortName": "Duluth", "municipalityName": "Duluth", "location": {"lat": 46.8421, "lon": -92.1936}, "countryCode": "US"}, "averageDailyFlights": 0.14, "operators": [{"name": "FLC"}]}, {"destination": {"icao": "KEGE", "iata": "EGE", "name": "Eagle County Regional", "shortName": "County Regional", "municipalityName": "Eagle", "location": {"lat": 39.6426, "lon": -106.918}, "countryCode": "US"}, "averageDailyFlights": 0.14, "operators": [{"name": "DPJ"}]}, {"destination": {"icao": "KFLL", "iata": "FLL", "name": "Fort Lauderdale Hollywood", "shortName": "Hollywood", "municipalityName": "Fort Lauderdale", "location": {"lat": 26.0726, "lon": -80.1527}, "countryCode": "US"}, "averageDailyFlights": 0.14, "operators": [{"name": "Nordwind Airlines", "iata": "N4", "icao": "NWS"}]}, {"destination": {"icao": "KHAO", "iata": "HAO", "name": "Hamilton Butler Co Regional  - Hogan Field", "shortName": "Butler Co Regional  - Hogan Field", "municipalityName": "Hamilton", "location": {"lat": 39.3638, "lon": -84.522}, "countryCode": "US"}, "averageDailyFlights": 0.14, "operators": [{"name": "CRE"}]}, {"destination": {"icao": "KJVL", "iata": "JVL", "name": "Janesville Southern Wisconsin Regional", "shortName": "Southern Wisconsin Regional", "municipalityName": "Janesville", "location": {"lat": 42.6203, "lon": -89.0416}, "countryCode": "US"}, "averageDailyFlights": 0.14, "operators": [{"name": "COL"}]}, {"destination": {"icao": "KGPI", "iata": "FCA", "name": "Kalispell Glacier Park", "shortName": "Glacier Park", "municipalityName": "Kalispell", "location": {"lat": 48.3105, "lon": -114.256}, "countryCode": "US"}, "averageDailyFlights": 0.14, "operators": [{"name": "JRE"}]}, {"destination": {"icao": "KRNO", "iata": "RNO", "name": "Reno Tahoe", "shortName": "Tahoe", "municipalityName": "Reno", "location": {"lat": 39.4991, "lon": -119.768}, "countryCode": "US"}, "averageDailyFlights": 0.14, "operators": [{"name": "Sun Country Airlines", "iata": "SY", "icao": "SCX"}]}, {"destination": {"icao": "KROC", "iata": "ROC", "name": "Rochester Greater", "shortName": "Greater", "municipalityName": "Rochester", "location": {"lat": 43.1189, "lon": -77.6724}, "countryCode": "US"}, "averageDailyFlights": 0.14, "operators": [{"name": "NetJets Aviation", "iata": "1I", "icao": "EJA"}]}, {"destination": {"icao": "CYYZ", "iata": "YYZ", "name": "Toronto Pearson", "shortName": "Pearson", "municipalityName": "Toronto", "location": {"lat": 43.6772, "lon": -79.6306}, "countryCode": "CA"}, "averageDailyFlights": 0.14, "operators": [{"name": "DPJ"}]}, {"destination": {"icao": "KOKV", "iata": "WGO", "name": "Winchester Regional", "shortName": "Regional", "municipalityName": "Winchester", "location": {"lat": 39.1435, "lon": -78.1444}, "countryCode": "US"}, "averageDailyFlights": 0.14, "operators": [{"name": "Nordwind Airlines", "iata": "N4", "icao": "NWS"}]}]}