{"routes": [{"destination": {"icao": "KMSP", "iata": "MSP", "name": "Minneapolis Wold-Chamberlain", "shortName": "Wold-Chamberlain", "municipalityName": "Minneapolis", "location": {"lat": 44.882, "lon": -93.2218}, "countryCode": "US"}, "averageDailyFlights": 4.43, "operators": [{"name": "Delta Air Lines", "iata": "DL", "icao": "DAL"}]}, {"destination": {"icao": "KFAR", "iata": "FAR", "name": "Fargo Hector", "shortName": "Hector", "municipalityName": "Fargo", "location": {"lat": 46.9207, "lon": -96.8158}, "countryCode": "US"}, "averageDailyFlights": 2.0, "operators": [{"name": "Alpine Air Express", "iata": "5A", "icao": "AIP"}, {"name": "CPT"}, {"name": "FRG"}, {"name": "Libyan Airlines", "iata": "LN", "icao": "LAA"}]}, {"destination": {"icao": "KDEN", "iata": "DEN", "name": "Denver ", "shortName": "Denver", "municipalityName": "Denver", "location": {"lat": 39.8617, "lon": -104.673}, "countryCode": "US"}, "averageDailyFlights": 1.86, "operators": [{"name": "United Airlines", "iata": "UA", "icao": "UAL"}, {"name": "Delta Air Lines", "iata": "DL", "icao": "DAL"}]}, {"destination": {"icao": "KLAS", "iata": "LAS", "name": "Las Vegas McCarran", "shortName": "McCarran", "municipalityName": "Las Vegas", "location": {"lat": 36.0801, "lon": -115.152}, "countryCode": "US"}, "averageDailyFlights": 0.29, "operators": [{"name": "Allegiant Air", "iata": "G4", "icao": "AAY"}]}, {"destination": {"icao": "KCIU", "iata": "CIU", "name": "Sault Ste Marie Chippewa County", "shortName": "Chippewa County", "municipalityName": "Sault Ste Marie", "location": {"lat": 46.2508, "lon": -84.4724}, "countryCode": "US"}, "averageDailyFlights": 0.29, "operators": [{"name": "NJM"}]}, {"destination": {"icao": "PANC", "iata": "ANC", "name": "Anchorage Ted Stevens", "shortName": "Ted Stevens", "municipalityName": "Anchorage", "location": {"lat": 61.1744, "lon": -149.996}, "countryCode": "US"}, "averageDailyFlights": 0.14, "operators": [{"name": "GRB"}]}, {"destination": {"icao": "KBIS", "iata": "BIS", "name": "Bismarck Municipal", "shortName": "Municipal", "municipalityName": "Bismarck", "location": {"lat": 46.7727, "lon": -100.746}, "countryCode": "US"}, "averageDailyFlights": 0.14, "operators": [{"name": "Alpine Air Express", "iata": "5A", "icao": "AIP"}]}, {"destination": {"icao": "KMDW", "iata": "MDW", "name": "Chicago Midway", "shortName": "Midway", "municipalityName": "Chicago", "location": {"lat": 41.786, "lon": -87.7524}, "countryCode": "US"}, "averageDailyFlights": 0.14, "operators": [{"name": "NetJets Aviation", "iata": "1I", "icao": "EJA"}]}, {"destination": {"icao": "KOSU", "iata": "OSU", "name": "Columbus Ohio State University", "shortName": "Ohio State University", "municipalityName": "Columbus", "location": {"lat": 40.0798, "lon": -83.073}, "countryCode": "US"}, "averageDailyFlights": 0.14, "operators": [{"name": "CNK"}]}, {"destination": {"icao": "KGFK", "iata": "GFK", "name": "Grand Forks ", "shortName": "Grand Forks", "municipalityName": "Grand Forks", "location": {"lat": 47.9493, "lon": -97.1761}, "countryCode": "US"}, "averageDailyFlights": 0.14, "operators": [{"name": "CRR"}]}, {"destination": {"icao": "KIAH", "iata": "IAH", "name": "Houston George Bush", "shortName": "George Bush", "municipalityName": "Houston", "location": {"lat": 29.9844, "lon": -95.3414}, "countryCode": "US"}, "averageDailyFlights": 0.14, "operators": [{"name": "CommutAir", "iata": "C5", "icao": "UCA"}]}, {"destination": {"icao": "CYVR", "iata": "YVR", "name": "Vancouver ", "shortName": "Vancouver", "municipalityName": "Vancouver", "location": {"lat": 49.1939, "lon": -123.184}, "countryCode": "CA"}, "averageDailyFlights": 0.14, "operators": [{"name": "NJM"}]}]}