{"routes": [{"destination": {"icao": "KLAX", "iata": "LAX", "name": "Los Angeles ", "shortName": "Los Angeles", "municipalityName": "Los Angeles", "location": {"lat": 33.9425, "lon": -118.408}, "countryCode": "US"}, "averageDailyFlights": 9.0, "operators": [{"name": "JetBlue Airways", "iata": "B6", "icao": "JBU"}, {"name": "Delta Air Lines", "iata": "DL", "icao": "DAL"}, {"name": "United Airlines", "iata": "UA", "icao": "UAL"}, {"name": "Southwest Airlines", "iata": "WN", "icao": "SWA"}, {"name": "Ameriflight", "iata": "A8", "icao": "AMF"}]}, {"destination": {"icao": "KDEN", "iata": "DEN", "name": "Denver ", "shortName": "Denver", "municipalityName": "Denver", "location": {"lat": 39.8617, "lon": -104.673}, "countryCode": "US"}, "averageDailyFlights": 7.29, "operators": [{"name": "United Airlines", "iata": "UA", "icao": "UAL"}, {"name": "Southwest Airlines", "iata": "WN", "icao": "SWA"}]}, {"destination": {"icao": "KPHX", "iata": "PHX", "name": "Phoenix Sky Harbor", "shortName": "Sky Harbor", "municipalityName": "Phoenix", "location": {"lat": 33.4343, "lon": -112.012}, "countryCode": "US"}, "averageDailyFlights": 6.43, "operators": [{"name": "American Airlines", "iata": "AA", "icao": "AAL"}, {"name": "Southwest Airlines", "iata": "WN", "icao": "SWA"}, {"name": "SkyWest Airlines", "iata": "OO", "icao": "SKW"}, {"name": "Swift Air", "iata": "WQ", "icao": "SWQ"}]}, {"destination": {"icao": "KSFO", "iata": "SFO", "name": "San Francisco ", "shortName": "San Francisco", "municipalityName": "San Francisco", "location": {"lat": 37.619, "lon": -122.375}, "countryCode": "US"}, "averageDailyFlights": 5.86, "operators": [{"name": "FRV"}, {"name": "Delta Air Lines", "iata": "DL", "icao": "DAL"}, {"name": "TWY"}, {"name": "NetJets Aviation", "iata": "1I", "icao": "EJA"}, {"name": "United Airlines", "iata": "UA", "icao": "UAL"}, {"name": "CMD"}, {"name": "LXJ"}]}, {"destination": {"icao": "KSLC", "iata": "SLC", "name": "Salt Lake City ", "shortName": "Salt Lake City", "municipalityName": "Salt Lake City", "location": {"lat": 40.7884, "lon": -111.978}, "countryCode": "US"}, "averageDailyFlights": 4.14, "operators": [{"name": "Delta Air Lines", "iata": "DL", "icao": "DAL"}, {"name": "CTA"}, {"name": "Libyan Airlines", "iata": "LN", "icao": "LAA"}]}, {"destination": {"icao": "KDFW", "iata": "DFW", "name": "Dallas-Fort Worth ", "shortName": "Dallas-Fort Worth", "municipalityName": "Dallas-Fort Worth", "location": {"lat": 32.8968, "lon": -97.038}, "countryCode": "US"}, "averageDailyFlights": 3.86, "operators": [{"name": "American Airlines", "iata": "AA", "icao": "AAL"}]}, {"destination": {"icao": "KSEA", "iata": "SEA", "name": "Seattle Tacoma", "shortName": "Tacoma", "municipalityName": "Seattle", "location": {"lat": 47.449, "lon": -122.309}, "countryCode": "US"}, "averageDailyFlights": 3.43, "operators": [{"name": "Alaska Airlines", "iata": "AS", "icao": "ASA"}]}, {"destination": {"icao": "KPDX", "iata": "PDX", "name": "Portland ", "shortName": "Portland", "municipalityName": "Portland", "location": {"lat": 45.5887, "lon": -122.598}, "countryCode": "US"}, "averageDailyFlights": 2.86, "operators": [{"name": "Empire Airlines", "iata": "EM", "icao": "CFS"}, {"name": "Alaska Airlines", "iata": "AS", "icao": "ASA"}, {"name": "LXJ"}, {"name": "YEL"}]}, {"destination": {"icao": "KOAK", "iata": "OAK", "name": "Oakland Metropolitan", "shortName": "Metropolitan", "municipalityName": "Oakland", "location": {"lat": 37.7213, "lon": -122.221}, "countryCode": "US"}, "averageDailyFlights": 2.43, "operators": [{"name": "Southwest Airlines", "iata": "WN", "icao": "SWA"}, {"name": "REH"}, {"name": "Sun Country Airlines", "iata": "SY", "icao": "SCX"}, {"name": "LXJ"}]}, {"destination": {"icao": "KLAS", "iata": "LAS", "name": "Las Vegas McCarran", "shortName": "McCarran", "municipalityName": "Las Vegas", "location": {"lat": 36.0801, "lon": -115.152}, "countryCode": "US"}, "averageDailyFlights": 2.29, "operators": [{"name": "Spirit Airlines", "iata": "NK", "icao": "NKS"}, {"name": "Allegiant Air", "iata": "G4", "icao": "AAY"}]}, {"destination": {"icao": "KSAN", "iata": "SAN", "name": "San Diego ", "shortName": "San Diego", "municipalityName": "San Diego", "location": {"lat": 32.7336, "lon": -117.19}, "countryCode": "US"}, "averageDailyFlights": 2.29, "operators": [{"name": "Southwest Airlines", "iata": "WN", "icao": "SWA"}]}, {"destination": {"icao": "KLGB", "iata": "LGB", "name": "Long Beach Daugherty Field/", "shortName": "Daugherty Field/", "municipalityName": "Long Beach", "location": {"lat": 33.8177, "lon": -118.152}, "countryCode": "US"}, "averageDailyFlights": 2.14, "operators": [{"name": "Southwest Airlines", "iata": "WN", "icao": "SWA"}]}, {"destination": {"icao": "KBUR", "iata": "BUR", "name": "Burbank Bob Hope", "shortName": "Bob Hope", "municipalityName": "Burbank", "location": {"lat": 34.2007, "lon": -118.359}, "countryCode": "US"}, "averageDailyFlights": 2.0, "operators": [{"name": "Southwest Airlines", "iata": "WN", "icao": "SWA"}, {"name": "JSX Air", "iata": "XE", "icao": "JSX"}, {"name": "XSM"}]}, {"destination": {"icao": "KSJC", "iata": "SJC", "name": "San Jose Norman Y. Mineta", "shortName": "Norman Y. Mineta", "municipalityName": "San Jose", "location": {"lat": 37.3626, "lon": -121.929}, "countryCode": "US"}, "averageDailyFlights": 1.43, "operators": [{"name": "Southwest Airlines", "iata": "WN", "icao": "SWA"}, {"name": "LXJ"}, {"name": "TWY"}]}, {"destination": {"icao": "MMGL", "iata": "GDL", "name": "Guadalajara Don Miguel Hidalgo Y Costilla", "shortName": "Don Miguel Hidalgo Y Costilla", "municipalityName": "Guadalajara", "location": {"lat": 20.5218, "lon": -103.311}, "countryCode": "MX"}, "averageDailyFlights": 1.14, "operators": [{"name": "Volaris", "iata": "Y4", "icao": "VOI"}, {"name": "PXT"}]}, {"destination": {"icao": "KSNA", "iata": "SNA", "name": "Santa Ana John Wayne -Orange County", "shortName": "John Wayne -Orange County", "municipalityName": "Santa Ana", "location": {"lat": 33.6757, "lon": -117.868}, "countryCode": "US"}, "averageDailyFlights": 1.14, "operators": [{"name": "JSX Air", "iata": "XE", "icao": "JSX"}, {"name": "GAJ"}, {"name": "NJZ"}, {"name": "NetJets Aviation", "iata": "1I", "icao": "EJA"}]}, {"destination": {"icao": "KORD", "iata": "ORD", "name": "Chicago O'Hare", "shortName": "O'Hare", "municipalityName": "Chicago", "location": {"lat": 41.9786, "lon": -87.9048}, "countryCode": "US"}, "averageDailyFlights": 0.86, "operators": [{"name": "United Airlines", "iata": "UA", "icao": "UAL"}]}, {"destination": {"icao": "KMSP", "iata": "MSP", "name": "Minneapolis Wold-Chamberlain", "shortName": "Wold-Chamberlain", "municipalityName": "Minneapolis", "location": {"lat": 44.882, "lon": -93.2218}, "countryCode": "US"}, "averageDailyFlights": 0.71, "operators": [{"name": "Sun Country Airlines", "iata": "SY", "icao": "SCX"}, {"name": "NetJets Aviation", "iata": "1I", "icao": "EJA"}, {"name": "Delta Air Lines", "iata": "DL", "icao": "DAL"}]}, {"destination": {"icao": "KMRY", "iata": "MRY", "name": "Monterey Peninsula", "shortName": "Peninsula", "municipalityName": "Monterey", "location": {"lat": 36.587, "lon": -121.843}, "countryCode": "US"}, "averageDailyFlights": 0.71, "operators": [{"name": "RGY"}, {"name": "NetJets Aviation", "iata": "1I", "icao": "EJA"}]}, {"destination": {"icao": "KSTS", "iata": "STS", "name": "Santa Rosa Charles M. Schulz Sonoma County", "shortName": "Charles M. Schulz Sonoma County", "municipalityName": "Santa Rosa", "location": {"lat": 38.509, "lon": -122.813}, "countryCode": "US"}, "averageDailyFlights": 0.57, "operators": [{"name": "XSM"}, {"name": "NJZ"}]}, {"destination": {"icao": "KBZN", "iata": "BZN", "name": "Bozeman Gallatin Field", "shortName": "Gallatin Field", "municipalityName": "Bozeman", "location": {"lat": 45.7775, "lon": -111.153}, "countryCode": "US"}, "averageDailyFlights": 0.43, "operators": [{"name": "NetJets Aviation", "iata": "1I", "icao": "EJA"}, {"name": "TWY"}]}, {"destination": {"icao": "KIFP", "iata": "IFP", "name": "Bullhead City Laughlin Bullhead", "shortName": "Laughlin Bullhead", "municipalityName": "Bullhead City", "location": {"lat": 35.1574, "lon": -114.56}, "countryCode": "US"}, "averageDailyFlights": 0.29, "operators": [{"name": "Sun Country Airlines", "iata": "SY", "icao": "SCX"}]}, {"destination": {"icao": "KAPA", "iata": "APA", "name": "Denver Centennial", "shortName": "Centennial", "municipalityName": "Denver", "location": {"lat": 39.5701, "lon": -104.849}, "countryCode": "US"}, "averageDailyFlights": 0.29, "operators": [{"name": "NetJets Aviation", "iata": "1I", "icao": "EJA"}, {"name": "Jet Linx Aviation", "iata": "JL", "icao": "JTL"}]}, {"destination": {"icao": "KIAH", "iata": "IAH", "name": "Houston George Bush", "shortName": "George Bush", "municipalityName": "Houston", "location": {"lat": 29.9844, "lon": -95.3414}, "countryCode": "US"}, "averageDailyFlights": 0.29, "operators": [{"name": "United Airlines", "iata": "UA", "icao": "UAL"}]}, {"destination": {"icao": "KHND", "iata": "HSH", "name": "Las Vegas Henderson Executive", "shortName": "Henderson Executive", "municipalityName": "Las Vegas", "location": {"lat": 35.9728, "lon": -115.134}, "countryCode": "US"}, "averageDailyFlights": 0.29, "operators": [{"name": "FLC"}, {"name": "Southwest Airlines", "iata": "WN", "icao": "SWA"}]}, {"destination": {"icao": "KAPC", "iata": "APC", "name": "Napa County", "shortName": "County", "municipalityName": "Napa", "location": {"lat": 38.2132, "lon": -122.281}, "countryCode": "US"}, "averageDailyFlights": 0.29, "operators": [{"name": "Nolinor", "iata": "N5", "icao": "NRL"}, {"name": "SIS"}]}, {"destination": {"icao": "KSDL", "iata": "SCF", "name": "Scottsdale ", "shortName": "Scottsdale", "municipalityName": "Scottsdale", "location": {"lat": 33.6229, "lon": -111.911}, "countryCode": "US"}, "averageDailyFlights": 0.29, "operators": [{"name": "NetJets Aviation", "iata": "1I", "icao": "EJA"}]}, {"destination": {"icao": "KTWF", "iata": "TWF", "name": "Twin Falls Joslin Field Magic Valley Regional", "shortName": "Joslin Field Magic Valley Regional", "municipalityName": "Twin Falls", "location": {"lat": 42.4818, "lon": -114.488}, "countryCode": "US"}, "averageDailyFlights": 0.29, "operators": [{"name": "PGR"}]}, {"destination": {"icao": "KVNY", "iata": "VNY", "name": "Van Nuys ", "shortName": "Van Nuys", "municipalityName": "Van Nuys", "location": {"lat": 34.2098, "lon": -118.49}, "countryCode": "US"}, "averageDailyFlights": 0.29, "operators": [{"name": "GAJ"}, {"name": "LXJ"}]}, {"destination": {"icao": "KALW", "iata": "ALW", "name": "Walla Walla Regional", "shortName": "Regional", "municipalityName": "Walla Walla", "location": {"lat": 46.0949, "lon": -118.288}, "countryCode": "US"}, "averageDailyFlights": 0.29, "operators": [{"name": "JCY"}]}, {"destination": {"icao": "KAUS", "iata": "AUS", "name": "Austin Bergstrom", "shortName": "Bergstrom", "municipalityName": "Austin", "location": {"lat": 30.194498, "lon": -97.6699}, "countryCode": "US"}, "averageDailyFlights": 0.14, "operators": [{"name": "Envoy Air", "iata": "MQ", "icao": "ENY"}]}, {"destination": {"icao": "KBIH", "iata": "BIH", "name": "Bishop Eastern Sierra Regional", "shortName": "Eastern Sierra Regional", "municipalityName": "Bishop", "location": {"lat": 37.3731, "lon": -118.364}, "countryCode": "US"}, "averageDailyFlights": 0.14, "operators": [{"name": "Nolinor", "iata": "N5", "icao": "NRL"}]}, {"destination": {"icao": "KEUG", "iata": "EUG", "name": "Eugene Mahlon Sweet Field", "shortName": "Mahlon Sweet Field", "municipalityName": "Eugene", "location": {"lat": 44.1246, "lon": -123.212}, "countryCode": "US"}, "averageDailyFlights": 0.14, "operators": [{"name": "NetJets Aviation", "iata": "1I", "icao": "EJA"}]}, {"destination": {"icao": "KGRB", "iata": "GRB", "name": "Green Bay Austin Straubel", "shortName": "Austin Straubel", "municipalityName": "Green Bay", "location": {"lat": 44.4851, "lon": -88.1296}, "countryCode": "US"}, "averageDailyFlights": 0.14, "operators": [{"name": "Sun Country Airlines", "iata": "SY", "icao": "SCX"}]}, {"destination": {"icao": "KHWD", "iata": "HWD", "name": "Hayward Executive", "shortName": "Executive", "municipalityName": "Hayward", "location": {"lat": 37.6592, "lon": -122.122}, "countryCode": "US"}, "averageDailyFlights": 0.14, "operators": [{"name": "NJZ"}]}, {"destination": {"icao": "KJAC", "iata": "JAC", "name": "Jackson Hole", "shortName": "Hole", "municipalityName": "Jackson", "location": {"lat": 43.6073, "lon": -110.738}, "countryCode": "US"}, "averageDailyFlights": 0.14, "operators": [{"name": "CBC"}]}, {"destination": {"icao": "KMAF", "iata": "MAF", "name": "Midland ", "shortName": "Midland", "municipalityName": "Midland", "location": {"lat": 31.9425, "lon": -102.202}, "countryCode": "US"}, "averageDailyFlights": 0.14, "operators": [{"name": "Sun Country Airlines", "iata": "SY", "icao": "SCX"}]}, {"destination": {"icao": "KOMA", "iata": "OMA", "name": "Omaha Eppley Airfield", "shortName": "Eppley Airfield", "municipalityName": "Omaha", "location": {"lat": 41.3032, "lon": -95.8941}, "countryCode": "US"}, "averageDailyFlights": 0.14, "operators": [{"name": "Sun Country Airlines", "iata": "SY", "icao": "SCX"}]}, {"destination": {"icao": "KOXR", "iata": "OXR", "name": "Oxnard ", "shortName": "Oxnard", "municipalityName": "Oxnard", "location": {"lat": 34.2008, "lon": -119.207}, "countryCode": "US"}, "averageDailyFlights": 0.14, "operators": [{"name": "NetJets Aviation", "iata": "1I", "icao": "EJA"}]}, {"destination": {"icao": "KMCC", "iata": "MCC", "name": "Sacramento Mc Clellan Airfield", "shortName": "Mc Clellan Airfield", "municipalityName": "Sacramento", "location": {"lat": 38.6676, "lon": -121.401}, "countryCode": "US"}, "averageDailyFlights": 0.14, "operators": [{"name": "CMD"}]}, {"destination": {"icao": "KSAC", "iata": "SAC", "name": "Sacramento Executive", "shortName": "Executive", "municipalityName": "Sacramento", "location": {"lat": 38.5125, "lon": -121.493}, "countryCode": "US"}, "averageDailyFlights": 0.14, "operators": [{"name": "LXJ"}]}, {"destination": {"icao": "KSTL", "iata": "STL", "name": "Saint Louis Lambert St Louis", "shortName": "Lambert St Louis", "municipalityName": "Saint Louis", "location": {"lat": 38.7487, "lon": -90.37}, "countryCode": "US"}, "averageDailyFlights": 0.14, "operators": [{"name": "GAJ"}]}, {"destination": {"icao": "KSEE", "iata": "SEE", "name": "San Diego/El Cajon Gillespie Field", "shortName": "Gillespie Field", "municipalityName": "San Diego/El Cajon", "location": {"lat": 32.8262, "lon": -116.972}, "countryCode": "US"}, "averageDailyFlights": 0.14, "operators": [{"name": "N5S"}]}, {"destination": {"icao": "KSBA", "iata": "SBA", "name": "Santa Barbara Municipal", "shortName": "Municipal", "municipalityName": "Santa Barbara", "location": {"lat": 34.4262, "lon": -119.84}, "countryCode": "US"}, "averageDailyFlights": 0.14, "operators": [{"name": "LXJ"}]}, {"destination": {"icao": "KBFI", "iata": "BFI", "name": "Seattle Boeing Field King County", "shortName": "Boeing Field King County", "municipalityName": "Seattle", "location": {"lat": 47.53, "lon": -122.302}, "countryCode": "US"}, "averageDailyFlights": 0.14, "operators": [{"name": "NetJets Aviation", "iata": "1I", "icao": "EJA"}]}, {"destination": {"icao": "KSCK", "iata": "SCK", "name": "Stockton Metropolitan", "shortName": "Metropolitan", "municipalityName": "Stockton", "location": {"lat": 37.8942, "lon": -121.238}, "countryCode": "US"}, "averageDailyFlights": 0.14, "operators": [{"name": "NJZ"}]}, {"destination": {"icao": "KTEB", "iata": "TEB", "name": "Teterboro ", "shortName": "Teterboro", "municipalityName": "Teterboro", "location": {"lat": 40.8501, "lon": -74.0608}, "countryCode": "US"}, "averageDailyFlights": 0.14, "operators": [{"name": "EJM"}]}, {"destination": {"icao": "KABQ", "iata": "ABQ", "name": "The Duke City Albuquerque  Sunport", "shortName": "Albuquerque  Sunport", "municipalityName": "The Duke City", "location": {"lat": 35.0402, "lon": -106.609}, "countryCode": "US"}, "averageDailyFlights": 0.14, "operators": [{"name": "Sun Country Airlines", "iata": "SY", "icao": "SCX"}]}, {"destination": {"icao": "CYVR", "iata": "YVR", "name": "Vancouver ", "shortName": "Vancouver", "municipalityName": "Vancouver", "location": {"lat": 49.1939, "lon": -123.184}, "countryCode": "CA"}, "averageDailyFlights": 0.14, "operators": [{"name": "ADS"}]}, {"destination": {"icao": "KRRT", "iata": "RRT", "name": "Warroad Memorial", "shortName": "Memorial", "municipalityName": "Warroad", "location": {"lat": 48.9414, "lon": -95.3484}, "countryCode": "US"}, "averageDailyFlights": 0.14, "operators": [{"name": "GAJ"}]}, {"destination": {"icao": "KWMC", "iata": "WMC", "name": "Winnemucca Municipal", "shortName": "Municipal", "municipalityName": "Winnemucca", "location": {"lat": 40.8966, "lon": -117.806}, "countryCode": "US"}, "averageDailyFlights": 0.14, "operators": [{"name": "LXJ"}]}, {"destination": {"icao": "KNYL", "iata": "YUM", "name": "Yuma ", "shortName": "Yuma", "municipalityName": "Yuma", "location": {"lat": 32.6566, "lon": -114.606}, "countryCode": "US"}, "averageDailyFlights": 0.14, "operators": [{"name": "REY"}]}]}