{"routes": [{"destination": {"icao": "KSWO", "iata": "SWO", "name": "Stillwater Regional", "shortName": "Regional", "municipalityName": "Stillwater", "location": {"lat": 36.1612, "lon": -97.0857}, "countryCode": "US"}, "averageDailyFlights": 6.43, "operators": [{"name": "OST"}]}, {"destination": {"icao": "KDFW", "iata": "DFW", "name": "Dallas-Fort Worth ", "shortName": "Dallas-Fort Worth", "municipalityName": "Dallas-Fort Worth", "location": {"lat": 32.8968, "lon": -97.038}, "countryCode": "US"}, "averageDailyFlights": 2.29, "operators": [{"name": "SkyWest Airlines", "iata": "OO", "icao": "SKW"}]}, {"destination": {"icao": "KLRU", "iata": "LRU", "name": "Las Cruces ", "shortName": "Las Cruces", "municipalityName": "Las Cruces", "location": {"lat": 32.2894, "lon": -106.922}, "countryCode": "US"}, "averageDailyFlights": 0.29, "operators": [{"name": "N2"}]}, {"destination": {"icao": "KCPS", "iata": "CPS", "name": "Cahokia/St Louis St Louis Downtown", "shortName": "St Louis Downtown", "municipalityName": "Cahokia/St Louis", "location": {"lat": 38.5707, "lon": -90.1562}, "countryCode": "US"}, "averageDailyFlights": 0.14, "operators": [{"name": "Tradewind Aviation", "iata": "TJ", "icao": "GPD"}]}, {"destination": {"icao": "KMDW", "iata": "MDW", "name": "Chicago Midway", "shortName": "Midway", "municipalityName": "Chicago", "location": {"lat": 41.786, "lon": -87.7524}, "countryCode": "US"}, "averageDailyFlights": 0.14, "operators": [{"name": "XSR"}]}, {"destination": {"icao": "KCUH", "iata": "CUH", "name": "Cushing Municipal", "shortName": "Municipal", "municipalityName": "Cushing", "location": {"lat": 35.9499, "lon": -96.7731}, "countryCode": "US"}, "averageDailyFlights": 0.14, "operators": [{"name": "OST"}]}, {"destination": {"icao": "KAPA", "iata": "APA", "name": "Denver Centennial", "shortName": "Centennial", "municipalityName": "Denver", "location": {"lat": 39.5701, "lon": -104.849}, "countryCode": "US"}, "averageDailyFlights": 0.14, "operators": [{"name": "XSR"}]}, {"destination": {"icao": "KEND", "iata": "END", "name": "Enid Vance Air Force Base", "shortName": "Vance Air Force Base", "municipalityName": "Enid", "location": {"lat": 36.3392, "lon": -97.9165}, "countryCode": "US"}, "averageDailyFlights": 0.14, "operators": [{"name": "TORA"}]}, {"destination": {"icao": "KFSK", "iata": "FSK", "name": "Fort Scott Municipal", "shortName": "Municipal", "municipalityName": "Fort Scott", "location": {"lat": 37.7984, "lon": -94.7694}, "countryCode": "US"}, "averageDailyFlights": 0.14, "operators": [{"name": "N2"}]}, {"destination": {"icao": "KJAC", "iata": "JAC", "name": "Jackson Hole", "shortName": "Hole", "municipalityName": "Jackson", "location": {"lat": 43.6073, "lon": -110.738}, "countryCode": "US"}, "averageDailyFlights": 0.14, "operators": [{"name": "NetJets Aviation", "iata": "1I", "icao": "EJA"}]}, {"destination": {"icao": "KMCI", "iata": "MCI", "name": "Kansas City ", "shortName": "Kansas City", "municipalityName": "Kansas City", "location": {"lat": 39.2976, "lon": -94.7139}, "countryCode": "US"}, "averageDailyFlights": 0.14, "operators": [{"name": "XSR"}]}, {"destination": {"icao": "KLCH", "iata": "LCH", "name": "Lake Charles Regional", "shortName": "Regional", "municipalityName": "Lake Charles", "location": {"lat": 30.1261, "lon": -93.2233}, "countryCode": "US"}, "averageDailyFlights": 0.14, "operators": [{"name": "American Airlines", "iata": "AA", "icao": "AAL"}]}, {"destination": {"icao": "KIXD", "iata": "JCI", "name": "Olathe New Century Aircenter", "shortName": "New Century Aircenter", "municipalityName": "Olathe", "location": {"lat": 38.8309, "lon": -94.8903}, "countryCode": "US"}, "averageDailyFlights": 0.14, "operators": [{"name": "XSR"}]}, {"destination": {"icao": "KSTL", "iata": "STL", "name": "Saint Louis Lambert St Louis", "shortName": "Lambert St Louis", "municipalityName": "Saint Louis", "location": {"lat": 38.7487, "lon": -90.37}, "countryCode": "US"}, "averageDailyFlights": 0.14, "operators": [{"name": "NetJets Aviation", "iata": "1I", "icao": "EJA"}]}, {"destination": {"icao": "KBFI", "iata": "BFI", "name": "Seattle Boeing Field King County", "shortName": "Boeing Field King County", "municipalityName": "Seattle", "location": {"lat": 47.53, "lon": -122.302}, "countryCode": "US"}, "averageDailyFlights": 0.14, "operators": [{"name": "KAI"}]}, {"destination": {"icao": "KICT", "iata": "ICT", "name": "Wichita Mid Continent", "shortName": "Mid Continent", "municipalityName": "Wichita", "location": {"lat": 37.6499, "lon": -97.4331}, "countryCode": "US"}, "averageDailyFlights": 0.14, "operators": [{"name": "NetJets Aviation", "iata": "1I", "icao": "EJA"}]}]}