{"routes": [{"destination": {"icao": "LEMD", "iata": "MAD", "name": "Madrid Adolfo Su\u00e1rez \u2013Barajas", "shortName": "Adolfo Su\u00e1rez \u2013Barajas", "municipalityName": "Madrid", "location": {"lat": 40.4936, "lon": -3.56676}, "countryCode": "ES"}, "averageDailyFlights": 4.57, "operators": [{"name": "Iberia", "iata": "IB", "icao": "IBE"}, {"name": "Ryanair", "iata": "FR", "icao": "RYR"}]}, {"destination": {"icao": "LEBL", "iata": "BCN", "name": "Barcelona ", "shortName": "Barcelona", "municipalityName": "Barcelona", "location": {"lat": 41.2971, "lon": 2.078459}, "countryCode": "ES"}, "averageDailyFlights": 3.86, "operators": [{"name": "Vueling", "iata": "VY", "icao": "VLG"}, {"name": "Ryanair", "iata": "FR", "icao": "RYR"}]}, {"destination": {"icao": "LEPA", "iata": "PMI", "name": "Palma De Mallorca ", "shortName": "Palma De Mallorca", "municipalityName": "Palma De Mallorca", "location": {"lat": 39.5517, "lon": 2.73881}, "countryCode": "ES"}, "averageDailyFlights": 2.86, "operators": [{"name": "Ryanair", "iata": "FR", "icao": "RYR"}, {"name": "Vueling", "iata": "VY", "icao": "VLG"}]}, {"destination": {"icao": "LEAL", "iata": "ALC", "name": "Alicante ", "shortName": "Alicante", "municipalityName": "Alicante", "location": {"lat": 38.2822, "lon": -0.558156}, "countryCode": "ES"}, "averageDailyFlights": 2.43, "operators": [{"name": "Ryanair", "iata": "FR", "icao": "RYR"}, {"name": "Vueling", "iata": "VY", "icao": "VLG"}]}, {"destination": {"icao": "LEZL", "iata": "SVQ", "name": "Seville Sevilla", "shortName": "Sevilla", "municipalityName": "Seville", "location": {"lat": 37.418, "lon": -5.893109}, "countryCode": "ES"}, "averageDailyFlights": 2.14, "operators": [{"name": "Vueling", "iata": "VY", "icao": "VLG"}, {"name": "Ryanair", "iata": "FR", "icao": "RYR"}]}, {"destination": {"icao": "LEBB", "iata": "BIO", "name": "Bilbao ", "shortName": "Bilbao", "municipalityName": "Bilbao", "location": {"lat": 43.3011, "lon": -2.910609}, "countryCode": "ES"}, "averageDailyFlights": 1.86, "operators": [{"name": "Iberia", "iata": "IB", "icao": "IBE"}, {"name": "Vueling", "iata": "VY", "icao": "VLG"}]}, {"destination": {"icao": "LEMG", "iata": "AGP", "name": "M\u00e1laga ", "shortName": "M\u00e1laga", "municipalityName": "M\u00e1laga", "location": {"lat": 36.6749, "lon": -4.49911}, "countryCode": "ES"}, "averageDailyFlights": 1.86, "operators": [{"name": "Vueling", "iata": "VY", "icao": "VLG"}, {"name": "Ryanair", "iata": "FR", "icao": "RYR"}]}, {"destination": {"icao": "GCRR", "iata": "ACE", "name": "Lanzarote Island Lanzarote", "shortName": "Lanzarote", "municipalityName": "Lanzarote Island", "location": {"lat": 28.9455, "lon": -13.605199}, "countryCode": "ES"}, "averageDailyFlights": 1.43, "operators": [{"name": "Vueling", "iata": "VY", "icao": "VLG"}, {"name": "Ryanair", "iata": "FR", "icao": "RYR"}]}, {"destination": {"icao": "GCLP", "iata": "LPA", "name": "Gran Canaria Island Gran Canaria", "shortName": "Gran Canaria", "municipalityName": "Gran Canaria Island", "location": {"lat": 27.9319, "lon": -15.386599}, "countryCode": "ES"}, "averageDailyFlights": 1.29, "operators": [{"name": "Vueling", "iata": "VY", "icao": "VLG"}, {"name": "Ryanair", "iata": "FR", "icao": "RYR"}]}, {"destination": {"icao": "EGKK", "iata": "LGW", "name": "London Gatwick", "shortName": "Gatwick", "municipalityName": "London", "location": {"lat": 51.1481, "lon": -0.190277}, "countryCode": "GB"}, "averageDailyFlights": 1.29, "operators": [{"name": "Vueling", "iata": "VY", "icao": "VLG"}, {"name": "easyJet", "iata": "U2", "icao": "EZY"}]}, {"destination": {"icao": "EIDW", "iata": "DUB", "name": "Dublin ", "shortName": "Dublin", "municipalityName": "Dublin", "location": {"lat": 53.4213, "lon": -6.27007}, "countryCode": "IE"}, "averageDailyFlights": 1.14, "operators": [{"name": "Aer Lingus", "iata": "EI", "icao": "EIN"}, {"name": "Ryanair", "iata": "FR", "icao": "RYR"}]}, {"destination": {"icao": "LSGG", "iata": "GVA", "name": "Geneva Cointrin", "shortName": "Cointrin", "municipalityName": "Geneva", "location": {"lat": 46.2381, "lon": 6.10895}, "countryCode": "CH"}, "averageDailyFlights": 1.14, "operators": [{"name": "easyJet", "iata": "U2", "icao": "EZY"}]}, {"destination": {"icao": "EGSS", "iata": "STN", "name": "London Stansted", "shortName": "Stansted", "municipalityName": "London", "location": {"lat": 51.885, "lon": 0.234999}, "countryCode": "GB"}, "averageDailyFlights": 1.14, "operators": [{"name": "Ryanair", "iata": "FR", "icao": "RYR"}]}, {"destination": {"icao": "GCTS", "iata": "TFS", "name": "Tenerife Island Tenerife South", "shortName": "Tenerife South", "municipalityName": "Tenerife Island", "location": {"lat": 28.0445, "lon": -16.5725}, "countryCode": "ES"}, "averageDailyFlights": 1.14, "operators": [{"name": "Ryanair", "iata": "FR", "icao": "RYR"}]}, {"destination": {"icao": "GCXO", "iata": "TFN", "name": "Tenerife Island Tenerife Norte", "shortName": "Tenerife Norte", "municipalityName": "Tenerife Island", "location": {"lat": 28.4827, "lon": -16.3415}, "countryCode": "ES"}, "averageDailyFlights": 1.14, "operators": [{"name": "Vueling", "iata": "VY", "icao": "VLG"}]}, {"destination": {"icao": "LEVC", "iata": "VLC", "name": "Valencia ", "shortName": "Valencia", "municipalityName": "Valencia", "location": {"lat": 39.4893, "lon": -0.481624}, "countryCode": "ES"}, "averageDailyFlights": 1.0, "operators": [{"name": "Ryanair", "iata": "FR", "icao": "RYR"}]}, {"destination": {"icao": "LFSB", "iata": "BSL", "name": "B\u00e2le/Mulhouse Euro Basel-Mulhouse-Freiburg", "shortName": "Euro Basel-Mulhouse-Freiburg", "municipalityName": "B\u00e2le/Mulhouse", "location": {"lat": 47.5896, "lon": 7.52991}, "countryCode": "FR"}, "averageDailyFlights": 0.86, "operators": [{"name": "easyJet", "iata": "U2", "icao": "EZY"}]}, {"destination": {"icao": "GCFV", "iata": "FUE", "name": "Fuerteventura Island Fuerteventura", "shortName": "Fuerteventura", "municipalityName": "Fuerteventura Island", "location": {"lat": 28.4527, "lon": -13.8638}, "countryCode": "ES"}, "averageDailyFlights": 0.71, "operators": [{"name": "Ryanair", "iata": "FR", "icao": "RYR"}, {"name": "Vueling", "iata": "VY", "icao": "VLG"}]}, {"destination": {"icao": "EHAM", "iata": "AMS", "name": "Amsterdam Schiphol", "shortName": "Schiphol", "municipalityName": "Amsterdam", "location": {"lat": 52.3086, "lon": 4.763889}, "countryCode": "NL"}, "averageDailyFlights": 0.43, "operators": [{"name": "Vueling", "iata": "VY", "icao": "VLG"}]}, {"destination": {"icao": "LIME", "iata": "BGY", "name": "Bergamo Orio al Serio", "shortName": "Orio al Serio", "municipalityName": "Bergamo", "location": {"lat": 45.6739, "lon": 9.70417}, "countryCode": "IT"}, "averageDailyFlights": 0.43, "operators": [{"name": "Ryanair", "iata": "FR", "icao": "RYR"}]}, {"destination": {"icao": "LIPE", "iata": "BLQ", "name": "Bologna Guglielmo Marconi", "shortName": "Guglielmo Marconi", "municipalityName": "Bologna", "location": {"lat": 44.5354, "lon": 11.2887}, "countryCode": "IT"}, "averageDailyFlights": 0.43, "operators": [{"name": "Ryanair", "iata": "FR", "icao": "RYR"}]}, {"destination": {"icao": "EDDF", "iata": "FRA", "name": "Frankfurt-am-Main ", "shortName": "Frankfurt-am-Main", "municipalityName": "Frankfurt-am-Main", "location": {"lat": 50.0264, "lon": 8.543129}, "countryCode": "DE"}, "averageDailyFlights": 0.43, "operators": [{"name": "Lufthansa", "iata": "LH", "icao": "DLH"}]}, {"destination": {"icao": "LFML", "iata": "MRS", "name": "Marseille Provence", "shortName": "Provence", "municipalityName": "Marseille", "location": {"lat": 43.43927, "lon": 5.221424}, "countryCode": "FR"}, "averageDailyFlights": 0.43, "operators": [{"name": "Ryanair", "iata": "FR", "icao": "RYR"}]}, {"destination": {"icao": "EDJA", "iata": "FMM", "name": "Memmingen Allgau", "shortName": "Allgau", "municipalityName": "Memmingen", "location": {"lat": 47.9888, "lon": 10.2395}, "countryCode": "DE"}, "averageDailyFlights": 0.43, "operators": [{"name": "Ryanair", "iata": "FR", "icao": "RYR"}]}, {"destination": {"icao": "LFPG", "iata": "CDG", "name": "Paris Charles de Gaulle", "shortName": "Charles de Gaulle", "municipalityName": "Paris", "location": {"lat": 49.0128, "lon": 2.549999}, "countryCode": "FR"}, "averageDailyFlights": 0.43, "operators": [{"name": "Vueling", "iata": "VY", "icao": "VLG"}, {"name": "Iberia", "iata": "IB", "icao": "IBE"}]}, {"destination": {"icao": "LFOB", "iata": "BVA", "name": "Beauvais/Till\u00e9 Paris Beauvais Till\u00e9", "shortName": "Paris Beauvais Till\u00e9", "municipalityName": "Beauvais/Till\u00e9", "location": {"lat": 49.4544, "lon": 2.11278}, "countryCode": "FR"}, "averageDailyFlights": 0.29, "operators": [{"name": "Ryanair", "iata": "FR", "icao": "RYR"}]}, {"destination": {"icao": "LFBD", "iata": "BOD", "name": "Bordeaux/M\u00e9rignac Bordeaux-M\u00e9rignac", "shortName": "Bordeaux-M\u00e9rignac", "municipalityName": "Bordeaux/M\u00e9rignac", "location": {"lat": 44.8283, "lon": -0.715556}, "countryCode": "FR"}, "averageDailyFlights": 0.29, "operators": [{"name": "Ryanair", "iata": "FR", "icao": "RYR"}]}, {"destination": {"icao": "EBCI", "iata": "CRL", "name": "Brussels South Charleroi", "shortName": "South Charleroi", "municipalityName": "Brussels", "location": {"lat": 50.4592, "lon": 4.45382}, "countryCode": "BE"}, "averageDailyFlights": 0.29, "operators": [{"name": "Ryanair", "iata": "FR", "icao": "RYR"}]}, {"destination": {"icao": "LEGE", "iata": "GRO", "name": "Girona ", "shortName": "Girona", "municipalityName": "Girona", "location": {"lat": 41.901, "lon": 2.76055}, "countryCode": "ES"}, "averageDailyFlights": 0.29, "operators": [{"name": "Ryanair", "iata": "FR", "icao": "RYR"}]}, {"destination": {"icao": "LEIB", "iata": "IBZ", "name": "Ibiza Town Ibiza", "shortName": "Ibiza", "municipalityName": "Ibiza Town", "location": {"lat": 38.8729, "lon": 1.373119}, "countryCode": "ES"}, "averageDailyFlights": 0.29, "operators": [{"name": "Ryanair", "iata": "FR", "icao": "RYR"}]}, {"destination": {"icao": "LEMH", "iata": "MAH", "name": "Menorca Island Menorca", "shortName": "Menorca", "municipalityName": "Menorca Island", "location": {"lat": 39.8626, "lon": 4.218649}, "countryCode": "ES"}, "averageDailyFlights": 0.29, "operators": [{"name": "Ryanair", "iata": "FR", "icao": "RYR"}]}, {"destination": {"icao": "LEZG", "iata": "ZAZ", "name": "Zaragoza Air Base", "shortName": "Air Base", "municipalityName": "Zaragoza", "location": {"lat": 41.6662, "lon": -1.04155}, "countryCode": "ES"}, "averageDailyFlights": 0.29, "operators": [{"name": "Ryanair", "iata": "FR", "icao": "RYR"}]}, {"destination": {"icao": "EGPH", "iata": "EDI", "name": "Edinburgh ", "shortName": "Edinburgh", "municipalityName": "Edinburgh", "location": {"lat": 55.95, "lon": -3.372499}, "countryCode": "GB"}, "averageDailyFlights": 0.14, "operators": [{"name": "Ryanair", "iata": "FR", "icao": "RYR"}]}, {"destination": {"icao": "HELX", "iata": "LXR", "name": "Luxor ", "shortName": "Luxor", "municipalityName": "Luxor", "location": {"lat": 25.671, "lon": 32.7066}, "countryCode": "EG"}, "averageDailyFlights": 0.14, "operators": [{"name": "EgyptAir", "iata": "MS", "icao": "MSR"}]}, {"destination": {"icao": "RJTT", "iata": "HND", "name": "Tokyo ", "shortName": "Tokyo", "municipalityName": "Tokyo", "location": {"lat": 35.5523, "lon": 139.78}, "countryCode": "JP"}, "averageDailyFlights": 0.14, "operators": [{"name": "AXY"}]}, {"destination": {"icao": "LSZH", "iata": "ZRH", "name": "Zurich Kloten", "shortName": "Kloten", "municipalityName": "Zurich", "location": {"lat": 47.4647, "lon": 8.549169}, "countryCode": "CH"}, "averageDailyFlights": 0.14, "operators": [{"name": "Iberia", "iata": "IB", "icao": "IBE"}]}]}