{"routes": [{"destination": {"icao": "MTPP", "iata": "PAP", "name": "Port-au-Prince Toussaint Louverture", "shortName": "Toussaint Louverture", "municipalityName": "Port-au-Prince", "location": {"lat": 18.58, "lon": -72.2925}, "countryCode": "HT"}, "averageDailyFlights": 2.29, "operators": [{"name": "Sunrise Airways", "iata": "S6", "icao": "KSZ"}]}, {"destination": {"icao": "KFLL", "iata": "FLL", "name": "Fort Lauderdale Hollywood", "shortName": "Hollywood", "municipalityName": "Fort Lauderdale", "location": {"lat": 26.0726, "lon": -80.1527}, "countryCode": "US"}, "averageDailyFlights": 0.14, "operators": [{"name": "Kabo Air", "iata": "N9", "icao": "QNK"}]}, {"destination": {"icao": "KMIA", "iata": "MIA", "name": "Miami ", "shortName": "Miami", "municipalityName": "Miami", "location": {"lat": 25.7932, "lon": -80.2906}, "countryCode": "US"}, "averageDailyFlights": 0.14, "operators": [{"name": "Papillon Airways", "iata": "HI"}]}, {"destination": {"icao": "KMCO", "iata": "MCO", "name": "Orlando ", "shortName": "Orlando", "municipalityName": "Orlando", "location": {"lat": 28.4294, "lon": -81.309}, "countryCode": "US"}, "averageDailyFlights": 0.14, "operators": [{"name": "Papillon Airways", "iata": "HI"}]}, {"destination": {"icao": "MBPV", "iata": "PLS", "name": "Providenciales Island Providenciales", "shortName": "Providenciales", "municipalityName": "Providenciales Island", "location": {"lat": 21.7736, "lon": -72.2659}, "countryCode": "TC"}, "averageDailyFlights": 0.14, "operators": [{"name": "Papillon Airways", "iata": "HI"}]}]}