{"routes": [{"destination": {"icao": "MMMX", "iata": "MEX", "name": "Mexico City Licenciado Benito Juarez", "shortName": "Licenciado Benito Juarez", "municipalityName": "Mexico City", "location": {"lat": 19.4363, "lon": -99.0721}, "countryCode": "MX"}, "averageDailyFlights": 4.43, "operators": [{"name": "Aeromexico", "iata": "AM", "icao": "AMX"}, {"name": "Volaris", "iata": "Y4", "icao": "VOI"}]}, {"destination": {"icao": "MMGL", "iata": "GDL", "name": "Guadalajara Don Miguel Hidalgo Y Costilla", "shortName": "Don Miguel Hidalgo Y Costilla", "municipalityName": "Guadalajara", "location": {"lat": 20.5218, "lon": -103.311}, "countryCode": "MX"}, "averageDailyFlights": 3.29, "operators": [{"name": "Volaris", "iata": "Y4", "icao": "VOI"}, {"name": "VivaAerobus", "iata": "VB", "icao": "VIV"}]}, {"destination": {"icao": "MMTJ", "iata": "TIJ", "name": "Tijuana General Abelardo L. Rodr\u00edguez", "shortName": "General Abelardo L. Rodr\u00edguez", "municipalityName": "Tijuana", "location": {"lat": 32.5411, "lon": -116.97}, "countryCode": "MX"}, "averageDailyFlights": 2.29, "operators": [{"name": "Volaris", "iata": "Y4", "icao": "VOI"}]}, {"destination": {"icao": "MMCL", "iata": "CUL", "name": "Culiac\u00e1n Bachigualato Federal", "shortName": "Bachigualato Federal", "municipalityName": "Culiac\u00e1n", "location": {"lat": 24.7645, "lon": -107.475}, "countryCode": "MX"}, "averageDailyFlights": 1.0, "operators": [{"name": "TAR Aerolineas", "iata": "YQ", "icao": "LCT"}, {"name": "VivaAerobus", "iata": "VB", "icao": "VIV"}]}, {"destination": {"icao": "MMHO", "iata": "HMO", "name": "Hermosillo General Ignacio P. Garcia", "shortName": "General Ignacio P. Garcia", "municipalityName": "Hermosillo", "location": {"lat": 29.0959, "lon": -111.048}, "countryCode": "MX"}, "averageDailyFlights": 0.57, "operators": [{"name": "TAR Aerolineas", "iata": "YQ", "icao": "LCT"}]}, {"destination": {"icao": "MMMZ", "iata": "MZT", "name": "Mazatl\u00e1n General Rafael Buelna", "shortName": "General Rafael Buelna", "municipalityName": "Mazatl\u00e1n", "location": {"lat": 23.1614, "lon": -106.266}, "countryCode": "MX"}, "averageDailyFlights": 0.43, "operators": [{"name": "TAR Aerolineas", "iata": "YQ", "icao": "LCT"}]}, {"destination": {"name": "Santa-Lyuchiya"}, "averageDailyFlights": 0.43, "operators": [{"name": "Volaris", "iata": "Y4", "icao": "VOI"}]}, {"destination": {"icao": "KSDL", "iata": "SCF", "name": "Scottsdale ", "shortName": "Scottsdale", "municipalityName": "Scottsdale", "location": {"lat": 33.6229, "lon": -111.911}, "countryCode": "US"}, "averageDailyFlights": 0.14, "operators": [{"name": "LXJ"}]}]}