{"routes": [{"destination": {"icao": "MYNN", "iata": "NAS", "name": "Nassau Lynden Pindling", "shortName": "Lynden Pindling", "municipalityName": "Nassau", "location": {"lat": 25.039, "lon": -77.4662}, "countryCode": "BS"}, "averageDailyFlights": 2.88, "operators": [{"name": "Southern Air Charter", "iata": "PL", "icao": "SOA"}, {"name": "Bahamasair", "iata": "UP", "icao": "BHS"}]}, {"destination": {"icao": "KFXE", "iata": "FXE", "name": "Fort Lauderdale Executive", "shortName": "Executive", "municipalityName": "Fort Lauderdale", "location": {"lat": 26.197298, "lon": -80.1707}, "countryCode": "US"}, "averageDailyFlights": 0.57, "operators": [{"name": "WMA"}, {"name": "GAJ"}]}, {"destination": {"icao": "MYEM", "iata": "GHB", "name": "Governor's Harbour ", "shortName": "Governor's Harbour", "municipalityName": "Governor's Harbour", "location": {"lat": 25.2847, "lon": -76.331}, "countryCode": "BS"}, "averageDailyFlights": 0.57, "operators": [{"name": "Bahamasair", "iata": "UP", "icao": "BHS"}]}, {"destination": {"icao": "MYEH", "iata": "ELH", "name": "North Eleuthera ", "shortName": "North Eleuthera", "municipalityName": "North Eleuthera", "location": {"lat": 25.4749, "lon": -76.6835}, "countryCode": "BS"}, "averageDailyFlights": 0.57, "operators": [{"name": "Bahamasair", "iata": "UP", "icao": "BHS"}]}, {"destination": {"icao": "MYEF", "iata": "GGT", "name": "George Town Exuma", "shortName": "Exuma", "municipalityName": "George Town", "location": {"lat": 23.5626, "lon": -75.878}, "countryCode": "BS"}, "averageDailyFlights": 0.43, "operators": [{"name": "Bahamasair", "iata": "UP", "icao": "BHS"}]}, {"destination": {"icao": "KPBI", "iata": "PBI", "name": "West Palm Beach Palm Beach", "shortName": "Palm Beach", "municipalityName": "West Palm Beach", "location": {"lat": 26.6832, "lon": -80.0956}, "countryCode": "US"}, "averageDailyFlights": 0.14, "operators": [{"name": "GMH"}]}]}