{"routes": [{"destination": {"icao": "YBBN", "iata": "BNE", "name": "Brisbane City Brisbane", "shortName": "Brisbane", "municipalityName": "Brisbane City", "location": {"lat": -27.3842, "lon": 153.117}, "countryCode": "AU"}, "averageDailyFlights": 1.0, "operators": [{"name": "Virgin Australia", "iata": "VA", "icao": "VOZ"}, {"name": "Air Vanuatu", "iata": "NF", "icao": "AVN"}]}, {"destination": {"icao": "NFFN", "iata": "NAN", "name": "Nadi ", "shortName": "Nadi", "municipalityName": "Nadi", "location": {"lat": -17.7554, "lon": 177.443}, "countryCode": "FJ"}, "averageDailyFlights": 0.86, "operators": [{"name": "Fiji Airways", "iata": "FJ", "icao": "FJI"}]}, {"destination": {"icao": "YSSY", "iata": "SYD", "name": "Sydney City Sydney Kingsford Smith", "shortName": "Sydney Kingsford Smith", "municipalityName": "Sydney City", "location": {"lat": -33.9461, "lon": 151.177}, "countryCode": "AU"}, "averageDailyFlights": 0.86, "operators": [{"name": "Air Vanuatu", "iata": "NF", "icao": "AVN"}]}, {"destination": {"icao": "NVSO", "iata": "LNE", "name": "Lonorore ", "shortName": "Lonorore", "municipalityName": "Lonorore", "location": {"lat": -15.865599, "lon": 168.172}, "countryCode": "VU"}, "averageDailyFlights": 0.71, "operators": [{"name": "Air Vanuatu", "iata": "NF", "icao": "AVN"}]}, {"destination": {"icao": "NVSP", "iata": "NUS", "name": "Norsup ", "shortName": "Norsup", "municipalityName": "Norsup", "location": {"lat": -16.0797, "lon": 167.401}, "countryCode": "VU"}, "averageDailyFlights": 0.71, "operators": [{"name": "Air Vanuatu", "iata": "NF", "icao": "AVN"}]}, {"destination": {"icao": "NZAA", "iata": "AKL", "name": "Auckland ", "shortName": "Auckland", "municipalityName": "Auckland", "location": {"lat": -37.0081, "lon": 174.792}, "countryCode": "NZ"}, "averageDailyFlights": 0.57, "operators": [{"name": "Air Vanuatu", "iata": "NF", "icao": "AVN"}]}, {"destination": {"icao": "NVSM", "iata": "LNB", "name": "Lamen Bay ", "shortName": "Lamen Bay", "municipalityName": "Lamen Bay", "location": {"lat": -16.5842, "lon": 168.159}, "countryCode": "VU"}, "averageDailyFlights": 0.57, "operators": [{"name": "Air Vanuatu", "iata": "NF", "icao": "AVN"}]}, {"destination": {"icao": "NVSF", "iata": "CCV", "name": "Craig Cove ", "shortName": "Craig Cove", "municipalityName": "Craig Cove", "location": {"lat": -16.265, "lon": 167.924}, "countryCode": "VU"}, "averageDailyFlights": 0.43, "operators": [{"name": "Air Vanuatu", "iata": "NF", "icao": "AVN"}]}, {"destination": {"icao": "NVSE", "iata": "EAE", "name": "Emae Island Siwo", "shortName": "Siwo", "municipalityName": "Emae Island", "location": {"lat": -17.0903, "lon": 168.343}, "countryCode": "VU"}, "averageDailyFlights": 0.29, "operators": [{"name": "Air Vanuatu", "iata": "NF", "icao": "AVN"}]}, {"destination": {"icao": "NVSV", "iata": "VLS", "name": "Epi Island Valesdir", "shortName": "Valesdir", "municipalityName": "Epi Island", "location": {"lat": -16.7961, "lon": 168.177}, "countryCode": "VU"}, "averageDailyFlights": 0.29, "operators": [{"name": "Air Vanuatu", "iata": "NF", "icao": "AVN"}]}, {"destination": {"icao": "AGGH", "iata": "HIR", "name": "Honiara ", "shortName": "Honiara", "municipalityName": "Honiara", "location": {"lat": -9.428, "lon": 160.055}, "countryCode": "SB"}, "averageDailyFlights": 0.29, "operators": [{"name": "Solomon Airlines", "iata": "IE", "icao": "SOL"}]}, {"destination": {"icao": "NVSS", "iata": "SON", "name": "Luganville Santo Pekoa", "shortName": "Santo Pekoa", "municipalityName": "Luganville", "location": {"lat": -15.505, "lon": 167.22}, "countryCode": "VU"}, "averageDailyFlights": 0.29, "operators": [{"name": "Air Vanuatu", "iata": "NF", "icao": "AVN"}]}, {"destination": {"icao": "NWWW", "iata": "NOU", "name": "Noum\u00e9a La Tontouta", "shortName": "La Tontouta", "municipalityName": "Noum\u00e9a", "location": {"lat": -22.0146, "lon": 166.213}, "countryCode": "NC"}, "averageDailyFlights": 0.29, "operators": [{"name": "Aircalin", "iata": "SB", "icao": "ACI"}]}, {"destination": {"icao": "NVVI", "iata": "IPA", "name": "Ipota ", "shortName": "Ipota", "municipalityName": "Ipota", "location": {"lat": -18.856388, "lon": 169.28334}, "countryCode": "VU"}, "averageDailyFlights": 0.14, "operators": [{"name": "Air Vanuatu", "iata": "NF", "icao": "AVN"}]}, {"destination": {"icao": "NVSL", "iata": "LPM", "name": "Lamap ", "shortName": "Lamap", "municipalityName": "Lamap", "location": {"lat": -16.454, "lon": 167.823}, "countryCode": "VU"}, "averageDailyFlights": 0.14, "operators": [{"name": "Air Vanuatu", "iata": "NF", "icao": "AVN"}]}, {"destination": {"icao": "NVSX", "iata": "SWJ", "name": "Malekula Island Southwest Bay", "shortName": "Southwest Bay", "municipalityName": "Malekula Island", "location": {"lat": -16.4864, "lon": 167.4472}, "countryCode": "VU"}, "averageDailyFlights": 0.14, "operators": [{"name": "Air Vanuatu", "iata": "NF", "icao": "AVN"}]}, {"destination": {"icao": "YMML", "iata": "MEL", "name": "Melbourne City Melbourne", "shortName": "Melbourne", "municipalityName": "Melbourne City", "location": {"lat": -37.6733, "lon": 144.843}, "countryCode": "AU"}, "averageDailyFlights": 0.14, "operators": [{"name": "Air Vanuatu", "iata": "NF", "icao": "AVN"}]}, {"destination": {"icao": "NVSI", "iata": "PBJ", "name": "Paama Island Tavie", "shortName": "Tavie", "municipalityName": "Paama Island", "location": {"lat": -16.439, "lon": 168.257}, "countryCode": "VU"}, "averageDailyFlights": 0.14, "operators": [{"name": "Air Vanuatu", "iata": "NF", "icao": "AVN"}]}]}