{"routes": [{"destination": {"icao": "OERK", "iata": "RUH", "name": "Riyadh King Khaled", "shortName": "King Khaled", "municipalityName": "Riyadh", "location": {"lat": 24.9576, "lon": 46.6988}, "countryCode": "SA"}, "averageDailyFlights": 57.14, "operators": [{"name": "flyadeal", "iata": "F3", "icao": "FAD"}, {"name": "Saudi Arabian Airlines", "iata": "SV", "icao": "SVA"}, {"name": "flynas", "iata": "XY", "icao": "KNE"}]}, {"destination": {"icao": "HECA", "iata": "CAI", "name": "Cairo ", "shortName": "Cairo", "municipalityName": "Cairo", "location": {"lat": 30.1219, "lon": 31.4056}, "countryCode": "EG"}, "averageDailyFlights": 29.14, "operators": [{"name": "EgyptAir", "iata": "MS", "icao": "MSR"}, {"name": "Saudi Arabian Airlines", "iata": "SV", "icao": "SVA"}, {"name": "flyadeal", "iata": "F3", "icao": "FAD"}, {"name": "flynas", "iata": "XY", "icao": "KNE"}, {"name": "Air Arabia Egypt", "iata": "E5", "icao": "RBG"}, {"name": "Air Cairo", "iata": "SM", "icao": "MSC"}, {"name": "Nesma Airlines", "iata": "NA", "icao": "NSS"}, {"name": "FlyEgypt", "iata": "FT", "icao": "FEG"}, {"name": "Nile Air", "iata": "NP", "icao": "NIA"}]}, {"destination": {"icao": "OEDF", "iata": "DMM", "name": "Ad Dammam King Fahd", "shortName": "King Fahd", "municipalityName": "Ad Dammam", "location": {"lat": 26.4712, "lon": 49.7979}, "countryCode": "SA"}, "averageDailyFlights": 22.29, "operators": [{"name": "Saudi Arabian Airlines", "iata": "SV", "icao": "SVA"}, {"name": "flynas", "iata": "XY", "icao": "KNE"}, {"name": "flyadeal", "iata": "F3", "icao": "FAD"}]}, {"destination": {"icao": "OMDB", "iata": "DXB", "name": "Dubai ", "shortName": "Dubai", "municipalityName": "Dubai", "location": {"lat": 25.252798, "lon": 55.3644}, "countryCode": "AE"}, "averageDailyFlights": 16.86, "operators": [{"name": "Saudi Arabian Airlines", "iata": "SV", "icao": "SVA"}, {"name": "Emirates", "iata": "EK", "icao": "UAE"}, {"name": "flydubai", "iata": "FZ", "icao": "FDB"}, {"name": "flynas", "iata": "XY", "icao": "KNE"}]}, {"destination": {"icao": "OEGN", "iata": "GIZ", "name": "Jazan Jizan Regional", "shortName": "Jizan Regional", "municipalityName": "Jazan", "location": {"lat": 16.9011, "lon": 42.5858}, "countryCode": "SA"}, "averageDailyFlights": 11.14, "operators": [{"name": "Saudi Arabian Airlines", "iata": "SV", "icao": "SVA"}, {"name": "flynas", "iata": "XY", "icao": "KNE"}, {"name": "flyadeal", "iata": "F3", "icao": "FAD"}]}, {"destination": {"icao": "OKBK", "iata": "KWI", "name": "Kuwait City Kuwait", "shortName": "Kuwait", "municipalityName": "Kuwait City", "location": {"lat": 29.2266, "lon": 47.9689}, "countryCode": "KW"}, "averageDailyFlights": 6.9, "operators": [{"name": "Kuwait Airways", "iata": "KU", "icao": "KAC"}, {"name": "Saudi Arabian Airlines", "iata": "SV", "icao": "SVA"}, {"name": "Jazeera Airways", "iata": "J9", "icao": "JZR"}, {"name": "Emirates", "iata": "EK", "icao": "UAE"}]}, {"destination": {"icao": "OOMS", "iata": "MCT", "name": "Muscat ", "shortName": "Muscat", "municipalityName": "Muscat", "location": {"lat": 23.5933, "lon": 58.2844}, "countryCode": "OM"}, "averageDailyFlights": 5.86, "operators": [{"name": "Saudi Arabian Airlines", "iata": "SV", "icao": "SVA"}, {"name": "Oman Air", "iata": "WY", "icao": "OMA"}, {"name": "SalamAir", "iata": "OV", "icao": "OMS"}]}, {"destination": {"icao": "VGHS", "iata": "DAC", "name": "Dhaka Hazrat Shahjalal", "shortName": "Hazrat Shahjalal", "municipalityName": "Dhaka", "location": {"lat": 23.843348, "lon": 90.39778}, "countryCode": "BD"}, "averageDailyFlights": 5.71, "operators": [{"name": "Biman Bangladesh Airlines", "iata": "BG", "icao": "BBC"}, {"name": "Saudi Arabian Airlines", "iata": "SV", "icao": "SVA"}]}, {"destination": {"icao": "OTHH", "iata": "DOH", "name": "Doha Hamad", "shortName": "Hamad", "municipalityName": "Doha", "location": {"lat": 25.273056, "lon": 51.608055}, "countryCode": "QA"}, "averageDailyFlights": 5.71, "operators": [{"name": "Qatar Airways", "iata": "QR", "icao": "QTR"}, {"name": "flynas", "iata": "XY", "icao": "KNE"}]}, {"destination": {"icao": "OEAB", "iata": "AHB", "name": "Abha Regional", "shortName": "Regional", "municipalityName": "Abha", "location": {"lat": 18.2404, "lon": 42.6566}, "countryCode": "SA"}, "averageDailyFlights": 5.5, "operators": [{"name": "flyadeal", "iata": "F3", "icao": "FAD"}, {"name": "Saudi Arabian Airlines", "iata": "SV", "icao": "SVA"}, {"name": "flynas", "iata": "XY", "icao": "KNE"}]}, {"destination": {"icao": "OBBI", "iata": "BAH", "name": "Manama Bahrain", "shortName": "Bahrain", "municipalityName": "Manama", "location": {"lat": 26.2708, "lon": 50.6336}, "countryCode": "BH"}, "averageDailyFlights": 5.14, "operators": [{"name": "Saudi Arabian Airlines", "iata": "SV", "icao": "SVA"}, {"name": "Gulf Air", "iata": "GF", "icao": "GFA"}]}, {"destination": {"icao": "VABB", "iata": "BOM", "name": "Mumbai Chhatrapati Shivaji", "shortName": "Chhatrapati Shivaji", "municipalityName": "Mumbai", "location": {"lat": 19.0887, "lon": 72.8679}, "countryCode": "IN"}, "averageDailyFlights": 5.14, "operators": [{"name": "Saudi Arabian Airlines", "iata": "SV", "icao": "SVA"}, {"name": "Vistara", "iata": "UK", "icao": "VTI"}, {"name": "IndiGo", "iata": "6E", "icao": "IGO"}, {"name": "Air India", "iata": "AI", "icao": "AIC"}, {"name": "Air India Express", "iata": "IX", "icao": "AXB"}, {"name": "SpiceJet", "iata": "SG", "icao": "SEJ"}]}, {"destination": {"icao": "HEBA", "iata": "HBE", "name": "Alexandria Borg El Arab", "shortName": "Borg El Arab", "municipalityName": "Alexandria", "location": {"lat": 30.9177, "lon": 29.6964}, "countryCode": "EG"}, "averageDailyFlights": 5.0, "operators": [{"name": "Saudi Arabian Airlines", "iata": "SV", "icao": "SVA"}, {"name": "Air Cairo", "iata": "SM", "icao": "MSC"}, {"name": "Air Arabia Egypt", "iata": "E5", "icao": "RBG"}, {"name": "EgyptAir", "iata": "MS", "icao": "MSR"}]}, {"destination": {"icao": "OPLA", "iata": "LHE", "name": "Lahore Alama Iqbal", "shortName": "Alama Iqbal", "municipalityName": "Lahore", "location": {"lat": 31.5216, "lon": 74.4036}, "countryCode": "PK"}, "averageDailyFlights": 4.86, "operators": [{"name": "Saudi Arabian Airlines", "iata": "SV", "icao": "SVA"}, {"name": "Serene Air", "iata": "ER", "icao": "SEP"}, {"name": "Air Sial", "iata": "PF"}, {"name": "Pakistan International Airlines", "iata": "PK", "icao": "PIA"}, {"name": "Airblue", "iata": "PA", "icao": "ABQ"}]}, {"destination": {"icao": "OJAI", "iata": "AMM", "name": "Amman Queen Alia", "shortName": "Queen Alia", "municipalityName": "Amman", "location": {"lat": 31.7226, "lon": 35.9932}, "countryCode": "JO"}, "averageDailyFlights": 4.57, "operators": [{"name": "Saudi Arabian Airlines", "iata": "SV", "icao": "SVA"}, {"name": "flynas", "iata": "XY", "icao": "KNE"}, {"name": "flyadeal", "iata": "F3", "icao": "FAD"}, {"name": "Royal Jordanian", "iata": "RJ", "icao": "RJA"}]}, {"destination": {"icao": "OEMA", "iata": "MED", "name": "Medina Prince Mohammad Bin Abdulaziz", "shortName": "Prince Mohammad Bin Abdulaziz", "municipalityName": "Medina", "location": {"lat": 24.5534, "lon": 39.7051}, "countryCode": "SA"}, "averageDailyFlights": 4.57, "operators": [{"name": "Saudi Arabian Airlines", "iata": "SV", "icao": "SVA"}]}, {"destination": {"icao": "OPKC", "iata": "KHI", "name": "Karanchi Jinnah", "shortName": "Jinnah", "municipalityName": "Karanchi", "location": {"lat": 24.9065, "lon": 67.1608}, "countryCode": "PK"}, "averageDailyFlights": 4.43, "operators": [{"name": "Saudi Arabian Airlines", "iata": "SV", "icao": "SVA"}, {"name": "flynas", "iata": "XY", "icao": "KNE"}, {"name": "Serene Air", "iata": "ER", "icao": "SEP"}, {"name": "Pakistan International Airlines", "iata": "PK", "icao": "PIA"}]}, {"destination": {"icao": "OPIS", "iata": "ISB", "name": "Islamabad ", "shortName": "Islamabad", "municipalityName": "Islamabad", "location": {"lat": 33.549, "lon": 72.82566}, "countryCode": "PK"}, "averageDailyFlights": 4.14, "operators": [{"name": "Pakistan International Airlines", "iata": "PK", "icao": "PIA"}, {"name": "Saudi Arabian Airlines", "iata": "SV", "icao": "SVA"}, {"name": "Air Sial", "iata": "PF"}, {"name": "Serene Air", "iata": "ER", "icao": "SEP"}, {"name": "Airblue", "iata": "PA", "icao": "ABQ"}]}, {"destination": {"icao": "OMAA", "iata": "AUH", "name": "Abu Dhabi Island and Internal Islands City Abu Dhabi", "shortName": "Abu Dhabi", "municipalityName": "Abu Dhabi Island and Internal Islands City", "location": {"lat": 24.433, "lon": 54.6511}, "countryCode": "AE"}, "averageDailyFlights": 4.0, "operators": [{"name": "Etihad Airways", "iata": "EY", "icao": "ETD"}, {"name": "Saudi Arabian Airlines", "iata": "SV", "icao": "SVA"}]}, {"destination": {"icao": "LTFJ", "iata": "SAW", "name": "Istanbul Sabiha G\u00f6k\u00e7en", "shortName": "Sabiha G\u00f6k\u00e7en", "municipalityName": "Istanbul", "location": {"lat": 40.8986, "lon": 29.3092}, "countryCode": "TR"}, "averageDailyFlights": 3.57, "operators": [{"name": "Pegasus", "iata": "PC", "icao": "PGT"}, {"name": "Turkish Airlines", "iata": "TK", "icao": "THY"}, {"name": "flynas", "iata": "XY", "icao": "KNE"}]}, {"destination": {"icao": "WIII", "iata": "CGK", "name": "Jakarta Soekarno-Hatta", "shortName": "Soekarno-Hatta", "municipalityName": "Jakarta", "location": {"lat": -6.125569, "lon": 106.656}, "countryCode": "ID"}, "averageDailyFlights": 3.57, "operators": [{"name": "Saudi Arabian Airlines", "iata": "SV", "icao": "SVA"}, {"name": "Lion Air", "iata": "JT", "icao": "LNI"}, {"name": "Garuda Indonesia", "iata": "GA", "icao": "GIA"}]}, {"destination": {"icao": "LTFM", "iata": "IST", "name": "Istanbul ", "shortName": "Istanbul", "municipalityName": "Istanbul", "location": {"lat": 41.275276, "lon": 28.751944}, "countryCode": "TR"}, "averageDailyFlights": 3.45, "operators": [{"name": "Saudi Arabian Airlines", "iata": "SV", "icao": "SVA"}, {"name": "flyadeal", "iata": "F3", "icao": "FAD"}]}, {"destination": {"icao": "OLBA", "iata": "BEY", "name": "Beirut Rafic Hariri", "shortName": "Rafic Hariri", "municipalityName": "Beirut", "location": {"lat": 33.8209, "lon": 35.4884}, "countryCode": "LB"}, "averageDailyFlights": 3.0, "operators": [{"name": "Saudi Arabian Airlines", "iata": "SV", "icao": "SVA"}, {"name": "Middle East Airlines", "iata": "ME", "icao": "MEA"}]}, {"destination": {"icao": "HAAB", "iata": "ADD", "name": "Addis Ababa Bole", "shortName": "Bole", "municipalityName": "Addis Ababa", "location": {"lat": 8.97789, "lon": 38.7993}, "countryCode": "ET"}, "averageDailyFlights": 2.86, "operators": [{"name": "Ethiopian Airlines", "iata": "ET", "icao": "ETH"}, {"name": "Saudi Arabian Airlines", "iata": "SV", "icao": "SVA"}]}, {"destination": {"icao": "VOHS", "iata": "HYD", "name": "Hyderabad Rajiv Gandhi", "shortName": "Rajiv Gandhi", "municipalityName": "Hyderabad", "location": {"lat": 17.231318, "lon": 78.429855}, "countryCode": "IN"}, "averageDailyFlights": 2.86, "operators": [{"name": "IndiGo", "iata": "6E", "icao": "IGO"}, {"name": "Air India", "iata": "AI", "icao": "AIC"}, {"name": "Saudi Arabian Airlines", "iata": "SV", "icao": "SVA"}]}, {"destination": {"icao": "VOCL", "iata": "CCJ", "name": "Calicut ", "shortName": "Calicut", "municipalityName": "Calicut", "location": {"lat": 11.136799, "lon": 75.9553}, "countryCode": "IN"}, "averageDailyFlights": 2.71, "operators": [{"name": "SpiceJet", "iata": "SG", "icao": "SEJ"}, {"name": "Air India Express", "iata": "IX", "icao": "AXB"}, {"name": "IndiGo", "iata": "6E", "icao": "IGO"}]}, {"destination": {"icao": "VIDP", "iata": "DEL", "name": "New Delhi Indira Gandhi", "shortName": "Indira Gandhi", "municipalityName": "New Delhi", "location": {"lat": 28.5665, "lon": 77.1031}, "countryCode": "IN"}, "averageDailyFlights": 2.71, "operators": [{"name": "Saudi Arabian Airlines", "iata": "SV", "icao": "SVA"}, {"name": "IndiGo", "iata": "6E", "icao": "IGO"}, {"name": "Air India", "iata": "AI", "icao": "AIC"}]}, {"destination": {"icao": "WMKK", "iata": "KUL", "name": "Kuala Lumpur ", "shortName": "Kuala Lumpur", "municipalityName": "Kuala Lumpur", "location": {"lat": 2.745579, "lon": 101.71}, "countryCode": "MY"}, "averageDailyFlights": 2.57, "operators": [{"name": "Saudi Arabian Airlines", "iata": "SV", "icao": "SVA"}, {"name": "Malaysia Airlines", "iata": "MH", "icao": "MAS"}]}, {"destination": {"icao": "WARR", "iata": "SUB", "name": "Surabaya Juanda", "shortName": "Juanda", "municipalityName": "Surabaya", "location": {"lat": -7.379829, "lon": 112.787}, "countryCode": "ID"}, "averageDailyFlights": 2.43, "operators": [{"name": "Lion Air", "iata": "JT", "icao": "LNI"}]}, {"destination": {"icao": "HSSS", "iata": "KRT", "name": "Khartoum ", "shortName": "Khartoum", "municipalityName": "Khartoum", "location": {"lat": 15.5895, "lon": 32.5532}, "countryCode": "SD"}, "averageDailyFlights": 2.29, "operators": [{"name": "Tarco Aviation", "iata": "3T", "icao": "TRQ"}]}, {"destination": {"icao": "OMSJ", "iata": "SHJ", "name": "Sharjah ", "shortName": "Sharjah", "municipalityName": "Sharjah", "location": {"lat": 25.3286, "lon": 55.5172}, "countryCode": "AE"}, "averageDailyFlights": 2.29, "operators": [{"name": "Air Arabia", "iata": "G9", "icao": "ABY"}]}, {"destination": {"icao": "HEMK", "iata": "HMB", "name": "Sohag ", "shortName": "Sohag", "municipalityName": "Sohag", "location": {"lat": 26.342777, "lon": 31.742777}, "countryCode": "EG"}, "averageDailyFlights": 2.14, "operators": [{"name": "Air Cairo", "iata": "SM", "icao": "MSC"}, {"name": "flynas", "iata": "XY", "icao": "KNE"}, {"name": "Nesma Airlines", "iata": "NA", "icao": "NSS"}, {"name": "Nile Air", "iata": "NP", "icao": "NIA"}]}, {"destination": {"icao": "GMMN", "iata": "CMN", "name": "Casablanca Mohammed V", "shortName": "Mohammed V", "municipalityName": "Casablanca", "location": {"lat": 33.3675, "lon": -7.58997}, "countryCode": "MA"}, "averageDailyFlights": 2.0, "operators": [{"name": "Saudi Arabian Airlines", "iata": "SV", "icao": "SVA"}, {"name": "Royal Air Maroc", "iata": "AT", "icao": "RAM"}]}, {"destination": {"icao": "HEAT", "iata": "ATZ", "name": "Assiut ", "shortName": "Assiut", "municipalityName": "Assiut", "location": {"lat": 27.0465, "lon": 31.012}, "countryCode": "EG"}, "averageDailyFlights": 1.43, "operators": [{"name": "Air Cairo", "iata": "SM", "icao": "MSC"}, {"name": "Nesma Airlines", "iata": "NA", "icao": "NSS"}]}, {"destination": {"icao": "VTBS", "iata": "BKK", "name": "Bangkok Suvarnabhumi", "shortName": "Suvarnabhumi", "municipalityName": "Bangkok", "location": {"lat": 13.681099, "lon": 100.747}, "countryCode": "TH"}, "averageDailyFlights": 1.29, "operators": [{"name": "Saudi Arabian Airlines", "iata": "SV", "icao": "SVA"}]}, {"destination": {"icao": "HESH", "iata": "SSH", "name": "Sharm el Sheikh ", "shortName": "Sharm el Sheikh", "municipalityName": "Sharm el Sheikh", "location": {"lat": 27.9773, "lon": 34.395}, "countryCode": "EG"}, "averageDailyFlights": 1.29, "operators": [{"name": "Saudi Arabian Airlines", "iata": "SV", "icao": "SVA"}, {"name": "flynas", "iata": "XY", "icao": "KNE"}]}, {"destination": {"icao": "OESK", "iata": "AJF", "name": "Al-Jawf Domestic", "shortName": "Domestic", "municipalityName": "Al-Jawf", "location": {"lat": 29.7851, "lon": 40.1}, "countryCode": "SA"}, "averageDailyFlights": 1.14, "operators": [{"name": "Saudi Arabian Airlines", "iata": "SV", "icao": "SVA"}]}, {"destination": {"icao": "LFPG", "iata": "CDG", "name": "Paris Charles de Gaulle", "shortName": "Charles de Gaulle", "municipalityName": "Paris", "location": {"lat": 49.0128, "lon": 2.549999}, "countryCode": "FR"}, "averageDailyFlights": 1.14, "operators": [{"name": "Saudi Arabian Airlines", "iata": "SV", "icao": "SVA"}]}, {"destination": {"icao": "DTTA", "iata": "TUN", "name": "Tunis Carthage", "shortName": "Carthage", "municipalityName": "Tunis", "location": {"lat": 36.851, "lon": 10.227199}, "countryCode": "TN"}, "averageDailyFlights": 1.14, "operators": [{"name": "Saudi Arabian Airlines", "iata": "SV", "icao": "SVA"}]}, {"destination": {"icao": "DAAG", "iata": "ALG", "name": "Algiers Houari Boumediene", "shortName": "Houari Boumediene", "municipalityName": "Algiers", "location": {"lat": 36.691, "lon": 3.215409}, "countryCode": "DZ"}, "averageDailyFlights": 1.0, "operators": [{"name": "Saudi Arabian Airlines", "iata": "SV", "icao": "SVA"}, {"name": "Air Algerie", "iata": "AH", "icao": "DAH"}]}, {"destination": {"icao": "LIMC", "iata": "MXP", "name": "Milan Malpensa", "shortName": "Malpensa", "municipalityName": "Milan", "location": {"lat": 45.6306, "lon": 8.72811}, "countryCode": "IT"}, "averageDailyFlights": 1.0, "operators": [{"name": "Saudi Arabian Airlines", "iata": "SV", "icao": "SVA"}, {"name": "Wizz Air", "iata": "W6", "icao": "WZZ"}]}, {"destination": {"icao": "OPPS", "iata": "PEW", "name": "Peshawar ", "shortName": "Peshawar", "municipalityName": "Peshawar", "location": {"lat": 33.9939, "lon": 71.5146}, "countryCode": "PK"}, "averageDailyFlights": 1.0, "operators": [{"name": "Saudi Arabian Airlines", "iata": "SV", "icao": "SVA"}, {"name": "Serene Air", "iata": "ER", "icao": "SEP"}, {"name": "Pakistan International Airlines", "iata": "PK", "icao": "PIA"}]}, {"destination": {"icao": "LIRF", "iata": "FCO", "name": "Rome Leonardo da Vinci\u2013Fiumicino", "shortName": "Leonardo da Vinci\u2013Fiumicino", "municipalityName": "Rome", "location": {"lat": 41.8045, "lon": 12.2508}, "countryCode": "IT"}, "averageDailyFlights": 1.0, "operators": [{"name": "Wizz Air", "iata": "W6", "icao": "WZZ"}, {"name": "Saudi Arabian Airlines", "iata": "SV", "icao": "SVA"}]}, {"destination": {"icao": "UGTB", "iata": "TBS", "name": "Tbilisi ", "shortName": "Tbilisi", "municipalityName": "Tbilisi", "location": {"lat": 41.6692, "lon": 44.9547}, "countryCode": "GE"}, "averageDailyFlights": 1.0, "operators": [{"name": "flynas", "iata": "XY", "icao": "KNE"}]}, {"destination": {"icao": "LTCG", "iata": "TZX", "name": "Trabzon ", "shortName": "Trabzon", "municipalityName": "Trabzon", "location": {"lat": 40.9951, "lon": 39.7897}, "countryCode": "TR"}, "averageDailyFlights": 1.0, "operators": [{"name": "Pegasus", "iata": "PC", "icao": "PGT"}, {"name": "flynas", "iata": "XY", "icao": "KNE"}]}, {"destination": {"icao": "LOWW", "iata": "VIE", "name": "Vienna Schwechat", "shortName": "Schwechat", "municipalityName": "Vienna", "location": {"lat": 48.1103, "lon": 16.5697}, "countryCode": "AT"}, "averageDailyFlights": 1.0, "operators": [{"name": "Saudi Arabian Airlines", "iata": "SV", "icao": "SVA"}, {"name": "Wizz Air", "iata": "W6", "icao": "WZZ"}]}, {"destination": {"icao": "LGAV", "iata": "ATH", "name": "Athens Eleftherios Venizelos", "shortName": "Eleftherios Venizelos", "municipalityName": "Athens", "location": {"lat": 37.9364, "lon": 23.944498}, "countryCode": "GR"}, "averageDailyFlights": 0.86, "operators": [{"name": "Aegean Airlines", "iata": "A3", "icao": "AEE"}, {"name": "Saudi Arabian Airlines", "iata": "SV", "icao": "SVA"}]}, {"destination": {"icao": "OAKB", "iata": "KBL", "name": "Kabul ", "shortName": "Kabul", "municipalityName": "Kabul", "location": {"lat": 34.5659, "lon": 69.2123}, "countryCode": "AF"}, "averageDailyFlights": 0.86, "operators": [{"name": "Kam Air", "iata": "RQ", "icao": "KMF"}, {"name": "Ariana Afghan Airlines", "iata": "FG", "icao": "AFG"}]}, {"destination": {"icao": "OPMT", "iata": "MUX", "name": "Multan ", "shortName": "Multan", "municipalityName": "Multan", "location": {"lat": 30.2032, "lon": 71.4191}, "countryCode": "PK"}, "averageDailyFlights": 0.86, "operators": [{"name": "Saudi Arabian Airlines", "iata": "SV", "icao": "SVA"}, {"name": "Pakistan International Airlines", "iata": "PK", "icao": "PIA"}, {"name": "Airblue", "iata": "PA", "icao": "ABQ"}]}, {"destination": {"icao": "OEPA", "iata": "AQI", "name": "Al Qaysumah Qaisumah Domestic", "shortName": "Qaisumah Domestic", "municipalityName": "Al Qaysumah", "location": {"lat": 28.3352, "lon": 46.1251}, "countryCode": "SA"}, "averageDailyFlights": 0.71, "operators": [{"name": "Saudi Arabian Airlines", "iata": "SV", "icao": "SVA"}]}, {"destination": {"icao": "HTDA", "iata": "DAR", "name": "Dar es Salaam Julius Nyerere", "shortName": "Julius Nyerere", "municipalityName": "Dar es Salaam", "location": {"lat": -6.878109, "lon": 39.2026}, "countryCode": "TZ"}, "averageDailyFlights": 0.71, "operators": [{"name": "Saudi Arabian Airlines", "iata": "SV", "icao": "SVA"}]}, {"destination": {"icao": "KIAD", "iata": "IAD", "name": "District of Columbia Washington Dulles", "shortName": "Washington Dulles", "municipalityName": "District of Columbia", "location": {"lat": 38.9445, "lon": -77.4558}, "countryCode": "US"}, "averageDailyFlights": 0.71, "operators": [{"name": "Saudi Arabian Airlines", "iata": "SV", "icao": "SVA"}]}, {"destination": {"icao": "EGKK", "iata": "LGW", "name": "London Gatwick", "shortName": "Gatwick", "municipalityName": "London", "location": {"lat": 51.1481, "lon": -0.190277}, "countryCode": "GB"}, "averageDailyFlights": 0.71, "operators": [{"name": "Saudi Arabian Airlines", "iata": "SV", "icao": "SVA"}]}, {"destination": {"icao": "EGCC", "iata": "MAN", "name": "Manchester ", "shortName": "Manchester", "municipalityName": "Manchester", "location": {"lat": 53.3537, "lon": -2.27495}, "countryCode": "GB"}, "averageDailyFlights": 0.71, "operators": [{"name": "Saudi Arabian Airlines", "iata": "SV", "icao": "SVA"}]}, {"destination": {"icao": "RPLL", "iata": "MNL", "name": "Manila Ninoy Aquino", "shortName": "Ninoy Aquino", "municipalityName": "Manila", "location": {"lat": 14.5086, "lon": 121.02}, "countryCode": "PH"}, "averageDailyFlights": 0.71, "operators": [{"name": "Saudi Arabian Airlines", "iata": "SV", "icao": "SVA"}]}, {"destination": {"icao": "HKJK", "iata": "NBO", "name": "Nairobi Jomo Kenyatta", "shortName": "Jomo Kenyatta", "municipalityName": "Nairobi", "location": {"lat": -1.319239, "lon": 36.9278}, "countryCode": "KE"}, "averageDailyFlights": 0.71, "operators": [{"name": "Saudi Arabian Airlines", "iata": "SV", "icao": "SVA"}]}, {"destination": {"icao": "EHAM", "iata": "AMS", "name": "Amsterdam Schiphol", "shortName": "Schiphol", "municipalityName": "Amsterdam", "location": {"lat": 52.3086, "lon": 4.763889}, "countryCode": "NL"}, "averageDailyFlights": 0.57, "operators": [{"name": "Saudi Arabian Airlines", "iata": "SV", "icao": "SVA"}]}, {"destination": {"icao": "OERR", "iata": "RAE", "name": "Arar Domestic", "shortName": "Domestic", "municipalityName": "Arar", "location": {"lat": 30.9066, "lon": 41.1382}, "countryCode": "SA"}, "averageDailyFlights": 0.57, "operators": [{"name": "Saudi Arabian Airlines", "iata": "SV", "icao": "SVA"}]}, {"destination": {"icao": "EDDF", "iata": "FRA", "name": "Frankfurt-am-Main ", "shortName": "Frankfurt-am-Main", "municipalityName": "Frankfurt-am-Main", "location": {"lat": 50.0264, "lon": 8.543129}, "countryCode": "DE"}, "averageDailyFlights": 0.57, "operators": [{"name": "Saudi Arabian Airlines", "iata": "SV", "icao": "SVA"}]}, {"destination": {"icao": "LSGG", "iata": "GVA", "name": "Geneva Cointrin", "shortName": "Cointrin", "municipalityName": "Geneva", "location": {"lat": 46.2381, "lon": 6.10895}, "countryCode": "CH"}, "averageDailyFlights": 0.57, "operators": [{"name": "Saudi Arabian Airlines", "iata": "SV", "icao": "SVA"}]}, {"destination": {"icao": "VOCI", "iata": "COK", "name": "Kochi Cochin", "shortName": "Cochin", "municipalityName": "Kochi", "location": {"lat": 10.152, "lon": 76.4019}, "countryCode": "IN"}, "averageDailyFlights": 0.57, "operators": [{"name": "Saudi Arabian Airlines", "iata": "SV", "icao": "SVA"}]}, {"destination": {"icao": "LEMD", "iata": "MAD", "name": "Madrid Adolfo Su\u00e1rez \u2013Barajas", "shortName": "Adolfo Su\u00e1rez \u2013Barajas", "municipalityName": "Madrid", "location": {"lat": 40.4936, "lon": -3.56676}, "countryCode": "ES"}, "averageDailyFlights": 0.57, "operators": [{"name": "Saudi Arabian Airlines", "iata": "SV", "icao": "SVA"}]}, {"destination": {"icao": "FIMP", "iata": "MRU", "name": "Port Louis Sir Seewoosagur Ramgoolam", "shortName": "Sir Seewoosagur Ramgoolam", "municipalityName": "Port Louis", "location": {"lat": -20.4302, "lon": 57.6836}, "countryCode": "MU"}, "averageDailyFlights": 0.57, "operators": [{"name": "Saudi Arabian Airlines", "iata": "SV", "icao": "SVA"}]}, {"destination": {"icao": "WAAA", "iata": "UPG", "name": "Ujung Pandang-Celebes Island Hasanuddin", "shortName": "Hasanuddin", "municipalityName": "Ujung Pandang-Celebes Island", "location": {"lat": -5.061629, "lon": 119.554}, "countryCode": "ID"}, "averageDailyFlights": 0.57, "operators": [{"name": "Lion Air", "iata": "JT", "icao": "LNI"}]}, {"destination": {"name": "Neom Bay Airport"}, "averageDailyFlights": 0.57, "operators": [{"name": "Saudi Arabian Airlines", "iata": "SV", "icao": "SVA"}]}, {"destination": {"icao": "VOBL", "iata": "BLR", "name": "Bangalore Bengaluru", "shortName": "Bengaluru", "municipalityName": "Bangalore", "location": {"lat": 13.197899, "lon": 77.7063}, "countryCode": "IN"}, "averageDailyFlights": 0.43, "operators": [{"name": "Saudi Arabian Airlines", "iata": "SV", "icao": "SVA"}]}, {"destination": {"icao": "VGEG", "iata": "CGP", "name": "Chittagong Shah Amanat", "shortName": "Shah Amanat", "municipalityName": "Chittagong", "location": {"lat": 22.2496, "lon": 91.8133}, "countryCode": "BD"}, "averageDailyFlights": 0.43, "operators": [{"name": "Biman Bangladesh Airlines", "iata": "BG", "icao": "BBC"}]}, {"destination": {"icao": "UTDD", "iata": "DYU", "localCode": "\u0414\u0428\u0411", "name": "Dushanbe ", "shortName": "Dushanbe", "municipalityName": "Dushanbe", "location": {"lat": 38.5433, "lon": 68.825}, "countryCode": "TJ"}, "averageDailyFlights": 0.43, "operators": [{"name": "Somon Air", "iata": "SZ", "icao": "SMR"}]}, {"destination": {"icao": "ZGGG", "iata": "CAN", "name": "Guangzhou Baiyun", "shortName": "Baiyun", "municipalityName": "Guangzhou", "location": {"lat": 23.3924, "lon": 113.299}, "countryCode": "CN"}, "averageDailyFlights": 0.43, "operators": [{"name": "Saudi Arabian Airlines", "iata": "SV", "icao": "SVA"}]}, {"destination": {"icao": "KLAX", "iata": "LAX", "name": "Los Angeles ", "shortName": "Los Angeles", "municipalityName": "Los Angeles", "location": {"lat": 33.9425, "lon": -118.408}, "countryCode": "US"}, "averageDailyFlights": 0.43, "operators": [{"name": "Saudi Arabian Airlines", "iata": "SV", "icao": "SVA"}]}, {"destination": {"icao": "VILK", "iata": "LKO", "name": "Lucknow Chaudhary Charan Singh", "shortName": "Chaudhary Charan Singh", "municipalityName": "Lucknow", "location": {"lat": 26.7606, "lon": 80.8893}, "countryCode": "IN"}, "averageDailyFlights": 0.43, "operators": [{"name": "Saudi Arabian Airlines", "iata": "SV", "icao": "SVA"}]}, {"destination": {"icao": "LFML", "iata": "MRS", "name": "Marseille Provence", "shortName": "Provence", "municipalityName": "Marseille", "location": {"lat": 43.43927, "lon": 5.221424}, "countryCode": "FR"}, "averageDailyFlights": 0.43, "operators": [{"name": "flynas", "iata": "XY", "icao": "KNE"}]}, {"destination": {"icao": "EDDM", "iata": "MUC", "name": "Munich ", "shortName": "Munich", "municipalityName": "Munich", "location": {"lat": 48.3538, "lon": 11.7861}, "countryCode": "DE"}, "averageDailyFlights": 0.43, "operators": [{"name": "Saudi Arabian Airlines", "iata": "SV", "icao": "SVA"}]}, {"destination": {"icao": "KJFK", "iata": "JFK", "name": "New York John F Kennedy", "shortName": "John F Kennedy", "municipalityName": "New York", "location": {"lat": 40.6398, "lon": -73.7789}, "countryCode": "US"}, "averageDailyFlights": 0.43, "operators": [{"name": "Saudi Arabian Airlines", "iata": "SV", "icao": "SVA"}]}, {"destination": {"icao": "OMRK", "iata": "RKT", "name": "Ras Al Khaimah ", "shortName": "Ras Al Khaimah", "municipalityName": "Ras Al Khaimah", "location": {"lat": 25.6135, "lon": 55.9388}, "countryCode": "AE"}, "averageDailyFlights": 0.43, "operators": [{"name": "Air Arabia", "iata": "G9", "icao": "ABY"}]}, {"destination": {"icao": "RKSI", "iata": "ICN", "name": "Seoul Incheon", "shortName": "Incheon", "municipalityName": "Seoul", "location": {"lat": 37.4691, "lon": 126.451}, "countryCode": "KR"}, "averageDailyFlights": 0.43, "operators": [{"name": "Saudi Arabian Airlines", "iata": "SV", "icao": "SVA"}]}, {"destination": {"name": "Kano"}, "averageDailyFlights": 0.43, "operators": [{"name": "Saudi Arabian Airlines", "iata": "SV", "icao": "SVA"}]}, {"destination": {"name": "Ouargla"}, "averageDailyFlights": 0.43, "operators": [{"name": "Air Algerie", "iata": "AH", "icao": "DAH"}]}, {"destination": {"icao": "OEAO", "iata": "ULH", "name": "Al Ula Majeed Bin Abdulaziz", "shortName": "Majeed Bin Abdulaziz", "municipalityName": "Al Ula", "location": {"lat": 26.48, "lon": 38.128887}, "countryCode": "SA"}, "averageDailyFlights": 0.29, "operators": [{"name": "Saudi Arabian Airlines", "iata": "SV", "icao": "SVA"}]}, {"destination": {"icao": "OEWJ", "iata": "EJH", "name": "Al Wajh Domestic", "shortName": "Domestic", "municipalityName": "Al Wajh", "location": {"lat": 26.1986, "lon": 36.4764}, "countryCode": "SA"}, "averageDailyFlights": 0.29, "operators": [{"name": "Saudi Arabian Airlines", "iata": "SV", "icao": "SVA"}]}, {"destination": {"icao": "DABB", "iata": "AAE", "name": "Annabah Annaba", "shortName": "Annaba", "municipalityName": "Annabah", "location": {"lat": 36.8222, "lon": 7.809169}, "countryCode": "DZ"}, "averageDailyFlights": 0.29, "operators": [{"name": "Air Algerie", "iata": "AH", "icao": "DAH"}]}, {"destination": {"icao": "UBBB", "iata": "GYD", "localCode": "\u0411\u0410\u041a", "name": "Baku Heydar Aliyev", "shortName": "Heydar Aliyev", "municipalityName": "Baku", "location": {"lat": 40.4675, "lon": 50.0467}, "countryCode": "AZ"}, "averageDailyFlights": 0.29, "operators": [{"name": "AZAL Azerbaijan Airlines", "iata": "J2", "icao": "AHY"}]}, {"destination": {"icao": "LEBL", "iata": "BCN", "name": "Barcelona ", "shortName": "Barcelona", "municipalityName": "Barcelona", "location": {"lat": 41.2971, "lon": 2.078459}, "countryCode": "ES"}, "averageDailyFlights": 0.29, "operators": [{"name": "Saudi Arabian Airlines", "iata": "SV", "icao": "SVA"}]}, {"destination": {"icao": "LROP", "iata": "OTP", "name": "Bucharest Henri Coand\u0103", "shortName": "Henri Coand\u0103", "municipalityName": "Bucharest", "location": {"lat": 44.5722, "lon": 26.1022}, "countryCode": "RO"}, "averageDailyFlights": 0.29, "operators": [{"name": "Wizz Air", "iata": "W6", "icao": "WZZ"}]}, {"destination": {"icao": "LHBP", "iata": "BUD", "name": "Budapest Ferenc Liszt", "shortName": "Ferenc Liszt", "municipalityName": "Budapest", "location": {"lat": 47.4369, "lon": 19.255598}, "countryCode": "HU"}, "averageDailyFlights": 0.29, "operators": [{"name": "Wizz Air", "iata": "W6", "icao": "WZZ"}]}, {"destination": {"icao": "OEDW", "iata": "DWD", "name": "Dawadmi Domestic", "shortName": "Domestic", "municipalityName": "Dawadmi", "location": {"lat": 24.5, "lon": 44.4}, "countryCode": "SA"}, "averageDailyFlights": 0.29, "operators": [{"name": "Saudi Arabian Airlines", "iata": "SV", "icao": "SVA"}]}, {"destination": {"icao": "HEGN", "iata": "HRG", "name": "Hurghada ", "shortName": "Hurghada", "municipalityName": "Hurghada", "location": {"lat": 27.1783, "lon": 33.7994}, "countryCode": "EG"}, "averageDailyFlights": 0.29, "operators": [{"name": "flynas", "iata": "XY", "icao": "KNE"}]}, {"destination": {"icao": "OPST", "iata": "SKT", "name": "Sialkot ", "shortName": "Sialkot", "municipalityName": "Sialkot", "location": {"lat": 32.535557, "lon": 74.36389}, "countryCode": "PK"}, "averageDailyFlights": 0.29, "operators": [{"name": "Pakistan International Airlines", "iata": "PK", "icao": "PIA"}]}, {"destination": {"icao": "WSSS", "iata": "SIN", "name": "Singapore Changi", "shortName": "Changi", "municipalityName": "Singapore", "location": {"lat": 1.35019, "lon": 103.994}, "countryCode": "SG"}, "averageDailyFlights": 0.29, "operators": [{"name": "Tibet Airlines", "iata": "TV", "icao": "TBA"}, {"name": "Saudi Arabian Airlines", "iata": "SV", "icao": "SVA"}]}, {"destination": {"icao": "LATI", "iata": "TIA", "name": "Tirana Mother Teresa", "shortName": "Mother Teresa", "municipalityName": "Tirana", "location": {"lat": 41.4147, "lon": 19.7206}, "countryCode": "AL"}, "averageDailyFlights": 0.29, "operators": [{"name": "flynas", "iata": "XY", "icao": "KNE"}]}, {"destination": {"icao": "LIPZ", "iata": "VCE", "name": "Venice Marco Polo", "shortName": "Marco Polo", "municipalityName": "Venice", "location": {"lat": 45.5053, "lon": 12.3519}, "countryCode": "IT"}, "averageDailyFlights": 0.29, "operators": [{"name": "Wizz Air", "iata": "W6", "icao": "WZZ"}]}, {"destination": {"name": "King Fakhd"}, "averageDailyFlights": 0.29, "operators": [{"name": "flynas", "iata": "XY", "icao": "KNE"}, {"name": "flyadeal", "iata": "F3", "icao": "FAD"}]}, {"destination": {"name": "Yola"}, "averageDailyFlights": 0.29, "operators": [{"name": "Aero Contractors Company of Nigeria Ltd"}]}, {"destination": {"icao": "ORER", "iata": "EBL", "name": "Arbil Erbil", "shortName": "Erbil", "municipalityName": "Arbil", "location": {"lat": 36.2376, "lon": 43.9632}, "countryCode": "IQ"}, "averageDailyFlights": 0.14, "operators": [{"name": "flynas", "iata": "XY", "icao": "KNE"}]}, {"destination": {"icao": "DABC", "iata": "CZL", "name": "Constantine Mohamed Boudiaf", "shortName": "Mohamed Boudiaf", "municipalityName": "Constantine", "location": {"lat": 36.276, "lon": 6.620389}, "countryCode": "DZ"}, "averageDailyFlights": 0.14, "operators": [{"name": "Air Algerie", "iata": "AH", "icao": "DAH"}]}, {"destination": {"icao": "OPFA", "iata": "LYP", "name": "Faisalabad ", "shortName": "Faisalabad", "municipalityName": "Faisalabad", "location": {"lat": 31.365, "lon": 72.9948}, "countryCode": "PK"}, "averageDailyFlights": 0.14, "operators": [{"name": "Pakistan International Airlines", "iata": "PK", "icao": "PIA"}]}, {"destination": {"icao": "HCMH", "iata": "HGA", "name": "Hargeisa Egal", "shortName": "Egal", "municipalityName": "Hargeisa", "location": {"lat": 9.51817, "lon": 44.0888}, "countryCode": "SO"}, "averageDailyFlights": 0.14, "operators": [{"name": "Daallo Airlines", "iata": "D3", "icao": "DAO"}]}, {"destination": {"icao": "DAUL", "iata": "LOO", "name": "Laghouat ", "shortName": "Laghouat", "municipalityName": "Laghouat", "location": {"lat": 33.7644, "lon": 2.928339}, "countryCode": "DZ"}, "averageDailyFlights": 0.14, "operators": [{"name": "Air Algerie", "iata": "AH", "icao": "DAH"}]}, {"destination": {"icao": "HCMM", "iata": "MGQ", "name": "Mogadishu Aden Adde", "shortName": "Aden Adde", "municipalityName": "Mogadishu", "location": {"lat": 2.01444, "lon": 45.3047}, "countryCode": "SO"}, "averageDailyFlights": 0.14, "operators": [{"name": "Daallo Airlines", "iata": "D3", "icao": "DAO"}]}, {"destination": {"icao": "DAOO", "iata": "ORN", "name": "Oran Es Senia", "shortName": "Es Senia", "municipalityName": "Oran", "location": {"lat": 35.6239, "lon": -0.621182}, "countryCode": "DZ"}, "averageDailyFlights": 0.14, "operators": [{"name": "Air Algerie", "iata": "AH", "icao": "DAH"}]}, {"destination": {"icao": "OOSA", "iata": "SLL", "name": "Salalah ", "shortName": "Salalah", "municipalityName": "Salalah", "location": {"lat": 17.0387, "lon": 54.0913}, "countryCode": "OM"}, "averageDailyFlights": 0.14, "operators": [{"name": "SalamAir", "iata": "OV", "icao": "OMS"}]}, {"destination": {"icao": "VGSY", "iata": "ZYL", "name": "Sylhet Osmany", "shortName": "Osmany", "municipalityName": "Sylhet", "location": {"lat": 24.9632, "lon": 91.8668}, "countryCode": "BD"}, "averageDailyFlights": 0.14, "operators": [{"name": "Biman Bangladesh Airlines", "iata": "BG", "icao": "BBC"}]}, {"destination": {"name": "Ankara"}, "averageDailyFlights": 0.14, "operators": [{"name": "Turkish Airlines", "iata": "TK", "icao": "THY"}]}, {"destination": {"name": "Kannur International Airport"}, "averageDailyFlights": 0.14, "operators": [{"name": "Air India Express", "iata": "IX", "icao": "AXB"}]}, {"destination": {"name": "Kozhikode"}, "averageDailyFlights": 0.14, "operators": [{"name": "IndiGo", "iata": "6E", "icao": "IGO"}]}]}