{"routes": [{"destination": {"icao": "KSEA", "iata": "SEA", "name": "Seattle Tacoma", "shortName": "Tacoma", "municipalityName": "Seattle", "location": {"lat": 47.449, "lon": -122.309}, "countryCode": "US"}, "averageDailyFlights": 17.14, "operators": [{"name": "Alaska Airlines", "iata": "AS", "icao": "ASA"}]}, {"destination": {"icao": "KORD", "iata": "ORD", "name": "Chicago O'Hare", "shortName": "O'Hare", "municipalityName": "Chicago", "location": {"lat": 41.9786, "lon": -87.9048}, "countryCode": "US"}, "averageDailyFlights": 7.0, "operators": [{"name": "Asiana Airlines", "iata": "OZ", "icao": "AAR"}, {"name": "China Airlines", "iata": "CI", "icao": "CAL"}, {"name": "China Southern Airlines", "iata": "CZ", "icao": "CSN"}, {"name": "American Airlines", "iata": "AA", "icao": "AAL"}, {"name": "Korean Air", "iata": "KE", "icao": "KAL"}, {"name": "CAO"}, {"name": "Suparna Airlines", "iata": "Y8", "icao": "YZR"}, {"name": "Atlas Air", "iata": "5Y", "icao": "GTI"}, {"name": "Alaska Airlines", "iata": "AS", "icao": "ASA"}, {"name": "United Airlines", "iata": "UA", "icao": "UAL"}, {"name": "Qantas", "iata": "QF", "icao": "QFA"}, {"name": "Cathay Pacific", "iata": "CX", "icao": "CPA"}]}, {"destination": {"icao": "PAFA", "iata": "FAI", "name": "Fairbanks ", "shortName": "Fairbanks", "municipalityName": "Fairbanks", "location": {"lat": 64.8151, "lon": -147.856}, "countryCode": "US"}, "averageDailyFlights": 5.0, "operators": [{"name": "Empire Airlines", "iata": "EM", "icao": "CFS"}, {"name": "Alaska Airlines", "iata": "AS", "icao": "ASA"}]}, {"destination": {"icao": "VHHH", "iata": "HKG", "name": "Hong Kong Chek Lap Kok", "shortName": "Chek Lap Kok", "municipalityName": "Hong Kong", "location": {"lat": 22.3089, "lon": 113.915}, "countryCode": "HK"}, "averageDailyFlights": 2.86, "operators": [{"name": "Cathay Pacific", "iata": "CX", "icao": "CPA"}, {"name": "Atlas Air", "iata": "5Y", "icao": "GTI"}]}, {"destination": {"icao": "KDFW", "iata": "DFW", "name": "Dallas-Fort Worth ", "shortName": "Dallas-Fort Worth", "municipalityName": "Dallas-Fort Worth", "location": {"lat": 32.8968, "lon": -97.038}, "countryCode": "US"}, "averageDailyFlights": 2.71, "operators": [{"name": "China Airlines", "iata": "CI", "icao": "CAL"}, {"name": "Korean Air", "iata": "KE", "icao": "KAL"}, {"name": "EVA Air", "iata": "BR", "icao": "EVA"}, {"name": "American Airlines", "iata": "AA", "icao": "AAL"}, {"name": "Cathay Pacific", "iata": "CX", "icao": "CPA"}, {"name": "Singapore Airlines", "iata": "SQ", "icao": "SIA"}]}, {"destination": {"icao": "KJFK", "iata": "JFK", "name": "New York John F Kennedy", "shortName": "John F Kennedy", "municipalityName": "New York", "location": {"lat": 40.6398, "lon": -73.7789}, "countryCode": "US"}, "averageDailyFlights": 2.71, "operators": [{"name": "Atlas Air", "iata": "5Y", "icao": "GTI"}, {"name": "China Southern Airlines", "iata": "CZ", "icao": "CSN"}, {"name": "Cathay Pacific", "iata": "CX", "icao": "CPA"}, {"name": "Asiana Airlines", "iata": "OZ", "icao": "AAR"}, {"name": "CAO"}, {"name": "EVA Air", "iata": "BR", "icao": "EVA"}, {"name": "China Airlines", "iata": "CI", "icao": "CAL"}, {"name": "Korean Air", "iata": "KE", "icao": "KAL"}, {"name": "Qantas", "iata": "QF", "icao": "QFA"}]}, {"destination": {"icao": "PADQ", "iata": "ADQ", "name": "Kodiak ", "shortName": "Kodiak", "municipalityName": "Kodiak", "location": {"lat": 57.75, "lon": -152.494}, "countryCode": "US"}, "averageDailyFlights": 2.57, "operators": [{"name": "Komiaviatrans", "iata": "KO", "icao": "KMA"}, {"name": "Alaska Airlines", "iata": "AS", "icao": "ASA"}]}, {"destination": {"icao": "PADL", "iata": "DLG", "name": "Dillingham ", "shortName": "Dillingham", "municipalityName": "Dillingham", "location": {"lat": 59.0447, "lon": -158.505}, "countryCode": "US"}, "averageDailyFlights": 2.43, "operators": [{"name": "Komiaviatrans", "iata": "KO", "icao": "KMA"}, {"name": "Alaska Airlines", "iata": "AS", "icao": "ASA"}]}, {"destination": {"icao": "PASC", "iata": "SCC", "name": "Deadhorse ", "shortName": "Deadhorse", "municipalityName": "Deadhorse", "location": {"lat": 70.1947, "lon": -148.465}, "countryCode": "US"}, "averageDailyFlights": 2.29, "operators": [{"name": "Alaska Airlines", "iata": "AS", "icao": "ASA"}]}, {"destination": {"icao": "PAJN", "iata": "JNU", "name": "Juneau ", "shortName": "Juneau", "municipalityName": "Juneau", "location": {"lat": 58.355, "lon": -134.576}, "countryCode": "US"}, "averageDailyFlights": 2.29, "operators": [{"name": "Alaska Airlines", "iata": "AS", "icao": "ASA"}]}, {"destination": {"icao": "KLAX", "iata": "LAX", "name": "Los Angeles ", "shortName": "Los Angeles", "municipalityName": "Los Angeles", "location": {"lat": 33.9425, "lon": -118.408}, "countryCode": "US"}, "averageDailyFlights": 2.29, "operators": [{"name": "Cathay Pacific", "iata": "CX", "icao": "CPA"}, {"name": "Asiana Airlines", "iata": "OZ", "icao": "AAR"}, {"name": "Atlas Air", "iata": "5Y", "icao": "GTI"}, {"name": "CSG"}, {"name": "China Southern Airlines", "iata": "CZ", "icao": "CSN"}, {"name": "Singapore Airlines", "iata": "SQ", "icao": "SIA"}, {"name": "Alaska Airlines", "iata": "AS", "icao": "ASA"}]}, {"destination": {"icao": "KMSP", "iata": "MSP", "name": "Minneapolis Wold-Chamberlain", "shortName": "Wold-Chamberlain", "municipalityName": "Minneapolis", "location": {"lat": 44.882, "lon": -93.2218}, "countryCode": "US"}, "averageDailyFlights": 2.0, "operators": [{"name": "Delta Air Lines", "iata": "DL", "icao": "DAL"}, {"name": "Sun Country Airlines", "iata": "SY", "icao": "SCX"}]}, {"destination": {"icao": "KSFO", "iata": "SFO", "name": "San Francisco ", "shortName": "San Francisco", "municipalityName": "San Francisco", "location": {"lat": 37.619, "lon": -122.375}, "countryCode": "US"}, "averageDailyFlights": 2.0, "operators": [{"name": "Alaska Airlines", "iata": "AS", "icao": "ASA"}, {"name": "United Airlines", "iata": "UA", "icao": "UAL"}]}, {"destination": {"icao": "RKSI", "iata": "ICN", "name": "Seoul Incheon", "shortName": "Incheon", "municipalityName": "Seoul", "location": {"lat": 37.4691, "lon": 126.451}, "countryCode": "KR"}, "averageDailyFlights": 1.71, "operators": [{"name": "Korean Air", "iata": "KE", "icao": "KAL"}, {"name": "Atlas Air", "iata": "5Y", "icao": "GTI"}, {"name": "Asiana Airlines", "iata": "OZ", "icao": "AAR"}]}, {"destination": {"icao": "ZSPD", "iata": "PVG", "name": "Shanghai Pudong", "shortName": "Pudong", "municipalityName": "Shanghai", "location": {"lat": 31.1434, "lon": 121.805}, "countryCode": "CN"}, "averageDailyFlights": 1.71, "operators": [{"name": "CAO"}, {"name": "Suparna Airlines", "iata": "Y8", "icao": "YZR"}, {"name": "China Southern Airlines", "iata": "CZ", "icao": "CSN"}]}, {"destination": {"icao": "KATL", "iata": "ATL", "name": "Atlanta Hartsfield Jackson", "shortName": "Hartsfield Jackson", "municipalityName": "Atlanta", "location": {"lat": 33.6367, "lon": -84.4281}, "countryCode": "US"}, "averageDailyFlights": 1.57, "operators": [{"name": "Korean Air", "iata": "KE", "icao": "KAL"}, {"name": "Delta Air Lines", "iata": "DL", "icao": "DAL"}, {"name": "EVA Air", "iata": "BR", "icao": "EVA"}, {"name": "China Airlines", "iata": "CI", "icao": "CAL"}]}, {"destination": {"icao": "PAKN", "iata": "AKN", "name": "King Salmon ", "shortName": "King Salmon", "municipalityName": "King Salmon", "location": {"lat": 58.6768, "lon": -156.649}, "countryCode": "US"}, "averageDailyFlights": 1.57, "operators": [{"name": "Komiaviatrans", "iata": "KO", "icao": "KMA"}, {"name": "Alaska Airlines", "iata": "AS", "icao": "ASA"}]}, {"destination": {"icao": "KMIA", "iata": "MIA", "name": "Miami ", "shortName": "Miami", "municipalityName": "Miami", "location": {"lat": 25.7932, "lon": -80.2906}, "countryCode": "US"}, "averageDailyFlights": 1.43, "operators": [{"name": "Atlas Air", "iata": "5Y", "icao": "GTI"}, {"name": "Cathay Pacific", "iata": "CX", "icao": "CPA"}, {"name": "Korean Air", "iata": "KE", "icao": "KAL"}]}, {"destination": {"icao": "PAEN", "iata": "ENA", "name": "Kenai Municipal", "shortName": "Municipal", "municipalityName": "Kenai", "location": {"lat": 60.5731, "lon": -151.245}, "countryCode": "US"}, "averageDailyFlights": 1.29, "operators": [{"name": "Empire Airlines", "iata": "EM", "icao": "CFS"}, {"name": "Ravn Alaska", "iata": "7H", "icao": "RVF"}, {"name": "Grant Aviation", "iata": "GV", "icao": "GUN"}]}, {"destination": {"icao": "RCTP", "iata": "TPE", "name": "Taipei Taiwan Taoyuan", "shortName": "Taiwan Taoyuan", "municipalityName": "Taipei", "location": {"lat": 25.0777, "lon": 121.233}, "countryCode": "TW"}, "averageDailyFlights": 1.29, "operators": [{"name": "China Airlines", "iata": "CI", "icao": "CAL"}, {"name": "EVA Air", "iata": "BR", "icao": "EVA"}]}, {"destination": {"icao": "PABE", "iata": "BET", "name": "Bethel ", "shortName": "Bethel", "municipalityName": "Bethel", "location": {"lat": 60.7798, "lon": -161.838}, "countryCode": "US"}, "averageDailyFlights": 1.14, "operators": [{"name": "Alaska Airlines", "iata": "AS", "icao": "ASA"}]}, {"destination": {"icao": "PACV", "iata": "CDV", "name": "Cordova Merle K (Mudhole) Smith", "shortName": "Merle K (Mudhole) Smith", "municipalityName": "Cordova", "location": {"lat": 60.4918, "lon": -145.478}, "countryCode": "US"}, "averageDailyFlights": 1.14, "operators": [{"name": "Komiaviatrans", "iata": "KO", "icao": "KMA"}, {"name": "Alaska Airlines", "iata": "AS", "icao": "ASA"}]}, {"destination": {"icao": "PADU", "iata": "DUT", "name": "Unalaska ", "shortName": "Unalaska", "municipalityName": "Unalaska", "location": {"lat": 53.9001, "lon": -166.544}, "countryCode": "US"}, "averageDailyFlights": 1.14, "operators": [{"name": "Ravn Alaska", "iata": "7H", "icao": "RVF"}]}, {"destination": {"icao": "CYVR", "iata": "YVR", "name": "Vancouver ", "shortName": "Vancouver", "municipalityName": "Vancouver", "location": {"lat": 49.1939, "lon": -123.184}, "countryCode": "CA"}, "averageDailyFlights": 1.14, "operators": [{"name": "Air Canada", "iata": "AC", "icao": "ACA"}]}, {"destination": {"icao": "KPAE", "iata": "PAE", "name": "Everett Snohomish County (Paine Field)", "shortName": "Snohomish County (Paine Field)", "municipalityName": "Everett", "location": {"lat": 47.9063, "lon": -122.282}, "countryCode": "US"}, "averageDailyFlights": 1.0, "operators": [{"name": "Alaska Airlines", "iata": "AS", "icao": "ASA"}]}, {"destination": {"icao": "PAOM", "iata": "OME", "name": "Nome ", "shortName": "Nome", "municipalityName": "Nome", "location": {"lat": 64.5122, "lon": -165.445}, "countryCode": "US"}, "averageDailyFlights": 1.0, "operators": [{"name": "Alaska Airlines", "iata": "AS", "icao": "ASA"}]}, {"destination": {"icao": "PAYA", "iata": "YAK", "name": "Yakutat ", "shortName": "Yakutat", "municipalityName": "Yakutat", "location": {"lat": 59.5033, "lon": -139.66}, "countryCode": "US"}, "averageDailyFlights": 1.0, "operators": [{"name": "Komiaviatrans", "iata": "KO", "icao": "KMA"}]}, {"destination": {"icao": "KDEN", "iata": "DEN", "name": "Denver ", "shortName": "Denver", "municipalityName": "Denver", "location": {"lat": 39.8617, "lon": -104.673}, "countryCode": "US"}, "averageDailyFlights": 0.86, "operators": [{"name": "United Airlines", "iata": "UA", "icao": "UAL"}]}, {"destination": {"icao": "KPDX", "iata": "PDX", "name": "Portland ", "shortName": "Portland", "municipalityName": "Portland", "location": {"lat": 45.5887, "lon": -122.598}, "countryCode": "US"}, "averageDailyFlights": 0.86, "operators": [{"name": "Alaska Airlines", "iata": "AS", "icao": "ASA"}]}, {"destination": {"icao": "PASD", "iata": "SDP", "name": "Sand Point ", "shortName": "Sand Point", "municipalityName": "Sand Point", "location": {"lat": 55.315, "lon": -160.523}, "countryCode": "US"}, "averageDailyFlights": 0.86, "operators": [{"name": "Komiaviatrans", "iata": "KO", "icao": "KMA"}]}, {"destination": {"icao": "PABR", "iata": "BRW", "name": "Barrow Wiley Post Will Rogers Memorial", "shortName": "Wiley Post Will Rogers Memorial", "municipalityName": "Barrow", "location": {"lat": 71.2854, "lon": -156.766}, "countryCode": "US"}, "averageDailyFlights": 0.71, "operators": [{"name": "Alaska Airlines", "iata": "AS", "icao": "ASA"}]}, {"destination": {"icao": "PHNL", "iata": "HNL", "name": "Honolulu ", "shortName": "Honolulu", "municipalityName": "Honolulu", "location": {"lat": 21.3187, "lon": -157.922}, "countryCode": "US"}, "averageDailyFlights": 0.57, "operators": [{"name": "Alaska Airlines", "iata": "AS", "icao": "ASA"}]}, {"destination": {"icao": "PAIL", "iata": "ILI", "name": "Iliamna ", "shortName": "Iliamna", "municipalityName": "Iliamna", "location": {"lat": 59.7544, "lon": -154.911}, "countryCode": "US"}, "averageDailyFlights": 0.57, "operators": [{"name": "Komiaviatrans", "iata": "KO", "icao": "KMA"}]}, {"destination": {"icao": "PAOT", "iata": "OTZ", "name": "Kotzebue Ralph Wien Memorial", "shortName": "Ralph Wien Memorial", "municipalityName": "Kotzebue", "location": {"lat": 66.8847, "lon": -162.599}, "countryCode": "US"}, "averageDailyFlights": 0.57, "operators": [{"name": "Alaska Airlines", "iata": "AS", "icao": "ASA"}]}, {"destination": {"icao": "RJBB", "iata": "KIX", "name": "Osaka Kansai", "shortName": "Kansai", "municipalityName": "Osaka", "location": {"lat": 34.4273, "lon": 135.244}, "countryCode": "JP"}, "averageDailyFlights": 0.57, "operators": [{"name": "China Airlines", "iata": "CI", "icao": "CAL"}, {"name": "EVA Air", "iata": "BR", "icao": "EVA"}]}, {"destination": {"icao": "KBFI", "iata": "BFI", "name": "Seattle Boeing Field King County", "shortName": "Boeing Field King County", "municipalityName": "Seattle", "location": {"lat": 47.53, "lon": -122.302}, "countryCode": "US"}, "averageDailyFlights": 0.46, "operators": [{"name": "Nolinor", "iata": "N5", "icao": "NRL"}, {"name": "Delta Air Lines", "iata": "DL", "icao": "DAL"}]}, {"destination": {"icao": "PANI", "iata": "ANI", "name": "Aniak ", "shortName": "Aniak", "municipalityName": "Aniak", "location": {"lat": 61.5816, "lon": -159.543}, "countryCode": "US"}, "averageDailyFlights": 0.43, "operators": [{"name": "Ravn Alaska", "iata": "7H", "icao": "RVF"}]}, {"destination": {"icao": "KBNA", "iata": "BNA", "name": "Nashville ", "shortName": "Nashville", "municipalityName": "Nashville", "location": {"lat": 36.1245, "lon": -86.6782}, "countryCode": "US"}, "averageDailyFlights": 0.43, "operators": [{"name": "Atlas Air", "iata": "5Y", "icao": "GTI"}]}, {"destination": {"icao": "KGEG", "iata": "GEG", "name": "Spokane ", "shortName": "Spokane", "municipalityName": "Spokane", "location": {"lat": 47.6199, "lon": -117.534}, "countryCode": "US"}, "averageDailyFlights": 0.43, "operators": [{"name": "ATI", "iata": "8C", "icao": "ATN"}]}, {"destination": {"icao": "RJAA", "iata": "NRT", "name": "Tokyo Narita", "shortName": "Narita", "municipalityName": "Tokyo", "location": {"lat": 35.7647, "lon": 140.386}, "countryCode": "JP"}, "averageDailyFlights": 0.43, "operators": [{"name": "Atlas Air", "iata": "5Y", "icao": "GTI"}]}, {"destination": {"name": "Anchorage"}, "averageDailyFlights": 0.43, "operators": [{"name": "Komiaviatrans", "iata": "KO", "icao": "KMA"}]}, {"destination": {"icao": "KLCK", "iata": "LCK", "name": "Columbus Rickenbacker", "shortName": "Rickenbacker", "municipalityName": "Columbus", "location": {"lat": 39.8138, "lon": -82.9278}, "countryCode": "US"}, "averageDailyFlights": 0.29, "operators": [{"name": "Cathay Pacific", "iata": "CX", "icao": "CPA"}]}, {"destination": {"icao": "EDDF", "iata": "FRA", "name": "Frankfurt-am-Main ", "shortName": "Frankfurt-am-Main", "municipalityName": "Frankfurt-am-Main", "location": {"lat": 50.0264, "lon": 8.543129}, "countryCode": "DE"}, "averageDailyFlights": 0.29, "operators": [{"name": "Condor", "iata": "DE", "icao": "CFG"}]}, {"destination": {"icao": "ZSHC", "iata": "HGH", "name": "Hangzhou Xiaoshan", "shortName": "Xiaoshan", "municipalityName": "Hangzhou", "location": {"lat": 30.2295, "lon": 120.434}, "countryCode": "CN"}, "averageDailyFlights": 0.29, "operators": [{"name": "Atlas Air", "iata": "5Y", "icao": "GTI"}]}, {"destination": {"icao": "PAHO", "iata": "HOM", "name": "Homer ", "shortName": "Homer", "municipalityName": "Homer", "location": {"lat": 59.6456, "lon": -151.477}, "countryCode": "US"}, "averageDailyFlights": 0.29, "operators": [{"name": "Ravn Alaska", "iata": "7H", "icao": "RVF"}]}, {"destination": {"icao": "KIAH", "iata": "IAH", "name": "Houston George Bush", "shortName": "George Bush", "municipalityName": "Houston", "location": {"lat": 29.9844, "lon": -95.3414}, "countryCode": "US"}, "averageDailyFlights": 0.29, "operators": [{"name": "United Airlines", "iata": "UA", "icao": "UAL"}]}, {"destination": {"icao": "PAKU", "iata": "UUK", "name": "Kuparuk Ugnu-", "shortName": "Ugnu-", "municipalityName": "Kuparuk", "location": {"lat": 70.3308, "lon": -149.598}, "countryCode": "US"}, "averageDailyFlights": 0.29, "operators": [{"name": "CON"}]}, {"destination": {"icao": "MMMX", "iata": "MEX", "name": "Mexico City Licenciado Benito Juarez", "shortName": "Licenciado Benito Juarez", "municipalityName": "Mexico City", "location": {"lat": 19.4363, "lon": -99.0721}, "countryCode": "MX"}, "averageDailyFlights": 0.29, "operators": [{"name": "Cathay Pacific", "iata": "CX", "icao": "CPA"}]}, {"destination": {"icao": "KPHX", "iata": "PHX", "name": "Phoenix Sky Harbor", "shortName": "Sky Harbor", "municipalityName": "Phoenix", "location": {"lat": 33.4343, "lon": -112.012}, "countryCode": "US"}, "averageDailyFlights": 0.29, "operators": [{"name": "Alaska Airlines", "iata": "AS", "icao": "ASA"}]}, {"destination": {"icao": "PADG", "iata": "RDB", "name": "Red Dog ", "shortName": "Red Dog", "municipalityName": "Red Dog", "location": {"lat": 68.0321, "lon": -162.899}, "countryCode": "US"}, "averageDailyFlights": 0.29, "operators": [{"name": "Alaska Airlines", "iata": "AS", "icao": "ASA"}]}, {"destination": {"icao": "PASN", "iata": "SNP", "name": "St Paul Island ", "shortName": "St Paul Island", "municipalityName": "St Paul Island", "location": {"lat": 57.1673, "lon": -170.22}, "countryCode": "US"}, "averageDailyFlights": 0.29, "operators": [{"name": "Ravn Alaska", "iata": "7H", "icao": "RVF"}]}, {"destination": {"icao": "PADK", "iata": "ADK", "name": "Adak Island Adak", "shortName": "Adak", "municipalityName": "Adak Island", "location": {"lat": 51.878, "lon": -176.646}, "countryCode": "US"}, "averageDailyFlights": 0.14, "operators": [{"name": "Alaska Airlines", "iata": "AS", "icao": "ASA"}]}, {"destination": {"icao": "PFCB", "iata": "NCN", "name": "Chenega Bay", "shortName": "Bay", "municipalityName": "Chenega", "location": {"lat": 60.0773, "lon": -147.992}, "countryCode": "US"}, "averageDailyFlights": 0.14, "operators": [{"name": "Komiaviatrans", "iata": "KO", "icao": "KMA"}]}, {"destination": {"icao": "KRFD", "iata": "RFD", "name": "Chicago/Rockford Chicago Rockford", "shortName": "Chicago Rockford", "municipalityName": "Chicago/Rockford", "location": {"lat": 42.1954, "lon": -89.0972}, "countryCode": "US"}, "averageDailyFlights": 0.14, "operators": [{"name": "Atlas Air", "iata": "5Y", "icao": "GTI"}]}, {"destination": {"icao": "MMGL", "iata": "GDL", "name": "Guadalajara Don Miguel Hidalgo Y Costilla", "shortName": "Don Miguel Hidalgo Y Costilla", "municipalityName": "Guadalajara", "location": {"lat": 20.5218, "lon": -103.311}, "countryCode": "MX"}, "averageDailyFlights": 0.14, "operators": [{"name": "Atlas Air", "iata": "5Y", "icao": "GTI"}]}, {"destination": {"icao": "KLAS", "iata": "LAS", "name": "Las Vegas McCarran", "shortName": "McCarran", "municipalityName": "Las Vegas", "location": {"lat": 36.0801, "lon": -115.152}, "countryCode": "US"}, "averageDailyFlights": 0.14, "operators": [{"name": "Alaska Airlines", "iata": "AS", "icao": "ASA"}]}, {"destination": {"icao": "KEWR", "iata": "EWR", "name": "Newark Liberty", "shortName": "Liberty", "municipalityName": "Newark", "location": {"lat": 40.6925, "lon": -74.1687}, "countryCode": "US"}, "averageDailyFlights": 0.14, "operators": [{"name": "United Airlines", "iata": "UA", "icao": "UAL"}]}, {"destination": {"icao": "KMCO", "iata": "MCO", "name": "Orlando ", "shortName": "Orlando", "municipalityName": "Orlando", "location": {"lat": 28.4294, "lon": -81.309}, "countryCode": "US"}, "averageDailyFlights": 0.14, "operators": [{"name": "Cathay Pacific", "iata": "CX", "icao": "CPA"}]}, {"destination": {"name": "Nanjing"}, "averageDailyFlights": 0.14, "operators": [{"name": "Suparna Airlines", "iata": "Y8", "icao": "YZR"}]}]}