{"routes": [{"destination": {"icao": "RCSS", "iata": "TSA", "name": "Taipei City Taipei Songshan", "shortName": "Taipei Songshan", "municipalityName": "Taipei City", "location": {"lat": 25.0694, "lon": 121.552}, "countryCode": "TW"}, "averageDailyFlights": 21.29, "operators": [{"name": "Mandarin Airlines", "iata": "AE", "icao": "MDA"}, {"name": "UNI Air", "iata": "B7", "icao": "UIA"}]}, {"destination": {"icao": "RCKH", "iata": "KHH", "name": "Kaohsiung City Kaohsiung", "shortName": "Kaohsiung", "municipalityName": "Kaohsiung City", "location": {"lat": 22.5771, "lon": 120.35}, "countryCode": "TW"}, "averageDailyFlights": 20.0, "operators": [{"name": "Mandarin Airlines", "iata": "AE", "icao": "MDA"}, {"name": "UNI Air", "iata": "B7", "icao": "UIA"}]}, {"destination": {"icao": "RCMQ", "iata": "RMQ", "name": "Taichung City Taichung Ching Chuang Kang", "shortName": "Taichung Ching Chuang Kang", "municipalityName": "Taichung City", "location": {"lat": 24.2647, "lon": 120.621}, "countryCode": "TW"}, "averageDailyFlights": 11.43, "operators": [{"name": "Mandarin Airlines", "iata": "AE", "icao": "MDA"}, {"name": "UNI Air", "iata": "B7", "icao": "UIA"}]}, {"destination": {"icao": "RCNN", "iata": "TNN", "name": "Tainan City Tainan", "shortName": "Tainan", "municipalityName": "Tainan City", "location": {"lat": 22.9504, "lon": 120.206}, "countryCode": "TW"}, "averageDailyFlights": 3.43, "operators": [{"name": "UNI Air", "iata": "B7", "icao": "UIA"}]}, {"destination": {"icao": "RCKU", "iata": "CYI", "name": "Chiayi City Chiayi", "shortName": "Chiayi", "municipalityName": "Chiayi City", "location": {"lat": 23.4618, "lon": 120.393}, "countryCode": "TW"}, "averageDailyFlights": 1.14, "operators": [{"name": "UNI Air", "iata": "B7", "icao": "UIA"}]}, {"destination": {"icao": "RCBS", "iata": "KNH", "name": "Shang-I Kinmen", "shortName": "Kinmen", "municipalityName": "Shang-I", "location": {"lat": 24.4279, "lon": 118.359}, "countryCode": "TW"}, "averageDailyFlights": 0.14, "operators": [{"name": "UNI Air", "iata": "B7", "icao": "UIA"}]}]}