{"routes": [{"destination": {"icao": "RJFF", "iata": "FUK", "name": "Fukuoka ", "shortName": "Fukuoka", "municipalityName": "Fukuoka", "location": {"lat": 33.5859, "lon": 130.451}, "countryCode": "JP"}, "averageDailyFlights": 14.86, "operators": [{"name": "JAL", "iata": "JL", "icao": "JAL"}, {"name": "Oriental Air Bridge", "iata": "OC", "icao": "ORC"}, {"name": "ANA", "iata": "NH", "icao": "ANA"}]}, {"destination": {"icao": "RJOO", "iata": "ITM", "name": "Osaka ", "shortName": "Osaka", "municipalityName": "Osaka", "location": {"lat": 34.7855, "lon": 135.438}, "countryCode": "JP"}, "averageDailyFlights": 12.57, "operators": [{"name": "ANA", "iata": "NH", "icao": "ANA"}, {"name": "JAL", "iata": "JL", "icao": "JAL"}]}, {"destination": {"icao": "RJTT", "iata": "HND", "name": "Tokyo ", "shortName": "Tokyo", "municipalityName": "Tokyo", "location": {"lat": 35.5523, "lon": 139.78}, "countryCode": "JP"}, "averageDailyFlights": 12.51, "operators": [{"name": "Solaseed Air", "iata": "6J", "icao": "SNJ"}, {"name": "ANA", "iata": "NH", "icao": "ANA"}, {"name": "JAL", "iata": "JL", "icao": "JAL"}]}, {"destination": {"icao": "RJGG", "iata": "NGO", "name": "Tokoname Chubu Centrair", "shortName": "Chubu Centrair", "municipalityName": "Tokoname", "location": {"lat": 34.8584, "lon": 136.805}, "countryCode": "JP"}, "averageDailyFlights": 3.43, "operators": [{"name": "Solaseed Air", "iata": "6J", "icao": "SNJ"}, {"name": "Oriental Air Bridge", "iata": "OC", "icao": "ORC"}]}, {"destination": {"icao": "ROAH", "iata": "OKA", "name": "Naha ", "shortName": "Naha", "municipalityName": "Naha", "location": {"lat": 26.1958, "lon": 127.646}, "countryCode": "JP"}, "averageDailyFlights": 1.14, "operators": [{"name": "Solaseed Air", "iata": "6J", "icao": "SNJ"}]}, {"destination": {"icao": "RJBB", "iata": "KIX", "name": "Osaka Kansai", "shortName": "Kansai", "municipalityName": "Osaka", "location": {"lat": 34.4273, "lon": 135.244}, "countryCode": "JP"}, "averageDailyFlights": 1.14, "operators": [{"name": "Peach Aviation", "iata": "MM", "icao": "APJ"}]}, {"destination": {"icao": "RJAA", "iata": "NRT", "name": "Tokyo Narita", "shortName": "Narita", "municipalityName": "Tokyo", "location": {"lat": 35.7647, "lon": 140.386}, "countryCode": "JP"}, "averageDailyFlights": 1.14, "operators": [{"name": "Jetstar Japan", "iata": "GK", "icao": "JJP"}]}]}