{"routes": [{"destination": {"icao": "RJFK", "iata": "KOJ", "name": "Kagoshima ", "shortName": "Kagoshima", "municipalityName": "Kagoshima", "location": {"lat": 31.8034, "lon": 130.719}, "countryCode": "JP"}, "averageDailyFlights": 13.57, "operators": [{"name": "JAL", "iata": "JL", "icao": "JAL"}, {"name": "ANA", "iata": "NH", "icao": "ANA"}, {"name": "IBEX Airlines", "iata": "FW", "icao": "IBX"}]}, {"destination": {"icao": "RJSS", "iata": "SDJ", "name": "Sendai ", "shortName": "Sendai", "municipalityName": "Sendai", "location": {"lat": 38.1397, "lon": 140.917}, "countryCode": "JP"}, "averageDailyFlights": 13.43, "operators": [{"name": "JAL", "iata": "JL", "icao": "JAL"}, {"name": "ANA", "iata": "NH", "icao": "ANA"}, {"name": "IBEX Airlines", "iata": "FW", "icao": "IBX"}]}, {"destination": {"icao": "RJFT", "iata": "KMJ", "name": "Kumamoto ", "shortName": "Kumamoto", "municipalityName": "Kumamoto", "location": {"lat": 32.8373, "lon": 130.855}, "countryCode": "JP"}, "averageDailyFlights": 12.57, "operators": [{"name": "JAL", "iata": "JL", "icao": "JAL"}, {"name": "ANA", "iata": "NH", "icao": "ANA"}, {"name": "Amakusa Air", "iata": "MZ", "icao": "AHX"}]}, {"destination": {"icao": "RJOM", "iata": "MYJ", "name": "Matsuyama ", "shortName": "Matsuyama", "municipalityName": "Matsuyama", "location": {"lat": 33.8272, "lon": 132.7}, "countryCode": "JP"}, "averageDailyFlights": 12.57, "operators": [{"name": "ANA", "iata": "NH", "icao": "ANA"}, {"name": "JAL", "iata": "JL", "icao": "JAL"}]}, {"destination": {"icao": "RJFM", "iata": "KMI", "name": "Miyazaki ", "shortName": "Miyazaki", "municipalityName": "Miyazaki", "location": {"lat": 31.8772, "lon": 131.449}, "countryCode": "JP"}, "averageDailyFlights": 12.57, "operators": [{"name": "JAL", "iata": "JL", "icao": "JAL"}, {"name": "ANA", "iata": "NH", "icao": "ANA"}]}, {"destination": {"icao": "RJCC", "iata": "CTS", "name": "Chitose / Tomakomai New Chitose", "shortName": "New Chitose", "municipalityName": "Chitose / Tomakomai", "location": {"lat": 42.7752, "lon": 141.692}, "countryCode": "JP"}, "averageDailyFlights": 11.43, "operators": [{"name": "JAL", "iata": "JL", "icao": "JAL"}, {"name": "ANA", "iata": "NH", "icao": "ANA"}]}, {"destination": {"icao": "RJSN", "iata": "KIJ", "name": "Niigata ", "shortName": "Niigata", "municipalityName": "Niigata", "location": {"lat": 37.9559, "lon": 139.121}, "countryCode": "JP"}, "averageDailyFlights": 11.43, "operators": [{"name": "JAL", "iata": "JL", "icao": "JAL"}, {"name": "IBEX Airlines", "iata": "FW", "icao": "IBX"}, {"name": "ANA", "iata": "NH", "icao": "ANA"}]}, {"destination": {"icao": "RJFF", "iata": "FUK", "name": "Fukuoka ", "shortName": "Fukuoka", "municipalityName": "Fukuoka", "location": {"lat": 33.5859, "lon": 130.451}, "countryCode": "JP"}, "averageDailyFlights": 11.29, "operators": [{"name": "ANA", "iata": "NH", "icao": "ANA"}, {"name": "JAL", "iata": "JL", "icao": "JAL"}, {"name": "IBEX Airlines", "iata": "FW", "icao": "IBX"}]}, {"destination": {"icao": "RJFU", "iata": "NGS", "name": "Nagasaki ", "shortName": "Nagasaki", "municipalityName": "Nagasaki", "location": {"lat": 32.9169, "lon": 129.914}, "countryCode": "JP"}, "averageDailyFlights": 9.14, "operators": [{"name": "JAL", "iata": "JL", "icao": "JAL"}, {"name": "ANA", "iata": "NH", "icao": "ANA"}]}, {"destination": {"icao": "RJSA", "iata": "AOJ", "name": "Aomori ", "shortName": "Aomori", "municipalityName": "Aomori", "location": {"lat": 40.7347, "lon": 140.691}, "countryCode": "JP"}, "averageDailyFlights": 8.0, "operators": [{"name": "JAL", "iata": "JL", "icao": "JAL"}, {"name": "ANA", "iata": "NH", "icao": "ANA"}]}, {"destination": {"icao": "RJFO", "iata": "OIT", "name": "\u014cita Oita", "shortName": "Oita", "municipalityName": "\u014cita", "location": {"lat": 33.4794, "lon": 131.737}, "countryCode": "JP"}, "averageDailyFlights": 8.0, "operators": [{"name": "IBEX Airlines", "iata": "FW", "icao": "IBX"}, {"name": "JAL", "iata": "JL", "icao": "JAL"}, {"name": "ANA", "iata": "NH", "icao": "ANA"}]}, {"destination": {"icao": "RJOK", "iata": "KCZ", "name": "Nankoku K\u014dchi Ry\u014dma", "shortName": "K\u014dchi Ry\u014dma", "municipalityName": "Nankoku", "location": {"lat": 33.5461, "lon": 133.669}, "countryCode": "JP"}, "averageDailyFlights": 6.86, "operators": [{"name": "ANA", "iata": "NH", "icao": "ANA"}]}, {"destination": {"icao": "ROAH", "iata": "OKA", "name": "Naha ", "shortName": "Naha", "municipalityName": "Naha", "location": {"lat": 26.1958, "lon": 127.646}, "countryCode": "JP"}, "averageDailyFlights": 5.71, "operators": [{"name": "ANA", "iata": "NH", "icao": "ANA"}, {"name": "JAL", "iata": "JL", "icao": "JAL"}]}, {"destination": {"icao": "RJOC", "iata": "IZO", "name": "Izumo ", "shortName": "Izumo", "municipalityName": "Izumo", "location": {"lat": 35.4136, "lon": 132.89}, "countryCode": "JP"}, "averageDailyFlights": 4.57, "operators": [{"name": "JAL", "iata": "JL", "icao": "JAL"}]}, {"destination": {"icao": "RJSF", "iata": "FKS", "name": "Sukagawa Fukushima", "shortName": "Fukushima", "municipalityName": "Sukagawa", "location": {"lat": 37.2274, "lon": 140.431}, "countryCode": "JP"}, "averageDailyFlights": 4.57, "operators": [{"name": "ANA", "iata": "NH", "icao": "ANA"}, {"name": "IBEX Airlines", "iata": "FW", "icao": "IBX"}]}, {"destination": {"icao": "RJSK", "iata": "AXT", "name": "Akita ", "shortName": "Akita", "municipalityName": "Akita", "location": {"lat": 39.6156, "lon": 140.219}, "countryCode": "JP"}, "averageDailyFlights": 3.59, "operators": [{"name": "ANA", "iata": "NH", "icao": "ANA"}, {"name": "JAL", "iata": "JL", "icao": "JAL"}]}, {"destination": {"icao": "RJSC", "iata": "GAJ", "name": "Yamagata ", "shortName": "Yamagata", "municipalityName": "Yamagata", "location": {"lat": 38.4119, "lon": 140.371}, "countryCode": "JP"}, "averageDailyFlights": 3.43, "operators": [{"name": "JAL", "iata": "JL", "icao": "JAL"}]}, {"destination": {"icao": "RJCH", "iata": "HKD", "name": "Hakodate ", "shortName": "Hakodate", "municipalityName": "Hakodate", "location": {"lat": 41.77, "lon": 140.822}, "countryCode": "JP"}, "averageDailyFlights": 2.29, "operators": [{"name": "ANA", "iata": "NH", "icao": "ANA"}, {"name": "JAL", "iata": "JL", "icao": "JAL"}]}, {"destination": {"icao": "RJBT", "iata": "TJH", "name": "Tajima ", "shortName": "Tajima", "municipalityName": "Tajima", "location": {"lat": 35.5128, "lon": 134.787}, "countryCode": "JP"}, "averageDailyFlights": 2.29, "operators": [{"name": "JAL", "iata": "JL", "icao": "JAL"}]}, {"destination": {"icao": "RJAA", "iata": "NRT", "name": "Tokyo Narita", "shortName": "Narita", "municipalityName": "Tokyo", "location": {"lat": 35.7647, "lon": 140.386}, "countryCode": "JP"}, "averageDailyFlights": 2.29, "operators": [{"name": "ANA", "iata": "NH", "icao": "ANA"}, {"name": "JAL", "iata": "JL", "icao": "JAL"}]}, {"destination": {"icao": "RJSM", "iata": "MSJ", "name": "Misawa Air Base", "shortName": "Air Base", "municipalityName": "Misawa", "location": {"lat": 40.7032, "lon": 141.368}, "countryCode": "JP"}, "averageDailyFlights": 1.3, "operators": [{"name": "JAL", "iata": "JL", "icao": "JAL"}]}, {"destination": {"icao": "RJKA", "iata": "ASJ", "name": "Amami ", "shortName": "Amami", "municipalityName": "Amami", "location": {"lat": 28.4306, "lon": 129.713}, "countryCode": "JP"}, "averageDailyFlights": 1.14, "operators": [{"name": "JAL", "iata": "JL", "icao": "JAL"}]}, {"destination": {"icao": "RJNO", "iata": "OKI", "name": "Okinoshima Oki", "shortName": "Oki", "municipalityName": "Okinoshima", "location": {"lat": 36.1811, "lon": 133.325}, "countryCode": "JP"}, "averageDailyFlights": 1.14, "operators": [{"name": "JAL", "iata": "JL", "icao": "JAL"}]}, {"destination": {"icao": "RJFC", "iata": "KUM", "name": "Yakushima ", "shortName": "Yakushima", "municipalityName": "Yakushima", "location": {"lat": 30.3856, "lon": 130.659}, "countryCode": "JP"}, "averageDailyFlights": 1.14, "operators": [{"name": "JAL", "iata": "JL", "icao": "JAL"}]}, {"destination": {"name": "Senday"}, "averageDailyFlights": 0.29, "operators": [{"name": "IBEX Airlines", "iata": "FW", "icao": "IBX"}]}]}