{"routes": [{"destination": {"icao": "SABE", "iata": "AEP", "name": "Buenos Aires Jorge Newbery Airpark", "shortName": "Jorge Newbery Airpark", "municipalityName": "Buenos Aires", "location": {"lat": -34.5592, "lon": -58.4156}, "countryCode": "AR"}, "averageDailyFlights": 1.96, "operators": [{"name": "Air Labrador", "iata": "WJ", "icao": "LAL"}, {"name": "F.B. Lineas Aereas SA"}, {"name": "Aerolineas Argentinas", "iata": "AR", "icao": "ARG"}]}, {"destination": {"icao": "SACO", "iata": "COR", "name": "C\u00f3rdoba Ingeniero Ambrosio Taravella", "shortName": "Ingeniero Ambrosio Taravella", "municipalityName": "C\u00f3rdoba", "location": {"lat": -31.3236, "lon": -64.208}, "countryCode": "AR"}, "averageDailyFlights": 1.43, "operators": [{"name": "Aerolineas Argentinas", "iata": "AR", "icao": "ARG"}, {"name": "F.B. Lineas Aereas SA"}]}, {"destination": {"icao": "SAVC", "iata": "CRD", "name": "Comodoro Rivadavia General E. Mosconi", "shortName": "General E. Mosconi", "municipalityName": "Comodoro Rivadavia", "location": {"lat": -45.7853, "lon": -67.4655}, "countryCode": "AR"}, "averageDailyFlights": 1.0, "operators": [{"name": "Aerolineas Argentinas", "iata": "AR", "icao": "ARG"}]}, {"destination": {"icao": "SAME", "iata": "MDZ", "name": "Mendoza El Plumerillo", "shortName": "El Plumerillo", "municipalityName": "Mendoza", "location": {"lat": -32.8317, "lon": -68.7929}, "countryCode": "AR"}, "averageDailyFlights": 1.0, "operators": [{"name": "Aerolineas Argentinas", "iata": "AR", "icao": "ARG"}]}, {"destination": {"icao": "SASA", "iata": "SLA", "name": "Salta Martin Miguel De Guemes", "shortName": "Martin Miguel De Guemes", "municipalityName": "Salta", "location": {"lat": -24.856, "lon": -65.4862}, "countryCode": "AR"}, "averageDailyFlights": 0.86, "operators": [{"name": "Air Labrador", "iata": "WJ", "icao": "LAL"}, {"name": "Aerolineas Argentinas", "iata": "AR", "icao": "ARG"}]}, {"destination": {"name": "Kordoba"}, "averageDailyFlights": 0.14, "operators": [{"name": "F.B. Lineas Aereas SA"}]}]}