{"routes": [{"destination": {"icao": "SBKP", "iata": "VCP", "name": "Campinas Viracopos", "shortName": "Viracopos", "municipalityName": "Campinas", "location": {"lat": -23.0074, "lon": -47.1345}, "countryCode": "BR"}, "averageDailyFlights": 5.86, "operators": [{"name": "Azul", "iata": "AD", "icao": "AZU"}]}, {"destination": {"icao": "SBSP", "iata": "CGH", "name": "S\u00e3o Paulo Congonhas", "shortName": "Congonhas", "municipalityName": "S\u00e3o Paulo", "location": {"lat": -23.62611, "lon": -46.656387}, "countryCode": "BR"}, "averageDailyFlights": 1.18, "operators": [{"name": "Gol", "iata": "G3", "icao": "GLO"}, {"name": "VoePass", "iata": "2Z", "icao": "PTB"}]}, {"destination": {"icao": "SBBR", "iata": "BSB", "name": "Bras\u00edlia Presidente Juscelino Kubistschek", "shortName": "Presidente Juscelino Kubistschek", "municipalityName": "Bras\u00edlia", "location": {"lat": -15.869167, "lon": -47.920834}, "countryCode": "BR"}, "averageDailyFlights": 1.14, "operators": [{"name": "VoePass", "iata": "2Z", "icao": "PTB"}]}, {"destination": {"icao": "SBGO", "iata": "GYN", "name": "Goi\u00e2nia Santa Genoveva", "shortName": "Santa Genoveva", "municipalityName": "Goi\u00e2nia", "location": {"lat": -16.631998, "lon": -49.2207}, "countryCode": "BR"}, "averageDailyFlights": 1.14, "operators": [{"name": "VoePass", "iata": "2Z", "icao": "PTB"}]}, {"destination": {"icao": "SBRJ", "iata": "SDU", "name": "Rio de Janeiro Santos Dumont", "shortName": "Santos Dumont", "municipalityName": "Rio de Janeiro", "location": {"lat": -22.9105, "lon": -43.1631}, "countryCode": "BR"}, "averageDailyFlights": 1.14, "operators": [{"name": "VoePass", "iata": "2Z", "icao": "PTB"}]}, {"destination": {"name": "Grant-Pass"}, "averageDailyFlights": 0.86, "operators": [{"name": "LATAM", "iata": "LA", "icao": "LAN"}]}, {"destination": {"icao": "SBMO", "iata": "MCZ", "name": "Macei\u00f3 Zumbi dos Palmares", "shortName": "Zumbi dos Palmares", "municipalityName": "Macei\u00f3", "location": {"lat": -9.510809, "lon": -35.7917}, "countryCode": "BR"}, "averageDailyFlights": 0.14, "operators": [{"name": "Azul", "iata": "AD", "icao": "AZU"}]}, {"destination": {"icao": "SBPS", "iata": "BPS", "name": "Porto Seguro ", "shortName": "Porto Seguro", "municipalityName": "Porto Seguro", "location": {"lat": -16.4386, "lon": -39.0809}, "countryCode": "BR"}, "averageDailyFlights": 0.14, "operators": [{"name": "Azul", "iata": "AD", "icao": "AZU"}]}, {"destination": {"icao": "SBRF", "iata": "REC", "name": "Recife Guararapes - Gilberto Freyre", "shortName": "Guararapes - Gilberto Freyre", "municipalityName": "Recife", "location": {"lat": -8.126489, "lon": -34.9236}, "countryCode": "BR"}, "averageDailyFlights": 0.14, "operators": [{"name": "Azul", "iata": "AD", "icao": "AZU"}]}]}