{"routes": [{"destination": {"icao": "SVMI", "iata": "CCS", "name": "Caracas Sim\u00f3n Bol\u00edvar", "shortName": "Sim\u00f3n Bol\u00edvar", "municipalityName": "Caracas", "location": {"lat": 10.603116, "lon": -66.990585}, "countryCode": "VE"}, "averageDailyFlights": 5.71, "operators": [{"name": "Avior", "iata": "9V", "icao": "ROI"}, {"name": "LASER Airlines", "iata": "QL", "icao": "LER"}, {"name": "Conviasa", "iata": "V0", "icao": "VCV"}, {"name": "Rutaca Airlines", "iata": "5R", "icao": "RUC"}]}, {"destination": {"icao": "SVBC", "iata": "BLA", "name": "Barcelona General Jose Antonio Anzoategui", "shortName": "General Jose Antonio Anzoategui", "municipalityName": "Barcelona", "location": {"lat": 10.107099, "lon": -64.6892}, "countryCode": "VE"}, "averageDailyFlights": 1.71, "operators": [{"name": "Conviasa", "iata": "V0", "icao": "VCV"}]}, {"destination": {"icao": "SVVA", "iata": "VLN", "name": "Valencia Arturo Michelena", "shortName": "Arturo Michelena", "municipalityName": "Valencia", "location": {"lat": 10.149732, "lon": -67.9284}, "countryCode": "VE"}, "averageDailyFlights": 0.86, "operators": [{"name": "Conviasa", "iata": "V0", "icao": "VCV"}, {"name": "Turpial Airlines", "iata": "T9", "icao": "VTU"}]}, {"destination": {"icao": "SVMC", "iata": "MAR", "name": "Maracaibo La Chinita", "shortName": "La Chinita", "municipalityName": "Maracaibo", "location": {"lat": 10.558208, "lon": -71.72786}, "countryCode": "VE"}, "averageDailyFlights": 0.57, "operators": [{"name": "Conviasa", "iata": "V0", "icao": "VCV"}]}, {"destination": {"name": "Santo Domingo City"}, "averageDailyFlights": 0.57, "operators": [{"name": "Conviasa", "iata": "V0", "icao": "VCV"}]}, {"destination": {"icao": "SVVG", "iata": "VIG", "name": "El Vig\u00eda Juan Pablo P\u00e9rez Alfonso", "shortName": "Juan Pablo P\u00e9rez Alfonso", "municipalityName": "El Vig\u00eda", "location": {"lat": 8.624138, "lon": -71.67267}, "countryCode": "VE"}, "averageDailyFlights": 0.43, "operators": [{"name": "Conviasa", "iata": "V0", "icao": "VCV"}]}, {"destination": {"icao": "SVPR", "iata": "PZO", "name": "Puerto Ordaz-Ciudad Guayana General Manuel Carlos Piar", "shortName": "General Manuel Carlos Piar", "municipalityName": "Puerto Ordaz-Ciudad Guayana", "location": {"lat": 8.28853, "lon": -62.7604}, "countryCode": "VE"}, "averageDailyFlights": 0.43, "operators": [{"name": "Conviasa", "iata": "V0", "icao": "VCV"}]}, {"destination": {"name": "Acarigua"}, "averageDailyFlights": 0.43, "operators": [{"name": "Conviasa", "iata": "V0", "icao": "VCV"}]}, {"destination": {"icao": "SVBM", "iata": "BRM", "name": "Barquisimeto ", "shortName": "Barquisimeto", "municipalityName": "Barquisimeto", "location": {"lat": 10.042746, "lon": -69.35862}, "countryCode": "VE"}, "averageDailyFlights": 0.29, "operators": [{"name": "Conviasa", "iata": "V0", "icao": "VCV"}]}, {"destination": {"name": "Barinas"}, "averageDailyFlights": 0.14, "operators": [{"name": "Conviasa", "iata": "V0", "icao": "VCV"}]}]}