{"routes": [{"destination": {"icao": "TVSA", "iata": "SVD", "name": "Argyle ", "shortName": "Argyle", "municipalityName": "Argyle", "location": {"lat": 13.156389, "lon": -61.150276}, "countryCode": "VC"}, "averageDailyFlights": 3.29, "operators": [{"name": "interCaribbean Airways", "iata": "JY", "icao": "IWY"}, {"name": "Virgin Atlantic", "iata": "VS", "icao": "VIR"}, {"name": "Caribbean Airlines", "iata": "BW", "icao": "BWA"}, {"name": "LIAT", "iata": "LI", "icao": "LIA"}]}, {"destination": {"icao": "TLPC", "iata": "SLU", "name": "Castries George F. L. Charles", "shortName": "George F. L. Charles", "municipalityName": "Castries", "location": {"lat": 14.0202, "lon": -60.9929}, "countryCode": "LC"}, "averageDailyFlights": 3.29, "operators": [{"name": "interCaribbean Airways", "iata": "JY", "icao": "IWY"}, {"name": "Air Antilles Express", "iata": "3S", "icao": "GUY"}]}, {"destination": {"icao": "TTPP", "iata": "POS", "name": "Port of Spain Piarco", "shortName": "Piarco", "municipalityName": "Port of Spain", "location": {"lat": 10.595399, "lon": -61.3372}, "countryCode": "TT"}, "averageDailyFlights": 3.14, "operators": [{"name": "Caribbean Airlines", "iata": "BW", "icao": "BWA"}]}, {"destination": {"icao": "TAPA", "iata": "ANU", "name": "St. George V.C. Bird", "shortName": "V.C. Bird", "municipalityName": "St. George", "location": {"lat": 17.1367, "lon": -61.7927}, "countryCode": "AG"}, "averageDailyFlights": 2.43, "operators": [{"name": "interCaribbean Airways", "iata": "JY", "icao": "IWY"}, {"name": "Caribbean Airlines", "iata": "BW", "icao": "BWA"}, {"name": "Virgin Atlantic", "iata": "VS", "icao": "VIR"}, {"name": "Air Antilles Express", "iata": "3S", "icao": "GUY"}, {"name": "LIAT", "iata": "LI", "icao": "LIA"}]}, {"destination": {"icao": "TGPY", "iata": "GND", "name": "St. George's Point Salines", "shortName": "Point Salines", "municipalityName": "St. George's", "location": {"lat": 12.004199, "lon": -61.7862}, "countryCode": "GD"}, "averageDailyFlights": 2.43, "operators": [{"name": "Caribbean Airlines", "iata": "BW", "icao": "BWA"}, {"name": "interCaribbean Airways", "iata": "JY", "icao": "IWY"}, {"name": "Virgin Atlantic", "iata": "VS", "icao": "VIR"}, {"name": "LIAT", "iata": "LI", "icao": "LIA"}]}, {"destination": {"icao": "KMIA", "iata": "MIA", "name": "Miami ", "shortName": "Miami", "municipalityName": "Miami", "location": {"lat": 25.7932, "lon": -80.2906}, "countryCode": "US"}, "averageDailyFlights": 2.29, "operators": [{"name": "American Airlines", "iata": "AA", "icao": "AAL"}]}, {"destination": {"icao": "EGLL", "iata": "LHR", "name": "London Heathrow", "shortName": "Heathrow", "municipalityName": "London", "location": {"lat": 51.4706, "lon": -0.461941}, "countryCode": "GB"}, "averageDailyFlights": 2.0, "operators": [{"name": "British Airways", "iata": "BA", "icao": "BAW"}, {"name": "Virgin Atlantic", "iata": "VS", "icao": "VIR"}]}, {"destination": {"icao": "SYCJ", "iata": "GEO", "name": "Georgetown Cheddi Jagan", "shortName": "Cheddi Jagan", "municipalityName": "Georgetown", "location": {"lat": 6.498549, "lon": -58.2541}, "countryCode": "GY"}, "averageDailyFlights": 1.86, "operators": [{"name": "interCaribbean Airways", "iata": "JY", "icao": "IWY"}]}, {"destination": {"icao": "TDPD", "iata": "DOM", "name": "Marigot Melville Hall", "shortName": "Melville Hall", "municipalityName": "Marigot", "location": {"lat": 15.546999, "lon": -61.3}, "countryCode": "DM"}, "averageDailyFlights": 1.71, "operators": [{"name": "interCaribbean Airways", "iata": "JY", "icao": "IWY"}, {"name": "LIAT", "iata": "LI", "icao": "LIA"}, {"name": "Caribbean Airlines", "iata": "BW", "icao": "BWA"}]}, {"destination": {"icao": "SYGO", "iata": "OGL", "name": "Ogle ", "shortName": "Ogle", "municipalityName": "Ogle", "location": {"lat": 6.80628, "lon": -58.1059}, "countryCode": "GY"}, "averageDailyFlights": 1.14, "operators": [{"name": "Caribbean Airlines", "iata": "BW", "icao": "BWA"}]}, {"destination": {"name": "Toronto"}, "averageDailyFlights": 1.0, "operators": [{"name": "Air Canada", "iata": "AC", "icao": "ACA"}]}, {"destination": {"name": "New York"}, "averageDailyFlights": 0.86, "operators": [{"name": "JetBlue Airways", "iata": "B6", "icao": "JBU"}]}, {"destination": {"icao": "TKPK", "iata": "SKB", "name": "Basseterre Robert L. Bradshaw", "shortName": "Robert L. Bradshaw", "municipalityName": "Basseterre", "location": {"lat": 17.3112, "lon": -62.7187}, "countryCode": "KN"}, "averageDailyFlights": 0.71, "operators": [{"name": "interCaribbean Airways", "iata": "JY", "icao": "IWY"}, {"name": "LIAT", "iata": "LI", "icao": "LIA"}]}, {"destination": {"icao": "TFFF", "iata": "FDF", "name": "Fort-de-France Martinique Aim\u00e9 C\u00e9saire", "shortName": "Martinique Aim\u00e9 C\u00e9saire", "municipalityName": "Fort-de-France", "location": {"lat": 14.590999, "lon": -61.0032}, "countryCode": "MQ"}, "averageDailyFlights": 0.57, "operators": [{"name": "Air Antilles Express", "iata": "3S", "icao": "GUY"}]}, {"destination": {"name": "Montreal"}, "averageDailyFlights": 0.57, "operators": [{"name": "Air Canada", "iata": "AC", "icao": "ACA"}]}, {"destination": {"icao": "TTCP", "iata": "TAB", "name": "Scarborough Tobago-Crown Point", "shortName": "Tobago-Crown Point", "municipalityName": "Scarborough", "location": {"lat": 11.1497, "lon": -60.8322}, "countryCode": "TT"}, "averageDailyFlights": 0.43, "operators": [{"name": "Caribbean Airlines", "iata": "BW", "icao": "BWA"}]}, {"destination": {"icao": "MPTO", "iata": "PTY", "name": "Tocumen ", "shortName": "Tocumen", "municipalityName": "Tocumen", "location": {"lat": 9.071359, "lon": -79.3835}, "countryCode": "PA"}, "averageDailyFlights": 0.43, "operators": [{"name": "Copa Airlines", "iata": "CM", "icao": "CMP"}]}, {"destination": {"icao": "KCLT", "iata": "CLT", "name": "Charlotte Douglas", "shortName": "Douglas", "municipalityName": "Charlotte", "location": {"lat": 35.214, "lon": -80.9431}, "countryCode": "US"}, "averageDailyFlights": 0.29, "operators": [{"name": "American Airlines", "iata": "AA", "icao": "AAL"}]}, {"destination": {"icao": "KBOS", "iata": "BOS", "name": "Boston General Edward Lawrence Logan", "shortName": "General Edward Lawrence Logan", "municipalityName": "Boston", "location": {"lat": 42.3643, "lon": -71.0052}, "countryCode": "US"}, "averageDailyFlights": 0.14, "operators": [{"name": "JetBlue Airways", "iata": "B6", "icao": "JBU"}]}, {"destination": {"icao": "KMMU", "iata": "MMU", "name": "Morristown Municipal", "shortName": "Municipal", "municipalityName": "Morristown", "location": {"lat": 40.7994, "lon": -74.4149}, "countryCode": "US"}, "averageDailyFlights": 0.14, "operators": [{"name": "LXJ"}]}, {"destination": {"icao": "TNCM", "iata": "SXM", "name": "Saint Martin Princess Juliana", "shortName": "Princess Juliana", "municipalityName": "Saint Martin", "location": {"lat": 18.041, "lon": -63.1089}, "countryCode": "SX"}, "averageDailyFlights": 0.14, "operators": [{"name": "Caribbean Airlines", "iata": "BW", "icao": "BWA"}]}, {"destination": {"icao": "TJSJ", "iata": "SJU", "name": "San Juan Luis Munoz Marin", "shortName": "Luis Munoz Marin", "municipalityName": "San Juan", "location": {"lat": 18.4394, "lon": -66.0018}, "countryCode": "PR"}, "averageDailyFlights": 0.14, "operators": [{"name": "TKK"}]}, {"destination": {"icao": "KTPA", "iata": "TPA", "name": "Tampa ", "shortName": "Tampa", "municipalityName": "Tampa", "location": {"lat": 27.9755, "lon": -82.5332}, "countryCode": "US"}, "averageDailyFlights": 0.14, "operators": [{"name": "HER"}]}]}