{"routes": [{"destination": {"icao": "TFFR", "iata": "PTP", "name": "Pointe-\u00e0-Pitre Le Raizet ", "shortName": "Pointe-\u00e0-Pitre Le Raizet", "municipalityName": "Pointe-\u00e0-Pitre Le Raizet", "location": {"lat": 16.2653, "lon": -61.5318}, "countryCode": "GP"}, "averageDailyFlights": 11.86, "operators": [{"name": "Air Antilles Express", "iata": "3S", "icao": "GUY"}, {"name": "Air Caraibes", "iata": "TX", "icao": "FWI"}, {"name": "Air France", "iata": "AF", "icao": "AFR"}]}, {"destination": {"icao": "LFPO", "iata": "ORY", "name": "Paris -Orly", "shortName": "-Orly", "municipalityName": "Paris", "location": {"lat": 48.7253, "lon": 2.35944}, "countryCode": "FR"}, "averageDailyFlights": 1.46, "operators": [{"name": "Corsair", "iata": "SS", "icao": "CRL"}, {"name": "Air Caraibes", "iata": "TX", "icao": "FWI"}]}, {"destination": {"icao": "SOCA", "iata": "CAY", "name": "Cayenne / Rochambeau Cayenne-Rochambeau", "shortName": "Cayenne-Rochambeau", "municipalityName": "Cayenne / Rochambeau", "location": {"lat": 4.819809, "lon": -52.3604}, "countryCode": "GF"}, "averageDailyFlights": 1.29, "operators": [{"name": "Air France", "iata": "AF", "icao": "AFR"}]}, {"destination": {"icao": "CYUL", "iata": "YUL", "name": "Montreal Trudeau", "shortName": "Trudeau", "municipalityName": "Montreal", "location": {"lat": 45.4706, "lon": -73.7408}, "countryCode": "CA"}, "averageDailyFlights": 1.0, "operators": [{"name": "Air Canada", "iata": "AC", "icao": "ACA"}, {"name": "Air Transat", "iata": "TS", "icao": "TSC"}]}, {"destination": {"icao": "TBPB", "iata": "BGI", "name": "Bridgetown Sir Grantley Adams", "shortName": "Sir Grantley Adams", "municipalityName": "Bridgetown", "location": {"lat": 13.0746, "lon": -59.4925}, "countryCode": "BB"}, "averageDailyFlights": 0.57, "operators": [{"name": "Air Antilles Express", "iata": "3S", "icao": "GUY"}]}, {"destination": {"icao": "KMIA", "iata": "MIA", "name": "Miami ", "shortName": "Miami", "municipalityName": "Miami", "location": {"lat": 25.7932, "lon": -80.2906}, "countryCode": "US"}, "averageDailyFlights": 0.57, "operators": [{"name": "Envoy Air", "iata": "MQ", "icao": "ENY"}]}, {"destination": {"icao": "LFPG", "iata": "CDG", "name": "Paris Charles de Gaulle", "shortName": "Charles de Gaulle", "municipalityName": "Paris", "location": {"lat": 49.0128, "lon": 2.549999}, "countryCode": "FR"}, "averageDailyFlights": 0.57, "operators": [{"name": "Air France", "iata": "AF", "icao": "AFR"}]}, {"destination": {"icao": "MDSD", "iata": "SDQ", "name": "Santo Domingo City Las Am\u00e9ricas", "shortName": "Las Am\u00e9ricas", "municipalityName": "Santo Domingo City", "location": {"lat": 18.4297, "lon": -69.6689}, "countryCode": "DO"}, "averageDailyFlights": 0.43, "operators": [{"name": "Sky High Aviation", "iata": "DO", "icao": "SHH"}, {"name": "Air Antilles Express", "iata": "3S", "icao": "GUY"}]}, {"destination": {"icao": "TLPC", "iata": "SLU", "name": "Castries George F. L. Charles", "shortName": "George F. L. Charles", "municipalityName": "Castries", "location": {"lat": 14.0202, "lon": -60.9929}, "countryCode": "LC"}, "averageDailyFlights": 0.29, "operators": [{"name": "Air Antilles Express", "iata": "3S", "icao": "GUY"}]}]}