{"routes": [{"destination": {"icao": "TFFF", "iata": "FDF", "name": "Fort-de-France Martinique Aim\u00e9 C\u00e9saire", "shortName": "Martinique Aim\u00e9 C\u00e9saire", "municipalityName": "Fort-de-France", "location": {"lat": 14.590999, "lon": -61.0032}, "countryCode": "MQ"}, "averageDailyFlights": 13.0, "operators": [{"name": "Air Antilles Express", "iata": "3S", "icao": "GUY"}, {"name": "Air France", "iata": "AF", "icao": "AFR"}, {"name": "Air Caraibes", "iata": "TX", "icao": "FWI"}]}, {"destination": {"icao": "TFFJ", "iata": "SBH", "name": "Gustavia Gustaf III", "shortName": "Gustaf III", "municipalityName": "Gustavia", "location": {"lat": 17.9044, "lon": -62.8436}, "countryCode": "BL"}, "averageDailyFlights": 5.86, "operators": [{"name": "Air Antilles Express", "iata": "3S", "icao": "GUY"}, {"name": "Air Caraibes", "iata": "TX", "icao": "FWI"}, {"name": "Saint Barth Commuter", "iata": "PV", "icao": "SBU"}]}, {"destination": {"icao": "TFFG", "iata": "SFG", "name": "Grand Case L'Esp\u00e9rance", "shortName": "L'Esp\u00e9rance", "municipalityName": "Grand Case", "location": {"lat": 18.0999, "lon": -63.0472}, "countryCode": "MF"}, "averageDailyFlights": 5.57, "operators": [{"name": "Air Antilles Express", "iata": "3S", "icao": "GUY"}, {"name": "Air Caraibes", "iata": "TX", "icao": "FWI"}]}, {"destination": {"icao": "LFPO", "iata": "ORY", "name": "Paris -Orly", "shortName": "-Orly", "municipalityName": "Paris", "location": {"lat": 48.7253, "lon": 2.35944}, "countryCode": "FR"}, "averageDailyFlights": 2.86, "operators": [{"name": "Air Caraibes", "iata": "TX", "icao": "FWI"}, {"name": "Corsair", "iata": "SS", "icao": "CRL"}]}, {"destination": {"icao": "MDSD", "iata": "SDQ", "name": "Santo Domingo City Las Am\u00e9ricas", "shortName": "Las Am\u00e9ricas", "municipalityName": "Santo Domingo City", "location": {"lat": 18.4297, "lon": -69.6689}, "countryCode": "DO"}, "averageDailyFlights": 1.29, "operators": [{"name": "Air Antilles Express", "iata": "3S", "icao": "GUY"}, {"name": "Sky High Aviation", "iata": "DO", "icao": "SHH"}, {"name": "Air Caraibes", "iata": "TX", "icao": "FWI"}]}, {"destination": {"icao": "TDPD", "iata": "DOM", "name": "Marigot Melville Hall", "shortName": "Melville Hall", "municipalityName": "Marigot", "location": {"lat": 15.546999, "lon": -61.3}, "countryCode": "DM"}, "averageDailyFlights": 1.0, "operators": [{"name": "Air Antilles Express", "iata": "3S", "icao": "GUY"}]}, {"destination": {"icao": "LFPG", "iata": "CDG", "name": "Paris Charles de Gaulle", "shortName": "Charles de Gaulle", "municipalityName": "Paris", "location": {"lat": 49.0128, "lon": 2.549999}, "countryCode": "FR"}, "averageDailyFlights": 0.57, "operators": [{"name": "Air France", "iata": "AF", "icao": "AFR"}]}, {"destination": {"name": "Montreal"}, "averageDailyFlights": 0.57, "operators": [{"name": "Air Transat", "iata": "TS", "icao": "TSC"}, {"name": "Air Canada", "iata": "AC", "icao": "ACA"}]}, {"destination": {"icao": "KMIA", "iata": "MIA", "name": "Miami ", "shortName": "Miami", "municipalityName": "Miami", "location": {"lat": 25.7932, "lon": -80.2906}, "countryCode": "US"}, "averageDailyFlights": 0.43, "operators": [{"name": "Envoy Air", "iata": "MQ", "icao": "ENY"}, {"name": "Air France", "iata": "AF", "icao": "AFR"}]}, {"destination": {"icao": "TNCM", "iata": "SXM", "name": "Saint Martin Princess Juliana", "shortName": "Princess Juliana", "municipalityName": "Saint Martin", "location": {"lat": 18.041, "lon": -63.1089}, "countryCode": "SX"}, "averageDailyFlights": 0.29, "operators": [{"name": "Air Antilles Express", "iata": "3S", "icao": "GUY"}]}, {"destination": {"icao": "MTPP", "iata": "PAP", "name": "Port-au-Prince Toussaint Louverture", "shortName": "Toussaint Louverture", "municipalityName": "Port-au-Prince", "location": {"lat": 18.58, "lon": -72.2925}, "countryCode": "HT"}, "averageDailyFlights": 0.14, "operators": [{"name": "Sunrise Airways", "iata": "S6", "icao": "KSZ"}]}]}