{"routes": [{"destination": {"icao": "UAAA", "iata": "ALA", "localCode": "\u0410\u041b\u0410", "name": "Almaty ", "shortName": "Almaty", "municipalityName": "Almaty", "location": {"lat": 43.3521, "lon": 77.0405}, "countryCode": "KZ"}, "averageDailyFlights": 18.93, "operators": [{"name": "Qazaq Air", "iata": "IQ", "icao": "QAZ"}, {"name": "Air Astana", "iata": "KC", "icao": "KZR"}, {"name": "Lufthansa", "iata": "LH", "icao": "DLH"}, {"name": "SCAT Airlines", "iata": "DV", "icao": "VSV"}]}, {"destination": {"icao": "UAII", "iata": "CIT", "localCode": "\u0428\u041c\u0422", "name": "Shymkent ", "shortName": "Shymkent", "municipalityName": "Shymkent", "location": {"lat": 42.3642, "lon": 69.4789}, "countryCode": "KZ"}, "averageDailyFlights": 7.14, "operators": [{"name": "SCAT Airlines", "iata": "DV", "icao": "VSV"}, {"name": "Air Astana", "iata": "KC", "icao": "KZR"}, {"name": "Qazaq Air", "iata": "IQ", "icao": "QAZ"}]}, {"destination": {"icao": "UATT", "iata": "AKX", "localCode": "\u0410\u041a\u0425", "name": "Aktyuinsk Aktobe", "shortName": "Aktobe", "municipalityName": "Aktyuinsk", "location": {"lat": 50.2458, "lon": 57.2067}, "countryCode": "KZ"}, "averageDailyFlights": 3.71, "operators": [{"name": "SCAT Airlines", "iata": "DV", "icao": "VSV"}, {"name": "Qazaq Air", "iata": "IQ", "icao": "QAZ"}, {"name": "Air Astana", "iata": "KC", "icao": "KZR"}]}, {"destination": {"icao": "UATG", "iata": "GUW", "localCode": "\u0410\u0422\u042b", "name": "Atyrau ", "shortName": "Atyrau", "municipalityName": "Atyrau", "location": {"lat": 47.1219, "lon": 51.8214}, "countryCode": "KZ"}, "averageDailyFlights": 3.71, "operators": [{"name": "SCAT Airlines", "iata": "DV", "icao": "VSV"}, {"name": "Air Astana", "iata": "KC", "icao": "KZR"}]}, {"destination": {"icao": "UUEE", "iata": "SVO", "localCode": "\u0428\u0420\u041c", "name": "Moscow Sheremetyevo", "shortName": "Sheremetyevo", "municipalityName": "Moscow", "location": {"lat": 55.9726, "lon": 37.4146}, "countryCode": "RU"}, "averageDailyFlights": 3.43, "operators": [{"name": "Aeroflot", "iata": "SU", "icao": "AFL"}, {"name": "SCAT Airlines", "iata": "DV", "icao": "VSV"}]}, {"destination": {"icao": "UASK", "iata": "UKK", "localCode": "\u0423\u041a\u0413", "name": "Ust Kamenogorsk Ust-Kamennogorsk", "shortName": "Ust-Kamennogorsk", "municipalityName": "Ust Kamenogorsk", "location": {"lat": 50.0366, "lon": 82.4942}, "countryCode": "KZ"}, "averageDailyFlights": 2.86, "operators": [{"name": "Air Astana", "iata": "KC", "icao": "KZR"}, {"name": "SCAT Airlines", "iata": "DV", "icao": "VSV"}, {"name": "Qazaq Air", "iata": "IQ", "icao": "QAZ"}]}, {"destination": {"icao": "LTFM", "iata": "IST", "name": "Istanbul ", "shortName": "Istanbul", "municipalityName": "Istanbul", "location": {"lat": 41.275276, "lon": 28.751944}, "countryCode": "TR"}, "averageDailyFlights": 2.52, "operators": [{"name": "Turkish Airlines", "iata": "TK", "icao": "THY"}, {"name": "Air Astana", "iata": "KC", "icao": "KZR"}, {"name": "SCAT Airlines", "iata": "DV", "icao": "VSV"}]}, {"destination": {"icao": "OMDB", "iata": "DXB", "name": "Dubai ", "shortName": "Dubai", "municipalityName": "Dubai", "location": {"lat": 25.252798, "lon": 55.3644}, "countryCode": "AE"}, "averageDailyFlights": 2.43, "operators": [{"name": "flydubai", "iata": "FZ", "icao": "FDB"}, {"name": "Air Astana", "iata": "KC", "icao": "KZR"}]}, {"destination": {"icao": "LTAI", "iata": "AYT", "name": "Antalya ", "shortName": "Antalya", "municipalityName": "Antalya", "location": {"lat": 36.8987, "lon": 30.8005}, "countryCode": "TR"}, "averageDailyFlights": 2.0, "operators": [{"name": "Corendon Air", "iata": "XC", "icao": "CAI"}, {"name": "SCAT Airlines", "iata": "DV", "icao": "VSV"}, {"name": "Air Astana", "iata": "KC", "icao": "KZR"}]}, {"destination": {"icao": "UAUU", "iata": "KSN", "localCode": "\u041a\u0422\u041d", "name": "Kostanay West", "shortName": "West", "municipalityName": "Kostanay", "location": {"lat": 53.2069, "lon": 63.5503}, "countryCode": "KZ"}, "averageDailyFlights": 1.71, "operators": [{"name": "Air Astana", "iata": "KC", "icao": "KZR"}]}, {"destination": {"icao": "UARR", "iata": "URA", "localCode": "\u0423\u0420\u041b", "name": "Uralsk ", "shortName": "Uralsk", "municipalityName": "Uralsk", "location": {"lat": 51.1508, "lon": 51.5431}, "countryCode": "KZ"}, "averageDailyFlights": 1.71, "operators": [{"name": "Air Astana", "iata": "KC", "icao": "KZR"}]}, {"destination": {"name": "Frankfurt-am-Main"}, "averageDailyFlights": 1.57, "operators": [{"name": "Lufthansa", "iata": "LH", "icao": "DLH"}, {"name": "Air Astana", "iata": "KC", "icao": "KZR"}]}, {"destination": {"name": "Turkestan"}, "averageDailyFlights": 1.57, "operators": [{"name": "Air Astana", "iata": "KC", "icao": "KZR"}, {"name": "Qazaq Air", "iata": "IQ", "icao": "QAZ"}]}, {"destination": {"icao": "USSS", "iata": "SVX", "localCode": "\u041a\u041b\u0426", "name": "Ekaterinburg Koltsovo", "shortName": "Koltsovo", "municipalityName": "Ekaterinburg", "location": {"lat": 56.7431, "lon": 60.8027}, "countryCode": "RU"}, "averageDailyFlights": 1.29, "operators": [{"name": "Red Wings", "iata": "WZ", "icao": "RWZ"}, {"name": "Qazaq Air", "iata": "IQ", "icao": "QAZ"}]}, {"destination": {"icao": "UNOO", "iata": "OMS", "localCode": "\u041e\u041c\u0421", "name": "Omsk Central", "shortName": "Central", "municipalityName": "Omsk", "location": {"lat": 54.967, "lon": 73.3105}, "countryCode": "RU"}, "averageDailyFlights": 1.29, "operators": [{"name": "Qazaq Air", "iata": "IQ", "icao": "QAZ"}, {"name": "Red Wings", "iata": "WZ", "icao": "RWZ"}]}, {"destination": {"icao": "UATE", "iata": "SCO", "localCode": "\u0410\u0410\u0423", "name": "Aktau ", "shortName": "Aktau", "municipalityName": "Aktau", "location": {"lat": 43.8601, "lon": 51.092}, "countryCode": "KZ"}, "averageDailyFlights": 1.16, "operators": [{"name": "SCAT Airlines", "iata": "DV", "icao": "VSV"}, {"name": "Air Astana", "iata": "KC", "icao": "KZR"}]}, {"destination": {"icao": "UAKD", "iata": "DZN", "localCode": "\u0414\u0417\u041d", "name": "Dzhezkazgan ", "shortName": "Dzhezkazgan", "municipalityName": "Dzhezkazgan", "location": {"lat": 47.7708, "lon": 67.6734}, "countryCode": "KZ"}, "averageDailyFlights": 1.14, "operators": [{"name": "SCAT Airlines", "iata": "DV", "icao": "VSV"}]}, {"destination": {"icao": "UACP", "iata": "PPK", "localCode": "\u041f\u0420\u0410", "name": "Petropavlosk South", "shortName": "South", "municipalityName": "Petropavlosk", "location": {"lat": 54.7747, "lon": 69.1839}, "countryCode": "KZ"}, "averageDailyFlights": 1.14, "operators": [{"name": "Qazaq Air", "iata": "IQ", "icao": "QAZ"}]}, {"destination": {"icao": "UTTT", "iata": "TAS", "localCode": "\u0422\u0410\u0421", "name": "Tashkent ", "shortName": "Tashkent", "municipalityName": "Tashkent", "location": {"lat": 41.2579, "lon": 69.2812}, "countryCode": "UZ"}, "averageDailyFlights": 1.14, "operators": [{"name": "Uzbekistan Airways", "iata": "HY", "icao": "UZB"}, {"name": "Air Astana", "iata": "KC", "icao": "KZR"}]}, {"destination": {"icao": "UAOO", "iata": "KZO", "localCode": "\u041a\u0417\u041e", "name": "Kzyl-Orda Southwest", "shortName": "Southwest", "municipalityName": "Kzyl-Orda", "location": {"lat": 44.7069, "lon": 65.5925}, "countryCode": "KZ"}, "averageDailyFlights": 1.0, "operators": [{"name": "Air Astana", "iata": "KC", "icao": "KZR"}]}, {"destination": {"icao": "UADD", "iata": "DMB", "localCode": "\u0414\u041c\u0411", "name": "Taraz ", "shortName": "Taraz", "municipalityName": "Taraz", "location": {"lat": 42.8536, "lon": 71.3036}, "countryCode": "KZ"}, "averageDailyFlights": 1.0, "operators": [{"name": "SCAT Airlines", "iata": "DV", "icao": "VSV"}]}, {"destination": {"name": "Semey"}, "averageDailyFlights": 1.0, "operators": [{"name": "Air Astana", "iata": "KC", "icao": "KZR"}]}, {"destination": {"icao": "OMAA", "iata": "AUH", "name": "Abu Dhabi Island and Internal Islands City Abu Dhabi", "shortName": "Abu Dhabi", "municipalityName": "Abu Dhabi Island and Internal Islands City", "location": {"lat": 24.433, "lon": 54.6511}, "countryCode": "AE"}, "averageDailyFlights": 0.86, "operators": [{"name": "WAZ"}, {"name": "Wizz Air Abu Dhabi"}]}, {"destination": {"icao": "UGKO", "iata": "KUT", "name": "Kutaisi Kopitnari", "shortName": "Kopitnari", "municipalityName": "Kutaisi", "location": {"lat": 42.1767, "lon": 42.4826}, "countryCode": "GE"}, "averageDailyFlights": 0.86, "operators": [{"name": "Air Astana", "iata": "KC", "icao": "KZR"}]}, {"destination": {"icao": "UMMS", "iata": "MSQ", "localCode": "\u041c\u0418\u041a", "name": "Minsk National", "shortName": "National", "municipalityName": "Minsk", "location": {"lat": 53.8825, "lon": 28.0307}, "countryCode": "BY"}, "averageDailyFlights": 0.86, "operators": [{"name": "Belavia", "iata": "B2", "icao": "BRU"}]}, {"destination": {"name": "Novosibirsk"}, "averageDailyFlights": 0.86, "operators": [{"name": "Qazaq Air", "iata": "IQ", "icao": "QAZ"}]}, {"destination": {"icao": "UASP", "iata": "PWQ", "localCode": "\u041f\u0412\u041b", "name": "Pavlodar ", "shortName": "Pavlodar", "municipalityName": "Pavlodar", "location": {"lat": 52.195, "lon": 77.0739}, "countryCode": "KZ"}, "averageDailyFlights": 0.71, "operators": [{"name": "SCAT Airlines", "iata": "DV", "icao": "VSV"}]}, {"destination": {"icao": "ULLI", "iata": "LED", "localCode": "\u041f\u041b\u041a", "name": "Saint-Petersburg Pulkovo", "shortName": "Pulkovo", "municipalityName": "Saint-Petersburg", "location": {"lat": 59.8003, "lon": 30.2625}, "countryCode": "RU"}, "averageDailyFlights": 0.71, "operators": [{"name": "SCAT Airlines", "iata": "DV", "icao": "VSV"}]}, {"destination": {"icao": "LTAC", "iata": "ESB", "name": "Ankara Esenbo\u011fa", "shortName": "Esenbo\u011fa", "municipalityName": "Ankara", "location": {"lat": 40.1281, "lon": 32.9951}, "countryCode": "TR"}, "averageDailyFlights": 0.57, "operators": [{"name": "Turkish Airlines", "iata": "TK", "icao": "THY"}, {"name": "Air Astana", "iata": "KC", "icao": "KZR"}]}, {"destination": {"icao": "UBBB", "iata": "GYD", "localCode": "\u0411\u0410\u041a", "name": "Baku Heydar Aliyev", "shortName": "Heydar Aliyev", "municipalityName": "Baku", "location": {"lat": 40.4675, "lon": 50.0467}, "countryCode": "AZ"}, "averageDailyFlights": 0.57, "operators": [{"name": "AZAL Azerbaijan Airlines", "iata": "J2", "icao": "AHY"}, {"name": "Air Astana", "iata": "KC", "icao": "KZR"}]}, {"destination": {"icao": "LTFJ", "iata": "SAW", "name": "Istanbul Sabiha G\u00f6k\u00e7en", "shortName": "Sabiha G\u00f6k\u00e7en", "municipalityName": "Istanbul", "location": {"lat": 40.8986, "lon": 29.3092}, "countryCode": "TR"}, "averageDailyFlights": 0.57, "operators": [{"name": "Pegasus", "iata": "PC", "icao": "PGT"}]}, {"destination": {"icao": "UNKL", "iata": "KJA", "localCode": "\u041a\u042f\u0410", "name": "Krasnoyarsk Yemelyanovo", "shortName": "Yemelyanovo", "municipalityName": "Krasnoyarsk", "location": {"lat": 56.1729, "lon": 92.4933}, "countryCode": "RU"}, "averageDailyFlights": 0.43, "operators": [{"name": "Rossiya Airlines", "iata": "FV", "icao": "SDM"}]}, {"destination": {"icao": "HESH", "iata": "SSH", "name": "Sharm el Sheikh ", "shortName": "Sharm el Sheikh", "municipalityName": "Sharm el Sheikh", "location": {"lat": 27.9773, "lon": 34.395}, "countryCode": "EG"}, "averageDailyFlights": 0.43, "operators": [{"name": "Air Cairo", "iata": "SM", "icao": "MSC"}, {"name": "SCAT Airlines", "iata": "DV", "icao": "VSV"}]}, {"destination": {"icao": "UGTB", "iata": "TBS", "name": "Tbilisi ", "shortName": "Tbilisi", "municipalityName": "Tbilisi", "location": {"lat": 41.6692, "lon": 44.9547}, "countryCode": "GE"}, "averageDailyFlights": 0.43, "operators": [{"name": "Air Astana", "iata": "KC", "icao": "KZR"}]}, {"destination": {"icao": "UWKD", "iata": "KZN", "name": "Kazan ", "shortName": "Kazan", "municipalityName": "Kazan", "location": {"lat": 55.6062, "lon": 49.2787}, "countryCode": "RU"}, "averageDailyFlights": 0.29, "operators": [{"name": "Red Wings", "iata": "WZ", "icao": "RWZ"}]}, {"destination": {"icao": "UUBW", "iata": "ZIA", "localCode": "\u0416\u0423\u041a", "name": "Moscow Zhukovsky", "shortName": "Zhukovsky", "municipalityName": "Moscow", "location": {"lat": 55.5533, "lon": 38.15}, "countryCode": "RU"}, "averageDailyFlights": 0.29, "operators": [{"name": "Red Wings", "iata": "WZ", "icao": "RWZ"}]}, {"destination": {"icao": "VVCR", "iata": "CXR", "name": "Nha Trang Cam Ranh", "shortName": "Cam Ranh", "municipalityName": "Nha Trang", "location": {"lat": 11.9982, "lon": 109.219}, "countryCode": "VN"}, "averageDailyFlights": 0.29, "operators": [{"name": "VietJetAir", "iata": "VJ", "icao": "VJC"}]}, {"destination": {"icao": "LYPG", "iata": "TGD", "name": "Podgorica ", "shortName": "Podgorica", "municipalityName": "Podgorica", "location": {"lat": 42.3594, "lon": 19.2519}, "countryCode": "ME"}, "averageDailyFlights": 0.29, "operators": [{"name": "Air Astana", "iata": "KC", "icao": "KZR"}]}, {"destination": {"icao": "EPWA", "iata": "WAW", "name": "Warsaw Chopin", "shortName": "Chopin", "municipalityName": "Warsaw", "location": {"lat": 52.1657, "lon": 20.9671}, "countryCode": "PL"}, "averageDailyFlights": 0.29, "operators": [{"name": "LOT - Polish Airlines", "iata": "LO", "icao": "LOT"}]}, {"destination": {"name": "Aktobe"}, "averageDailyFlights": 0.29, "operators": [{"name": "Air Astana", "iata": "KC", "icao": "KZR"}, {"name": "SCAT Airlines", "iata": "DV", "icao": "VSV"}]}, {"destination": {"name": "Kyzylorda"}, "averageDailyFlights": 0.29, "operators": [{"name": "Air Astana", "iata": "KC", "icao": "KZR"}]}, {"destination": {"icao": "ZBAA", "iata": "PEK", "name": "Beijing Capital", "shortName": "Capital", "municipalityName": "Beijing", "location": {"lat": 40.0801, "lon": 116.585}, "countryCode": "CN"}, "averageDailyFlights": 0.14, "operators": [{"name": "Air Astana", "iata": "KC", "icao": "KZR"}]}, {"destination": {"icao": "ZWWW", "iata": "URC", "name": "\u00dcr\u00fcmqi Diwopu", "shortName": "Diwopu", "municipalityName": "\u00dcr\u00fcmqi", "location": {"lat": 43.9071, "lon": 87.4742}, "countryCode": "CN"}, "averageDailyFlights": 0.14, "operators": [{"name": "China Southern Airlines", "iata": "CZ", "icao": "CSN"}]}, {"destination": {"icao": "ZLXY", "iata": "XIY", "name": "Xianyang Xi'an", "shortName": "Xi'an", "municipalityName": "Xianyang", "location": {"lat": 34.4471, "lon": 108.752}, "countryCode": "CN"}, "averageDailyFlights": 0.14, "operators": [{"name": "Air China", "iata": "CA", "icao": "CCA"}]}, {"destination": {"name": "Guangzhou"}, "averageDailyFlights": 0.14, "operators": [{"name": "China Southern Airlines", "iata": "CZ", "icao": "CSN"}]}]}