{"routes": [{"destination": {"icao": "WIII", "iata": "CGK", "name": "Jakarta Soekarno-Hatta", "shortName": "Soekarno-Hatta", "municipalityName": "Jakarta", "location": {"lat": -6.125569, "lon": 106.656}, "countryCode": "ID"}, "averageDailyFlights": 17.0, "operators": [{"name": "Lion Air", "iata": "JT", "icao": "LNI"}, {"name": "Garuda Indonesia", "iata": "GA", "icao": "GIA"}, {"name": "Indonesia AirAsia", "iata": "QZ", "icao": "AWQ"}]}, {"destination": {"icao": "WMKK", "iata": "KUL", "name": "Kuala Lumpur ", "shortName": "Kuala Lumpur", "municipalityName": "Kuala Lumpur", "location": {"lat": 2.745579, "lon": 101.71}, "countryCode": "MY"}, "averageDailyFlights": 10.57, "operators": [{"name": "Indonesia AirAsia", "iata": "QZ", "icao": "AWQ"}, {"name": "AirAsia", "iata": "AK", "icao": "AXM"}, {"name": "Batik Air", "iata": "ID", "icao": "BTK"}, {"name": "Malaysia Airlines", "iata": "MH", "icao": "MAS"}]}, {"destination": {"icao": "WMKP", "iata": "PEN", "name": "Penang ", "shortName": "Penang", "municipalityName": "Penang", "location": {"lat": 5.29714, "lon": 100.277}, "countryCode": "MY"}, "averageDailyFlights": 8.86, "operators": [{"name": "Citilink", "iata": "QG", "icao": "CTV"}, {"name": "Lion Air", "iata": "JT", "icao": "LNI"}, {"name": "Indonesia AirAsia", "iata": "QZ", "icao": "AWQ"}, {"name": "Firefly", "iata": "FY", "icao": "FFM"}, {"name": "AirAsia", "iata": "AK", "icao": "AXM"}]}, {"destination": {"icao": "WIDD", "iata": "BTH", "name": "Batam Island Hang Nadim", "shortName": "Hang Nadim", "municipalityName": "Batam Island", "location": {"lat": 1.121029, "lon": 104.119}, "countryCode": "ID"}, "averageDailyFlights": 5.71, "operators": [{"name": "Lion Air", "iata": "JT", "icao": "LNI"}, {"name": "Citilink", "iata": "QG", "icao": "CTV"}]}, {"destination": {"icao": "WIMB", "iata": "GNS", "name": "Gunung Sitoli-Nias Island Binaka", "shortName": "Binaka", "municipalityName": "Gunung Sitoli-Nias Island", "location": {"lat": 1.16638, "lon": 97.7047}, "countryCode": "ID"}, "averageDailyFlights": 5.71, "operators": [{"name": "Wings Air (Indonesia)", "iata": "IW", "icao": "WON"}]}, {"destination": {"icao": "WIHH", "iata": "HLP", "name": "Jakarta Halim Perdanakusuma", "shortName": "Halim Perdanakusuma", "municipalityName": "Jakarta", "location": {"lat": -6.26661, "lon": 106.891}, "countryCode": "ID"}, "averageDailyFlights": 4.29, "operators": [{"name": "Batik Air", "iata": "ID", "icao": "BTK"}, {"name": "Citilink", "iata": "QG", "icao": "CTV"}]}, {"destination": {"icao": "WITT", "iata": "BTJ", "name": "Banda Aceh Sultan Iskandar Muda", "shortName": "Sultan Iskandar Muda", "municipalityName": "Banda Aceh", "location": {"lat": 5.522872, "lon": 95.42064}, "countryCode": "ID"}, "averageDailyFlights": 3.71, "operators": [{"name": "Lion Air", "iata": "JT", "icao": "LNI"}, {"name": "Citilink", "iata": "QG", "icao": "CTV"}, {"name": "Indonesia AirAsia", "iata": "QZ", "icao": "AWQ"}]}, {"destination": {"icao": "WSSS", "iata": "SIN", "name": "Singapore Changi", "shortName": "Changi", "municipalityName": "Singapore", "location": {"lat": 1.35019, "lon": 103.994}, "countryCode": "SG"}, "averageDailyFlights": 3.43, "operators": [{"name": "Singapore Airlines", "iata": "SQ", "icao": "SIA"}, {"name": "Batik Air", "iata": "ID", "icao": "BTK"}]}, {"destination": {"icao": "WIBB", "iata": "PKU", "name": "Pekanbaru-Sumatra Island Sultan Syarif Kasim Ii (Simpang Tiga)", "shortName": "Sultan Syarif Kasim Ii (Simpang Tiga)", "municipalityName": "Pekanbaru-Sumatra Island", "location": {"lat": 0.460786, "lon": 101.445}, "countryCode": "ID"}, "averageDailyFlights": 3.29, "operators": [{"name": "Wings Air (Indonesia)", "iata": "IW", "icao": "WON"}]}, {"destination": {"icao": "WIMG", "iata": "PDG", "name": "Padang-Sumatra Island Tabing", "shortName": "Tabing", "municipalityName": "Padang-Sumatra Island", "location": {"lat": -0.874988, "lon": 100.352}, "countryCode": "ID"}, "averageDailyFlights": 2.29, "operators": [{"name": "Wings Air (Indonesia)", "iata": "IW", "icao": "WON"}]}, {"destination": {"icao": "VTBD", "iata": "DMK", "name": "Bangkok Don Mueang", "shortName": "Don Mueang", "municipalityName": "Bangkok", "location": {"lat": 13.912599, "lon": 100.607}, "countryCode": "TH"}, "averageDailyFlights": 1.14, "operators": [{"name": "Indonesia AirAsia", "iata": "QZ", "icao": "AWQ"}]}, {"destination": {"name": "Dzhokyakarta"}, "averageDailyFlights": 1.14, "operators": [{"name": "Lion Air", "iata": "JT", "icao": "LNI"}]}, {"destination": {"name": "Lkhoksamave"}, "averageDailyFlights": 1.14, "operators": [{"name": "Wings Air (Indonesia)", "iata": "IW", "icao": "WON"}]}, {"destination": {"name": "Sibolga"}, "averageDailyFlights": 1.14, "operators": [{"name": "Wings Air (Indonesia)", "iata": "IW", "icao": "WON"}]}, {"destination": {"name": "Meluabokh"}, "averageDailyFlights": 0.71, "operators": [{"name": "Wings Air (Indonesia)", "iata": "IW", "icao": "WON"}]}, {"destination": {"name": "Medina"}, "averageDailyFlights": 0.14, "operators": [{"name": "Lion Air", "iata": "JT", "icao": "LNI"}]}]}