{"routes": [{"destination": {"icao": "YMML", "iata": "MEL", "name": "Melbourne City Melbourne", "shortName": "Melbourne", "municipalityName": "Melbourne City", "location": {"lat": -37.6733, "lon": 144.843}, "countryCode": "AU"}, "averageDailyFlights": 24.86, "operators": [{"name": "Qantas", "iata": "QF", "icao": "QFA"}, {"name": "Virgin Australia", "iata": "VA", "icao": "VOZ"}, {"name": "Jetstar", "iata": "JQ", "icao": "JST"}, {"name": "Qatar Airways", "iata": "QR", "icao": "QTR"}, {"name": "Rex Regional Express", "iata": "ZL", "icao": "RXA"}, {"name": "BMW"}]}, {"destination": {"icao": "YSSY", "iata": "SYD", "name": "Sydney City Sydney Kingsford Smith", "shortName": "Sydney Kingsford Smith", "municipalityName": "Sydney City", "location": {"lat": -33.9461, "lon": 151.177}, "countryCode": "AU"}, "averageDailyFlights": 18.3, "operators": [{"name": "Qantas", "iata": "QF", "icao": "QFA"}, {"name": "Jetstar", "iata": "JQ", "icao": "JST"}, {"name": "Virgin Australia", "iata": "VA", "icao": "VOZ"}, {"name": "TFR"}]}, {"destination": {"icao": "YBBN", "iata": "BNE", "name": "Brisbane City Brisbane", "shortName": "Brisbane", "municipalityName": "Brisbane City", "location": {"lat": -27.3842, "lon": 153.117}, "countryCode": "AU"}, "averageDailyFlights": 13.29, "operators": [{"name": "Qantas", "iata": "QF", "icao": "QFA"}, {"name": "Virgin Australia", "iata": "VA", "icao": "VOZ"}, {"name": "Jetstar", "iata": "JQ", "icao": "JST"}]}, {"destination": {"icao": "YPLC", "iata": "PLO", "name": "Port Lincoln ", "shortName": "Port Lincoln", "municipalityName": "Port Lincoln", "location": {"lat": -34.6053, "lon": 135.88}, "countryCode": "AU"}, "averageDailyFlights": 10.49, "operators": [{"name": "Qantas", "iata": "QF", "icao": "QFA"}, {"name": "Rex Regional Express", "iata": "ZL", "icao": "RXA"}, {"name": "Cobham Airline Services", "iata": "NC", "icao": "NJS"}]}, {"destination": {"icao": "YPPH", "iata": "PER", "name": "Perth International", "shortName": "International", "municipalityName": "Perth", "location": {"lat": -31.940277, "lon": 115.96694}, "countryCode": "AU"}, "averageDailyFlights": 6.15, "operators": [{"name": "Qantas", "iata": "QF", "icao": "QFA"}, {"name": "Virgin Australia", "iata": "VA", "icao": "VOZ"}, {"name": "Jetstar", "iata": "JQ", "icao": "JST"}, {"name": "Rex Regional Express", "iata": "ZL", "icao": "RXA"}]}, {"destination": {"icao": "YSCB", "iata": "CBR", "name": "Canberra ", "shortName": "Canberra", "municipalityName": "Canberra", "location": {"lat": -35.3069, "lon": 149.195}, "countryCode": "AU"}, "averageDailyFlights": 4.71, "operators": [{"name": "Qantas", "iata": "QF", "icao": "QFA"}, {"name": "Virgin Australia", "iata": "VA", "icao": "VOZ"}]}, {"destination": {"icao": "YPDN", "iata": "DRW", "name": "Port Darwin Darwin", "shortName": "Darwin", "municipalityName": "Port Darwin", "location": {"lat": -12.414699, "lon": 130.877}, "countryCode": "AU"}, "averageDailyFlights": 4.14, "operators": [{"name": "CFH"}, {"name": "Jetstar", "iata": "JQ", "icao": "JST"}, {"name": "Qantas", "iata": "QF", "icao": "QFA"}, {"name": "Virgin Australia", "iata": "VA", "icao": "VOZ"}, {"name": "Alliance Airlines", "iata": "QQ", "icao": "UTY"}]}, {"destination": {"icao": "YWHA", "iata": "WYA", "name": "Whyalla ", "shortName": "Whyalla", "municipalityName": "Whyalla", "location": {"lat": -33.0589, "lon": 137.514}, "countryCode": "AU"}, "averageDailyFlights": 4.0, "operators": [{"name": "Qantas", "iata": "QF", "icao": "QFA"}, {"name": "Rex Regional Express", "iata": "ZL", "icao": "RXA"}, {"name": "Thai AirAsia", "iata": "FD", "icao": "AIQ"}]}, {"destination": {"icao": "YBAS", "iata": "ASP", "name": "Springs Alice", "shortName": "Alice", "municipalityName": "Springs", "location": {"lat": -23.8067, "lon": 133.902}, "countryCode": "AU"}, "averageDailyFlights": 2.44, "operators": [{"name": "Qantas", "iata": "QF", "icao": "QFA"}, {"name": "Virgin Australia", "iata": "VA", "icao": "VOZ"}]}, {"destination": {"icao": "YOLD", "iata": "OLP", "name": "Olympic Dam ", "shortName": "Olympic Dam", "municipalityName": "Olympic Dam", "location": {"lat": -30.485, "lon": 136.877}, "countryCode": "AU"}, "averageDailyFlights": 2.43, "operators": [{"name": "Alliance Airlines", "iata": "QQ", "icao": "UTY"}]}, {"destination": {"icao": "YBCG", "iata": "OOL", "name": "Gold Coast", "shortName": "Coast", "municipalityName": "Gold", "location": {"lat": -28.1644, "lon": 153.505}, "countryCode": "AU"}, "averageDailyFlights": 2.14, "operators": [{"name": "Jetstar", "iata": "JQ", "icao": "JST"}, {"name": "Virgin Australia", "iata": "VA", "icao": "VOZ"}]}, {"destination": {"icao": "NZAA", "iata": "AKL", "name": "Auckland ", "shortName": "Auckland", "municipalityName": "Auckland", "location": {"lat": -37.0081, "lon": 174.792}, "countryCode": "NZ"}, "averageDailyFlights": 1.86, "operators": [{"name": "Air New Zealand", "iata": "NZ", "icao": "ANZ"}, {"name": "Qatar Airways", "iata": "QR", "icao": "QTR"}]}, {"destination": {"icao": "WADD", "iata": "DPS", "name": "Denpasar-Bali Island Ngurah Rai (Bali)", "shortName": "Ngurah Rai (Bali)", "municipalityName": "Denpasar-Bali Island", "location": {"lat": -8.748169, "lon": 115.167}, "countryCode": "ID"}, "averageDailyFlights": 1.57, "operators": [{"name": "Jetstar", "iata": "JQ", "icao": "JST"}, {"name": "Virgin Australia", "iata": "VA", "icao": "VOZ"}]}, {"destination": {"icao": "YBCS", "iata": "CNS", "name": "Cairns ", "shortName": "Cairns", "municipalityName": "Cairns", "location": {"lat": -16.8858, "lon": 145.755}, "countryCode": "AU"}, "averageDailyFlights": 1.43, "operators": [{"name": "Jetstar", "iata": "JQ", "icao": "JST"}, {"name": "Virgin Australia", "iata": "VA", "icao": "VOZ"}]}, {"destination": {"icao": "YBHI", "iata": "BHQ", "name": "Broken Hill ", "shortName": "Broken Hill", "municipalityName": "Broken Hill", "location": {"lat": -32.0014, "lon": 141.472}, "countryCode": "AU"}, "averageDailyFlights": 1.21, "operators": [{"name": "Thai AirAsia", "iata": "FD", "icao": "AIQ"}, {"name": "Rex Regional Express", "iata": "ZL", "icao": "RXA"}, {"name": "Cobham Airline Services", "iata": "NC", "icao": "NJS"}]}, {"destination": {"icao": "OTHH", "iata": "DOH", "name": "Doha Hamad", "shortName": "Hamad", "municipalityName": "Doha", "location": {"lat": 25.273056, "lon": 51.608055}, "countryCode": "QA"}, "averageDailyFlights": 1.14, "operators": [{"name": "Qatar Airways", "iata": "QR", "icao": "QTR"}]}, {"destination": {"icao": "WSSS", "iata": "SIN", "name": "Singapore Changi", "shortName": "Changi", "municipalityName": "Singapore", "location": {"lat": 1.35019, "lon": 103.994}, "countryCode": "SG"}, "averageDailyFlights": 1.14, "operators": [{"name": "Singapore Airlines", "iata": "SQ", "icao": "SIA"}]}, {"destination": {"name": "Ceduna"}, "averageDailyFlights": 0.86, "operators": [{"name": "Rex Regional Express", "iata": "ZL", "icao": "RXA"}]}, {"destination": {"icao": "YMHB", "iata": "HBA", "name": "Hobart ", "shortName": "Hobart", "municipalityName": "Hobart", "location": {"lat": -42.8361, "lon": 147.51}, "countryCode": "AU"}, "averageDailyFlights": 0.71, "operators": [{"name": "Jetstar", "iata": "JQ", "icao": "JST"}]}, {"destination": {"icao": "WMKK", "iata": "KUL", "name": "Kuala Lumpur ", "shortName": "Kuala Lumpur", "municipalityName": "Kuala Lumpur", "location": {"lat": 2.745579, "lon": 101.71}, "countryCode": "MY"}, "averageDailyFlights": 0.71, "operators": [{"name": "Malaysia Airlines", "iata": "MH", "icao": "MAS"}]}, {"destination": {"icao": "YWLM", "iata": "NTL", "name": "Williamtown Newcastle", "shortName": "Newcastle", "municipalityName": "Williamtown", "location": {"lat": -32.795, "lon": 151.834}, "countryCode": "AU"}, "averageDailyFlights": 0.71, "operators": [{"name": "Qantas", "iata": "QF", "icao": "QFA"}]}, {"destination": {"icao": "YBTL", "iata": "TSV", "name": "Townsville ", "shortName": "Townsville", "municipalityName": "Townsville", "location": {"lat": -19.2525, "lon": 146.765}, "countryCode": "AU"}, "averageDailyFlights": 0.57, "operators": [{"name": "Qantas", "iata": "QF", "icao": "QFA"}]}, {"destination": {"name": "Carrapateena"}, "averageDailyFlights": 0.57, "operators": [{"name": "Cobham Airline Services", "iata": "NC", "icao": "NJS"}]}, {"destination": {"name": "Moomba"}, "averageDailyFlights": 0.57, "operators": [{"name": "Alliance Airlines", "iata": "QQ", "icao": "UTY"}]}, {"destination": {"name": "Mount Gambier"}, "averageDailyFlights": 0.57, "operators": [{"name": "Rex Regional Express", "iata": "ZL", "icao": "RXA"}]}, {"destination": {"icao": "YBSU", "iata": "MCY", "name": "Maroochydore Sunshine Coast", "shortName": "Sunshine Coast", "municipalityName": "Maroochydore", "location": {"lat": -26.6033, "lon": 153.091}, "countryCode": "AU"}, "averageDailyFlights": 0.43, "operators": [{"name": "Jetstar", "iata": "JQ", "icao": "JST"}]}, {"destination": {"icao": "NFFN", "iata": "NAN", "name": "Nadi ", "shortName": "Nadi", "municipalityName": "Nadi", "location": {"lat": -17.7554, "lon": 177.443}, "countryCode": "FJ"}, "averageDailyFlights": 0.29, "operators": [{"name": "Fiji Airways", "iata": "FJ", "icao": "FJI"}]}, {"destination": {"name": "Jacinth Ambros"}, "averageDailyFlights": 0.14, "operators": [{"name": "Rex Regional Express", "iata": "ZL", "icao": "RXA"}]}, {"destination": {"name": "Mildura"}, "averageDailyFlights": 0.14, "operators": [{"name": "Qantas", "iata": "QF", "icao": "QFA"}]}]}