{"routes": [{"destination": {"icao": "ZSHC", "iata": "HGH", "name": "Hangzhou Xiaoshan", "shortName": "Xiaoshan", "municipalityName": "Hangzhou", "location": {"lat": 30.2295, "lon": 120.434}, "countryCode": "CN"}, "averageDailyFlights": 8.0, "operators": [{"name": "Hainan Airlines", "iata": "HU", "icao": "CHH"}, {"name": "China Eastern Airlines", "iata": "MU", "icao": "CES"}, {"name": "Xiamen Airlines", "iata": "MF", "icao": "CXA"}]}, {"destination": {"icao": "ZGHA", "iata": "CSX", "name": "Changsha Huanghua", "shortName": "Huanghua", "municipalityName": "Changsha", "location": {"lat": 28.1892, "lon": 113.22}, "countryCode": "CN"}, "averageDailyFlights": 7.71, "operators": [{"name": "China Southern Airlines", "iata": "CZ", "icao": "CSN"}, {"name": "Hainan Airlines", "iata": "HU", "icao": "CHH"}, {"name": "Joy Air", "iata": "JR", "icao": "JOY"}, {"name": "China Eastern Airlines", "iata": "MU", "icao": "CES"}, {"name": "Okay Airways", "iata": "BK", "icao": "OKA"}, {"name": "Kunming Airlines", "iata": "KY", "icao": "KNA"}, {"name": "Xiamen Airlines", "iata": "MF", "icao": "CXA"}]}, {"destination": {"icao": "ZGGG", "iata": "CAN", "name": "Guangzhou Baiyun", "shortName": "Baiyun", "municipalityName": "Guangzhou", "location": {"lat": 23.3924, "lon": 113.299}, "countryCode": "CN"}, "averageDailyFlights": 7.71, "operators": [{"name": "China Eastern Airlines", "iata": "MU", "icao": "CES"}, {"name": "China Southern Airlines", "iata": "CZ", "icao": "CSN"}, {"name": "Hainan Airlines", "iata": "HU", "icao": "CHH"}]}, {"destination": {"icao": "ZHHH", "iata": "WUH", "name": "Wuhan Tianhe", "shortName": "Tianhe", "municipalityName": "Wuhan", "location": {"lat": 30.7838, "lon": 114.208}, "countryCode": "CN"}, "averageDailyFlights": 7.58, "operators": [{"name": "China Eastern Airlines", "iata": "MU", "icao": "CES"}, {"name": "Juneyao Airlines", "iata": "HO", "icao": "DKH"}, {"name": "Shandong Airlines", "iata": "SC", "icao": "CDG"}, {"name": "Shenzhen Airlines", "iata": "ZH", "icao": "CSZ"}, {"name": "China Southern Airlines", "iata": "CZ", "icao": "CSN"}]}, {"destination": {"icao": "ZSNJ", "iata": "NKG", "name": "Nanjing Lukou", "shortName": "Lukou", "municipalityName": "Nanjing", "location": {"lat": 31.742, "lon": 118.862}, "countryCode": "CN"}, "averageDailyFlights": 7.29, "operators": [{"name": "China Eastern Airlines", "iata": "MU", "icao": "CES"}, {"name": "Hainan Airlines", "iata": "HU", "icao": "CHH"}, {"name": "Shenzhen Airlines", "iata": "ZH", "icao": "CSZ"}, {"name": "Juneyao Airlines", "iata": "HO", "icao": "DKH"}, {"name": "Xiamen Airlines", "iata": "MF", "icao": "CXA"}]}, {"destination": {"name": "Chengdu"}, "averageDailyFlights": 7.0, "operators": [{"name": "China Eastern Airlines", "iata": "MU", "icao": "CES"}, {"name": "Loong Air", "iata": "GJ", "icao": "CDC"}, {"name": "Sichuan Airlines", "iata": "3U", "icao": "CSC"}, {"name": "Air China", "iata": "CA", "icao": "CCA"}, {"name": "Tibet Airlines", "iata": "TV", "icao": "TBA"}, {"name": "Shenzhen Airlines", "iata": "ZH", "icao": "CSZ"}]}, {"destination": {"icao": "ZPPP", "iata": "KMG", "name": "Kunming Changshui", "shortName": "Changshui", "municipalityName": "Kunming", "location": {"lat": 25.101944, "lon": 102.92917}, "countryCode": "CN"}, "averageDailyFlights": 6.29, "operators": [{"name": "China Eastern Airlines", "iata": "MU", "icao": "CES"}, {"name": "Ruili Airlines", "iata": "DR", "icao": "RLH"}, {"name": "Lucky Air", "iata": "8L", "icao": "LKE"}, {"name": "Kunming Airlines", "iata": "KY", "icao": "KNA"}]}, {"destination": {"icao": "ZUCK", "iata": "CKG", "name": "Chongqing Jiangbei", "shortName": "Jiangbei", "municipalityName": "Chongqing", "location": {"lat": 29.7192, "lon": 106.642}, "countryCode": "CN"}, "averageDailyFlights": 5.86, "operators": [{"name": "Kunming Airlines", "iata": "KY", "icao": "KNA"}, {"name": "West Air (China)", "iata": "PN", "icao": "CHB"}, {"name": "Shandong Airlines", "iata": "SC", "icao": "CDG"}, {"name": "China Eastern Airlines", "iata": "MU", "icao": "CES"}]}, {"destination": {"icao": "ZGSZ", "iata": "SZX", "name": "Shenzhen Bao'an", "shortName": "Bao'an", "municipalityName": "Shenzhen", "location": {"lat": 22.6393, "lon": 113.811}, "countryCode": "CN"}, "averageDailyFlights": 5.71, "operators": [{"name": "Hainan Airlines", "iata": "HU", "icao": "CHH"}, {"name": "Shenzhen Airlines", "iata": "ZH", "icao": "CSZ"}, {"name": "China Southern Airlines", "iata": "CZ", "icao": "CSN"}]}, {"destination": {"icao": "ZSPD", "iata": "PVG", "name": "Shanghai Pudong", "shortName": "Pudong", "municipalityName": "Shanghai", "location": {"lat": 31.1434, "lon": 121.805}, "countryCode": "CN"}, "averageDailyFlights": 5.29, "operators": [{"name": "Juneyao Airlines", "iata": "HO", "icao": "DKH"}, {"name": "China Eastern Airlines", "iata": "MU", "icao": "CES"}, {"name": "Spring Airlines", "iata": "9C", "icao": "CQH"}]}, {"destination": {"icao": "ZYTX", "iata": "SHE", "name": "Shenyang Taoxian", "shortName": "Taoxian", "municipalityName": "Shenyang", "location": {"lat": 41.6398, "lon": 123.483}, "countryCode": "CN"}, "averageDailyFlights": 5.0, "operators": [{"name": "Sichuan Airlines", "iata": "3U", "icao": "CSC"}, {"name": "Shandong Airlines", "iata": "SC", "icao": "CDG"}, {"name": "Shenzhen Airlines", "iata": "ZH", "icao": "CSZ"}, {"name": "Loong Air", "iata": "GJ", "icao": "CDC"}, {"name": "Okay Airways", "iata": "BK", "icao": "OKA"}]}, {"destination": {"icao": "ZSCN", "iata": "KHN", "name": "Nanchang Changbei", "shortName": "Changbei", "municipalityName": "Nanchang", "location": {"lat": 28.865, "lon": 115.9}, "countryCode": "CN"}, "averageDailyFlights": 4.43, "operators": [{"name": "China Eastern Airlines", "iata": "MU", "icao": "CES"}, {"name": "Spring Airlines", "iata": "9C", "icao": "CQH"}, {"name": "Shenzhen Airlines", "iata": "ZH", "icao": "CSZ"}, {"name": "Jiangxi Airlines", "iata": "RY", "icao": "CJX"}]}, {"destination": {"icao": "ZYTL", "iata": "DLC", "name": "Dalian Zhoushuizi", "shortName": "Zhoushuizi", "municipalityName": "Dalian", "location": {"lat": 38.9657, "lon": 121.539}, "countryCode": "CN"}, "averageDailyFlights": 3.43, "operators": [{"name": "Okay Airways", "iata": "BK", "icao": "OKA"}, {"name": "China Eastern Airlines", "iata": "MU", "icao": "CES"}, {"name": "China Southern Airlines", "iata": "CZ", "icao": "CSN"}, {"name": "Hainan Airlines", "iata": "HU", "icao": "CHH"}]}, {"destination": {"icao": "ZGSD", "iata": "ZUH", "name": "Zhuhai ", "shortName": "Zhuhai", "municipalityName": "Zhuhai", "location": {"lat": 22.0064, "lon": 113.376}, "countryCode": "CN"}, "averageDailyFlights": 3.43, "operators": [{"name": "China Southern Airlines", "iata": "CZ", "icao": "CSN"}, {"name": "Donghai Airlines", "iata": "DZ", "icao": "EPA"}, {"name": "Hainan Airlines", "iata": "HU", "icao": "CHH"}]}, {"destination": {"name": "\u00dcr\u00fcmqi"}, "averageDailyFlights": 3.43, "operators": [{"name": "Shandong Airlines", "iata": "SC", "icao": "CDG"}, {"name": "China Eastern Airlines", "iata": "MU", "icao": "CES"}, {"name": "Hainan Airlines", "iata": "HU", "icao": "CHH"}]}, {"destination": {"icao": "ZYCC", "iata": "CGQ", "name": "Changchun Longjia", "shortName": "Longjia", "municipalityName": "Changchun", "location": {"lat": 43.9962, "lon": 125.685}, "countryCode": "CN"}, "averageDailyFlights": 3.29, "operators": [{"name": "Shandong Airlines", "iata": "SC", "icao": "CDG"}, {"name": "Shanghai Airlines", "iata": "FM", "icao": "CSH"}, {"name": "Qingdao Airlines", "iata": "QW", "icao": "QDA"}, {"name": "Hainan Airlines", "iata": "HU", "icao": "CHH"}]}, {"destination": {"icao": "ZSQD", "iata": "TAO", "name": "Qingdao Liuting", "shortName": "Liuting", "municipalityName": "Qingdao", "location": {"lat": 36.2661, "lon": 120.374}, "countryCode": "CN"}, "averageDailyFlights": 3.03, "operators": [{"name": "Hainan Airlines", "iata": "HU", "icao": "CHH"}, {"name": "China Eastern Airlines", "iata": "MU", "icao": "CES"}, {"name": "Ruili Airlines", "iata": "DR", "icao": "RLH"}, {"name": "Shandong Airlines", "iata": "SC", "icao": "CDG"}]}, {"destination": {"icao": "ZBOW", "iata": "BAV", "name": "Baotou ", "shortName": "Baotou", "municipalityName": "Baotou", "location": {"lat": 40.56, "lon": 109.997}, "countryCode": "CN"}, "averageDailyFlights": 3.0, "operators": [{"name": "Ruili Airlines", "iata": "DR", "icao": "RLH"}, {"name": "China Express Airlines", "iata": "G5", "icao": "HXA"}, {"name": "Shandong Airlines", "iata": "SC", "icao": "CDG"}]}, {"destination": {"icao": "ZUGY", "iata": "KWE", "name": "Guiyang Longdongbao", "shortName": "Longdongbao", "municipalityName": "Guiyang", "location": {"lat": 26.5385, "lon": 106.801}, "countryCode": "CN"}, "averageDailyFlights": 3.0, "operators": [{"name": "Shandong Airlines", "iata": "SC", "icao": "CDG"}, {"name": "Juneyao Airlines", "iata": "HO", "icao": "DKH"}, {"name": "Kunming Airlines", "iata": "KY", "icao": "KNA"}, {"name": "China Eastern Airlines", "iata": "MU", "icao": "CES"}]}, {"destination": {"icao": "ZSOF", "iata": "HFE", "name": "Hefei Luogang", "shortName": "Luogang", "municipalityName": "Hefei", "location": {"lat": 31.78, "lon": 117.298}, "countryCode": "CN"}, "averageDailyFlights": 2.86, "operators": [{"name": "China Eastern Airlines", "iata": "MU", "icao": "CES"}, {"name": "Hainan Airlines", "iata": "HU", "icao": "CHH"}, {"name": "Shenzhen Airlines", "iata": "ZH", "icao": "CSZ"}]}, {"destination": {"icao": "ZSAM", "iata": "XMN", "name": "Xiamen Gaoqi", "shortName": "Gaoqi", "municipalityName": "Xiamen", "location": {"lat": 24.544, "lon": 118.128}, "countryCode": "CN"}, "averageDailyFlights": 2.86, "operators": [{"name": "Xiamen Airlines", "iata": "MF", "icao": "CXA"}, {"name": "Shandong Airlines", "iata": "SC", "icao": "CDG"}]}, {"destination": {"icao": "ZJSY", "iata": "SYX", "name": "Sanya Phoenix", "shortName": "Phoenix", "municipalityName": "Sanya", "location": {"lat": 18.3029, "lon": 109.412}, "countryCode": "CN"}, "averageDailyFlights": 2.71, "operators": [{"name": "Hainan Airlines", "iata": "HU", "icao": "CHH"}, {"name": "Sichuan Airlines", "iata": "3U", "icao": "CSC"}, {"name": "Beijing Capital Airlines", "iata": "JD", "icao": "CBJ"}]}, {"destination": {"icao": "ZLLL", "iata": "LHW", "name": "Lanzhou Zhongchuan", "shortName": "Zhongchuan", "municipalityName": "Lanzhou", "location": {"lat": 36.5152, "lon": 103.62}, "countryCode": "CN"}, "averageDailyFlights": 2.57, "operators": [{"name": "Sichuan Airlines", "iata": "3U", "icao": "CSC"}, {"name": "China Eastern Airlines", "iata": "MU", "icao": "CES"}, {"name": "Shandong Airlines", "iata": "SC", "icao": "CDG"}]}, {"destination": {"icao": "ZSFZ", "iata": "FOC", "name": "Fuzhou Changle", "shortName": "Changle", "municipalityName": "Fuzhou", "location": {"lat": 25.9351, "lon": 119.663}, "countryCode": "CN"}, "averageDailyFlights": 2.43, "operators": [{"name": "Xiamen Airlines", "iata": "MF", "icao": "CXA"}, {"name": "Fuzhou Airlines", "iata": "FU", "icao": "FZA"}]}, {"destination": {"icao": "ZBAA", "iata": "PEK", "name": "Beijing Capital", "shortName": "Capital", "municipalityName": "Beijing", "location": {"lat": 40.0801, "lon": 116.585}, "countryCode": "CN"}, "averageDailyFlights": 2.29, "operators": [{"name": "Air China", "iata": "CA", "icao": "CCA"}]}, {"destination": {"icao": "ZSWX", "iata": "WUX", "name": "Wuxi Sunan Shuofang", "shortName": "Sunan Shuofang", "municipalityName": "Wuxi", "location": {"lat": 31.4944, "lon": 120.429}, "countryCode": "CN"}, "averageDailyFlights": 2.29, "operators": [{"name": "Shenzhen Airlines", "iata": "ZH", "icao": "CSZ"}, {"name": "China Eastern Airlines", "iata": "MU", "icao": "CES"}]}, {"destination": {"icao": "ZHYC", "iata": "YIH", "name": "Yichang ", "shortName": "Yichang", "municipalityName": "Yichang", "location": {"lat": 30.55655, "lon": 111.47999}, "countryCode": "CN"}, "averageDailyFlights": 2.29, "operators": [{"name": "China Eastern Airlines", "iata": "MU", "icao": "CES"}, {"name": "Shenzhen Airlines", "iata": "ZH", "icao": "CSZ"}]}, {"destination": {"icao": "ZSWZ", "iata": "WNZ", "name": "Wenzhou Yongqiang", "shortName": "Yongqiang", "municipalityName": "Wenzhou", "location": {"lat": 27.9122, "lon": 120.852}, "countryCode": "CN"}, "averageDailyFlights": 2.0, "operators": [{"name": "China Eastern Airlines", "iata": "MU", "icao": "CES"}, {"name": "Air China", "iata": "CA", "icao": "CCA"}]}, {"destination": {"icao": "ZGKL", "iata": "KWL", "name": "Guilin City Guilin Liangjiang", "shortName": "Guilin Liangjiang", "municipalityName": "Guilin City", "location": {"lat": 25.2181, "lon": 110.039}, "countryCode": "CN"}, "averageDailyFlights": 1.86, "operators": [{"name": "China Eastern Airlines", "iata": "MU", "icao": "CES"}, {"name": "Sichuan Airlines", "iata": "3U", "icao": "CSC"}]}, {"destination": {"icao": "ZYHB", "iata": "HRB", "name": "Harbin Taiping", "shortName": "Taiping", "municipalityName": "Harbin", "location": {"lat": 45.6234, "lon": 126.25}, "countryCode": "CN"}, "averageDailyFlights": 1.86, "operators": [{"name": "Sichuan Airlines", "iata": "3U", "icao": "CSC"}, {"name": "Jiangxi Airlines", "iata": "RY", "icao": "CJX"}]}, {"destination": {"icao": "ZJHK", "iata": "HAK", "name": "Haikou Meilan", "shortName": "Meilan", "municipalityName": "Haikou", "location": {"lat": 19.9349, "lon": 110.459}, "countryCode": "CN"}, "averageDailyFlights": 1.71, "operators": [{"name": "Beijing Capital Airlines", "iata": "JD", "icao": "CBJ"}, {"name": "Shandong Airlines", "iata": "SC", "icao": "CDG"}, {"name": "Hainan Airlines", "iata": "HU", "icao": "CHH"}]}, {"destination": {"icao": "ZSYW", "iata": "YIW", "name": "Yiwu ", "shortName": "Yiwu", "municipalityName": "Yiwu", "location": {"lat": 29.3447, "lon": 120.032}, "countryCode": "CN"}, "averageDailyFlights": 1.43, "operators": [{"name": "China Southern Airlines", "iata": "CZ", "icao": "CSN"}, {"name": "China Eastern Airlines", "iata": "MU", "icao": "CES"}]}, {"destination": {"icao": "ZSNB", "iata": "NGB", "name": "Ningbo Lishe", "shortName": "Lishe", "municipalityName": "Ningbo", "location": {"lat": 29.8267, "lon": 121.462}, "countryCode": "CN"}, "averageDailyFlights": 1.29, "operators": [{"name": "China Eastern Airlines", "iata": "MU", "icao": "CES"}]}, {"destination": {"name": "Yanchzhou"}, "averageDailyFlights": 1.29, "operators": [{"name": "Kunming Airlines", "iata": "KY", "icao": "KNA"}, {"name": "Spring Airlines", "iata": "9C", "icao": "CQH"}]}, {"destination": {"icao": "ZBHH", "iata": "HET", "name": "Hohhot Baita", "shortName": "Baita", "municipalityName": "Hohhot", "location": {"lat": 40.8514, "lon": 111.824}, "countryCode": "CN"}, "averageDailyFlights": 1.14, "operators": [{"name": "China Eastern Airlines", "iata": "MU", "icao": "CES"}]}, {"destination": {"icao": "ZGNN", "iata": "NNG", "name": "Nanning Wuxu", "shortName": "Wuxu", "municipalityName": "Nanning", "location": {"lat": 22.6083, "lon": 108.172}, "countryCode": "CN"}, "averageDailyFlights": 1.14, "operators": [{"name": "China Eastern Airlines", "iata": "MU", "icao": "CES"}]}, {"destination": {"icao": "ZHNY", "iata": "NNY", "name": "Nanyang ", "shortName": "Nanyang", "municipalityName": "Nanyang", "location": {"lat": 32.9808, "lon": 112.615}, "countryCode": "CN"}, "averageDailyFlights": 1.14, "operators": [{"name": "Hainan Airlines", "iata": "HU", "icao": "CHH"}]}, {"destination": {"icao": "ZSSS", "iata": "SHA", "name": "Shanghai Hongqiao", "shortName": "Hongqiao", "municipalityName": "Shanghai", "location": {"lat": 31.1979, "lon": 121.336}, "countryCode": "CN"}, "averageDailyFlights": 1.14, "operators": [{"name": "Shanghai Airlines", "iata": "FM", "icao": "CSH"}]}, {"destination": {"icao": "ZGOW", "iata": "SWA", "name": "Shantou Jieyang Chaoshan", "shortName": "Jieyang Chaoshan", "municipalityName": "Shantou", "location": {"lat": 23.552, "lon": 116.5033}, "countryCode": "CN"}, "averageDailyFlights": 1.14, "operators": [{"name": "China Eastern Airlines", "iata": "MU", "icao": "CES"}]}, {"destination": {"icao": "ZBTJ", "iata": "TSN", "name": "Tianjin Binhai", "shortName": "Binhai", "municipalityName": "Tianjin", "location": {"lat": 39.1244, "lon": 117.346}, "countryCode": "CN"}, "averageDailyFlights": 1.14, "operators": [{"name": "Air China", "iata": "CA", "icao": "CCA"}]}, {"destination": {"icao": "ZHXF", "iata": "XFN", "name": "Xiangfan ", "shortName": "Xiangfan", "municipalityName": "Xiangfan", "location": {"lat": 32.1506, "lon": 112.291}, "countryCode": "CN"}, "averageDailyFlights": 1.14, "operators": [{"name": "Fuzhou Airlines", "iata": "FU", "icao": "FZA"}]}, {"destination": {"icao": "ZLXN", "iata": "XNN", "name": "Xining Caojiabu", "shortName": "Caojiabu", "municipalityName": "Xining", "location": {"lat": 36.5275, "lon": 102.043}, "countryCode": "CN"}, "averageDailyFlights": 1.14, "operators": [{"name": "Air China", "iata": "CA", "icao": "CCA"}]}, {"destination": {"icao": "ZSYT", "iata": "YNT", "name": "Yantai Laishan", "shortName": "Laishan", "municipalityName": "Yantai", "location": {"lat": 37.4017, "lon": 121.372}, "countryCode": "CN"}, "averageDailyFlights": 1.14, "operators": [{"name": "China Eastern Airlines", "iata": "MU", "icao": "CES"}]}, {"destination": {"name": "Beyker-Aylend"}, "averageDailyFlights": 1.14, "operators": [{"name": "Shanghai Airlines", "iata": "FM", "icao": "CSH"}]}, {"destination": {"name": "Zunyi"}, "averageDailyFlights": 1.14, "operators": [{"name": "Colorful Guizhou Airlines", "iata": "GY", "icao": "CGZ"}]}, {"destination": {"icao": "ZBDS", "iata": "DSN", "name": "Ordos Ejin Horo", "shortName": "Ejin Horo", "municipalityName": "Ordos", "location": {"lat": 39.49, "lon": 109.86139}, "countryCode": "CN"}, "averageDailyFlights": 1.0, "operators": [{"name": "China Eastern Airlines", "iata": "MU", "icao": "CES"}]}, {"destination": {"icao": "ZSXZ", "iata": "XUZ", "name": "Xuzhou Guanyin", "shortName": "Guanyin", "municipalityName": "Xuzhou", "location": {"lat": 34.059055, "lon": 117.555275}, "countryCode": "CN"}, "averageDailyFlights": 1.0, "operators": [{"name": "Xiamen Airlines", "iata": "MF", "icao": "CXA"}]}, {"destination": {"icao": "ZBAD", "iata": "PKX", "name": "Beijing Daxing", "shortName": "Daxing", "municipalityName": "Beijing", "location": {"lat": 39.509167, "lon": 116.41055}, "countryCode": "CN"}, "averageDailyFlights": 0.71, "operators": [{"name": "China Eastern Airlines", "iata": "MU", "icao": "CES"}]}, {"destination": {"icao": "ZGDY", "iata": "DYG", "name": "Dayong ", "shortName": "Dayong", "municipalityName": "Dayong", "location": {"lat": 29.1028, "lon": 110.443}, "countryCode": "CN"}, "averageDailyFlights": 0.71, "operators": [{"name": "Juneyao Airlines", "iata": "HO", "icao": "DKH"}]}, {"destination": {"icao": "ZPLJ", "iata": "LJG", "name": "Lijiang ", "shortName": "Lijiang", "municipalityName": "Lijiang", "location": {"lat": 26.68, "lon": 100.246}, "countryCode": "CN"}, "averageDailyFlights": 0.71, "operators": [{"name": "Beijing Capital Airlines", "iata": "JD", "icao": "CBJ"}]}, {"destination": {"icao": "ZLYA", "iata": "ENY", "name": "Yan'an ", "shortName": "Yan'an", "municipalityName": "Yan'an", "location": {"lat": 36.6369, "lon": 109.554}, "countryCode": "CN"}, "averageDailyFlights": 0.71, "operators": [{"name": "China Express Airlines", "iata": "G5", "icao": "HXA"}]}, {"destination": {"icao": "ZLIC", "iata": "INC", "name": "Yinchuan ", "shortName": "Yinchuan", "municipalityName": "Yinchuan", "location": {"lat": 38.4819, "lon": 106.009}, "countryCode": "CN"}, "averageDailyFlights": 0.71, "operators": [{"name": "China Eastern Airlines", "iata": "MU", "icao": "CES"}]}, {"destination": {"name": "Syamyn"}, "averageDailyFlights": 0.71, "operators": [{"name": "Shandong Airlines", "iata": "SC", "icao": "CDG"}]}, {"destination": {"icao": "ZGFS", "iata": "FUO", "name": "Foshan Shadi", "shortName": "Shadi", "municipalityName": "Foshan", "location": {"lat": 23.0833, "lon": 113.07}, "countryCode": "CN"}, "averageDailyFlights": 0.43, "operators": [{"name": "China United Airlines", "iata": "KN", "icao": "CUA"}]}, {"destination": {"icao": "ZPJH", "iata": "JHG", "name": "Jinghong Xishuangbanna Gasa", "shortName": "Xishuangbanna Gasa", "municipalityName": "Jinghong", "location": {"lat": 21.9739, "lon": 100.76}, "countryCode": "CN"}, "averageDailyFlights": 0.43, "operators": [{"name": "Qingdao Airlines", "iata": "QW", "icao": "QDA"}]}, {"destination": {"icao": "ZSJU", "iata": "JUZ", "name": "Quzhou ", "shortName": "Quzhou", "municipalityName": "Quzhou", "location": {"lat": 28.9658, "lon": 118.899}, "countryCode": "CN"}, "averageDailyFlights": 0.43, "operators": [{"name": "China Express Airlines", "iata": "G5", "icao": "HXA"}]}, {"destination": {"icao": "ZUYB", "iata": "YBP", "name": "Yibin Caiba", "shortName": "Caiba", "municipalityName": "Yibin", "location": {"lat": 28.800554, "lon": 104.545}, "countryCode": "CN"}, "averageDailyFlights": 0.43, "operators": [{"name": "Colorful Guizhou Airlines", "iata": "GY", "icao": "CGZ"}]}, {"destination": {"name": "Huizhou"}, "averageDailyFlights": 0.43, "operators": [{"name": "Juneyao Airlines", "iata": "HO", "icao": "DKH"}]}, {"destination": {"name": "Nantong"}, "averageDailyFlights": 0.43, "operators": [{"name": "Shenzhen Airlines", "iata": "ZH", "icao": "CSZ"}]}, {"destination": {"icao": "ZSLY", "iata": "LYI", "name": "Linyi Shubuling", "shortName": "Shubuling", "municipalityName": "Linyi", "location": {"lat": 35.0461, "lon": 118.412}, "countryCode": "CN"}, "averageDailyFlights": 0.29, "operators": [{"name": "Shandong Airlines", "iata": "SC", "icao": "CDG"}]}, {"destination": {"icao": "VMMC", "iata": "MFM", "name": "Taipa Macau", "shortName": "Macau", "municipalityName": "Taipa", "location": {"lat": 22.1496, "lon": 113.592}, "countryCode": "MO"}, "averageDailyFlights": 0.29, "operators": [{"name": "Air Macau", "iata": "NX", "icao": "AMU"}]}, {"destination": {"icao": "ZBLA", "iata": "HLD", "name": "Hailar Dongshan", "shortName": "Dongshan", "municipalityName": "Hailar", "location": {"lat": 49.205, "lon": 119.825}, "countryCode": "CN"}, "averageDailyFlights": 0.14, "operators": [{"name": "Shandong Airlines", "iata": "SC", "icao": "CDG"}]}, {"destination": {"icao": "VVCR", "iata": "CXR", "name": "Nha Trang Cam Ranh", "shortName": "Cam Ranh", "municipalityName": "Nha Trang", "location": {"lat": 11.9982, "lon": 109.219}, "countryCode": "VN"}, "averageDailyFlights": 0.14, "operators": [{"name": "VietJetAir", "iata": "VJ", "icao": "VJC"}]}, {"destination": {"name": "Dunshen"}, "averageDailyFlights": 0.14, "operators": [{"name": "China Eastern Airlines", "iata": "MU", "icao": "CES"}]}, {"destination": {"name": "Tszintszyan"}, "averageDailyFlights": 0.14, "operators": [{"name": "Shenzhen Airlines", "iata": "ZH", "icao": "CSZ"}]}]}