{"routes": [{"destination": {"icao": "ZBAD", "iata": "PKX", "name": "Beijing Daxing", "shortName": "Daxing", "municipalityName": "Beijing", "location": {"lat": 39.509167, "lon": 116.41055}, "countryCode": "CN"}, "averageDailyFlights": 11.39, "operators": [{"name": "China Southern Airlines", "iata": "CZ", "icao": "CSN"}, {"name": "Beijing Capital Airlines", "iata": "JD", "icao": "CBJ"}, {"name": "Hebei Airlines", "iata": "NS", "icao": "HBH"}, {"name": "Air China", "iata": "CA", "icao": "CCA"}]}, {"destination": {"icao": "ZSNJ", "iata": "NKG", "name": "Nanjing Lukou", "shortName": "Lukou", "municipalityName": "Nanjing", "location": {"lat": 31.742, "lon": 118.862}, "countryCode": "CN"}, "averageDailyFlights": 10.29, "operators": [{"name": "9 Air Co", "iata": "AQ", "icao": "JYH"}, {"name": "Chengdu Airlines", "iata": "EU", "icao": "UEA"}, {"name": "China Southern Airlines", "iata": "CZ", "icao": "CSN"}, {"name": "Juneyao Airlines", "iata": "HO", "icao": "DKH"}, {"name": "China Eastern Airlines", "iata": "MU", "icao": "CES"}, {"name": "West Air (China)", "iata": "PN", "icao": "CHB"}, {"name": "Tianjin Airlines", "iata": "GS", "icao": "GCR"}]}, {"destination": {"icao": "ZSHC", "iata": "HGH", "name": "Hangzhou Xiaoshan", "shortName": "Xiaoshan", "municipalityName": "Hangzhou", "location": {"lat": 30.2295, "lon": 120.434}, "countryCode": "CN"}, "averageDailyFlights": 9.43, "operators": [{"name": "China Southern Airlines", "iata": "CZ", "icao": "CSN"}, {"name": "Xiamen Airlines", "iata": "MF", "icao": "CXA"}, {"name": "Sichuan Airlines", "iata": "3U", "icao": "CSC"}, {"name": "Tianjin Airlines", "iata": "GS", "icao": "GCR"}, {"name": "Air China", "iata": "CA", "icao": "CCA"}, {"name": "Loong Air", "iata": "GJ", "icao": "CDC"}]}, {"destination": {"icao": "ZSPD", "iata": "PVG", "name": "Shanghai Pudong", "shortName": "Pudong", "municipalityName": "Shanghai", "location": {"lat": 31.1434, "lon": 121.805}, "countryCode": "CN"}, "averageDailyFlights": 9.43, "operators": [{"name": "Juneyao Airlines", "iata": "HO", "icao": "DKH"}, {"name": "China Southern Airlines", "iata": "CZ", "icao": "CSN"}, {"name": "Air China", "iata": "CA", "icao": "CCA"}, {"name": "China Eastern Airlines", "iata": "MU", "icao": "CES"}, {"name": "Suparna Airlines", "iata": "Y8", "icao": "YZR"}]}, {"destination": {"icao": "ZSWZ", "iata": "WNZ", "name": "Wenzhou Yongqiang", "shortName": "Yongqiang", "municipalityName": "Wenzhou", "location": {"lat": 27.9122, "lon": 120.852}, "countryCode": "CN"}, "averageDailyFlights": 8.14, "operators": [{"name": "Air Changan", "iata": "9H", "icao": "CGN"}, {"name": "Air China", "iata": "CA", "icao": "CCA"}, {"name": "Chengdu Airlines", "iata": "EU", "icao": "UEA"}, {"name": "Qingdao Airlines", "iata": "QW", "icao": "QDA"}, {"name": "9 Air Co", "iata": "AQ", "icao": "JYH"}, {"name": "China Southern Airlines", "iata": "CZ", "icao": "CSN"}, {"name": "Shandong Airlines", "iata": "SC", "icao": "CDG"}, {"name": "Juneyao Airlines", "iata": "HO", "icao": "DKH"}]}, {"destination": {"icao": "ZLXY", "iata": "XIY", "name": "Xianyang Xi'an", "shortName": "Xi'an", "municipalityName": "Xianyang", "location": {"lat": 34.4471, "lon": 108.752}, "countryCode": "CN"}, "averageDailyFlights": 7.71, "operators": [{"name": "Shandong Airlines", "iata": "SC", "icao": "CDG"}, {"name": "Hainan Airlines", "iata": "HU", "icao": "CHH"}, {"name": "China Eastern Airlines", "iata": "MU", "icao": "CES"}, {"name": "Tianjin Airlines", "iata": "GS", "icao": "GCR"}, {"name": "Colorful Guizhou Airlines", "iata": "GY", "icao": "CGZ"}, {"name": "Air Changan", "iata": "9H", "icao": "CGN"}, {"name": "Beijing Capital Airlines", "iata": "JD", "icao": "CBJ"}]}, {"destination": {"icao": "ZHCC", "iata": "CGO", "name": "Zhengzhou Xinzheng", "shortName": "Xinzheng", "municipalityName": "Zhengzhou", "location": {"lat": 34.5197, "lon": 113.841}, "countryCode": "CN"}, "averageDailyFlights": 7.6, "operators": [{"name": "Chengdu Airlines", "iata": "EU", "icao": "UEA"}, {"name": "Shanghai Airlines", "iata": "FM", "icao": "CSH"}, {"name": "Tianjin Airlines", "iata": "GS", "icao": "GCR"}, {"name": "China Southern Airlines", "iata": "CZ", "icao": "CSN"}, {"name": "9 Air Co", "iata": "AQ", "icao": "JYH"}, {"name": "Air Guilin", "iata": "GT", "icao": "CGH"}, {"name": "Lucky Air", "iata": "8L", "icao": "LKE"}, {"name": "China Express Airlines", "iata": "G5", "icao": "HXA"}]}, {"destination": {"icao": "ZSFZ", "iata": "FOC", "name": "Fuzhou Changle", "shortName": "Changle", "municipalityName": "Fuzhou", "location": {"lat": 25.9351, "lon": 119.663}, "countryCode": "CN"}, "averageDailyFlights": 7.29, "operators": [{"name": "China Southern Airlines", "iata": "CZ", "icao": "CSN"}, {"name": "Suparna Airlines", "iata": "Y8", "icao": "YZR"}, {"name": "Xiamen Airlines", "iata": "MF", "icao": "CXA"}, {"name": "Chengdu Airlines", "iata": "EU", "icao": "UEA"}, {"name": "9 Air Co", "iata": "AQ", "icao": "JYH"}, {"name": "Fuzhou Airlines", "iata": "FU", "icao": "FZA"}, {"name": "Colorful Guizhou Airlines", "iata": "GY", "icao": "CGZ"}]}, {"destination": {"icao": "ZSNB", "iata": "NGB", "name": "Ningbo Lishe", "shortName": "Lishe", "municipalityName": "Ningbo", "location": {"lat": 29.8267, "lon": 121.462}, "countryCode": "CN"}, "averageDailyFlights": 7.26, "operators": [{"name": "9 Air Co", "iata": "AQ", "icao": "JYH"}, {"name": "Air Changan", "iata": "9H", "icao": "CGN"}, {"name": "Spring Airlines", "iata": "9C", "icao": "CQH"}, {"name": "China Southern Airlines", "iata": "CZ", "icao": "CSN"}, {"name": "Chengdu Airlines", "iata": "EU", "icao": "UEA"}, {"name": "Loong Air", "iata": "GJ", "icao": "CDC"}, {"name": "Colorful Guizhou Airlines", "iata": "GY", "icao": "CGZ"}, {"name": "China Eastern Airlines", "iata": "MU", "icao": "CES"}]}, {"destination": {"icao": "ZSAM", "iata": "XMN", "name": "Xiamen Gaoqi", "shortName": "Gaoqi", "municipalityName": "Xiamen", "location": {"lat": 24.544, "lon": 118.128}, "countryCode": "CN"}, "averageDailyFlights": 5.86, "operators": [{"name": "Shandong Airlines", "iata": "SC", "icao": "CDG"}, {"name": "China Southern Airlines", "iata": "CZ", "icao": "CSN"}, {"name": "Xiamen Airlines", "iata": "MF", "icao": "CXA"}, {"name": "Air Changan", "iata": "9H", "icao": "CGN"}, {"name": "9 Air Co", "iata": "AQ", "icao": "JYH"}]}, {"destination": {"icao": "ZGGG", "iata": "CAN", "name": "Guangzhou Baiyun", "shortName": "Baiyun", "municipalityName": "Guangzhou", "location": {"lat": 23.3924, "lon": 113.299}, "countryCode": "CN"}, "averageDailyFlights": 5.71, "operators": [{"name": "China Southern Airlines", "iata": "CZ", "icao": "CSN"}]}, {"destination": {"icao": "ZSQZ", "iata": "JJN", "name": "Quanzhou ", "shortName": "Quanzhou", "municipalityName": "Quanzhou", "location": {"lat": 24.7964, "lon": 118.59}, "countryCode": "CN"}, "averageDailyFlights": 5.43, "operators": [{"name": "9 Air Co", "iata": "AQ", "icao": "JYH"}, {"name": "Xiamen Airlines", "iata": "MF", "icao": "CXA"}, {"name": "Air Changan", "iata": "9H", "icao": "CGN"}, {"name": "Lucky Air", "iata": "8L", "icao": "LKE"}, {"name": "West Air (China)", "iata": "PN", "icao": "CHB"}, {"name": "Colorful Guizhou Airlines", "iata": "GY", "icao": "CGZ"}, {"name": "China Southern Airlines", "iata": "CZ", "icao": "CSN"}]}, {"destination": {"icao": "ZJSY", "iata": "SYX", "name": "Sanya Phoenix", "shortName": "Phoenix", "municipalityName": "Sanya", "location": {"lat": 18.3029, "lon": 109.412}, "countryCode": "CN"}, "averageDailyFlights": 5.4, "operators": [{"name": "China Southern Airlines", "iata": "CZ", "icao": "CSN"}, {"name": "Hainan Airlines", "iata": "HU", "icao": "CHH"}, {"name": "Colorful Guizhou Airlines", "iata": "GY", "icao": "CGZ"}, {"name": "Sichuan Airlines", "iata": "3U", "icao": "CSC"}, {"name": "Beijing Capital Airlines", "iata": "JD", "icao": "CBJ"}, {"name": "Tianjin Airlines", "iata": "GS", "icao": "GCR"}]}, {"destination": {"icao": "ZUYI", "iata": "ACX", "name": "Xingyi ", "shortName": "Xingyi", "municipalityName": "Xingyi", "location": {"lat": 25.086388, "lon": 104.95944}, "countryCode": "CN"}, "averageDailyFlights": 5.0, "operators": [{"name": "China Express Airlines", "iata": "G5", "icao": "HXA"}, {"name": "Colorful Guizhou Airlines", "iata": "GY", "icao": "CGZ"}]}, {"destination": {"icao": "ZGSZ", "iata": "SZX", "name": "Shenzhen Bao'an", "shortName": "Bao'an", "municipalityName": "Shenzhen", "location": {"lat": 22.6393, "lon": 113.811}, "countryCode": "CN"}, "averageDailyFlights": 4.58, "operators": [{"name": "China Southern Airlines", "iata": "CZ", "icao": "CSN"}, {"name": "Hainan Airlines", "iata": "HU", "icao": "CHH"}, {"name": "Suparna Airlines", "iata": "Y8", "icao": "YZR"}]}, {"destination": {"icao": "ZSSS", "iata": "SHA", "name": "Shanghai Hongqiao", "shortName": "Hongqiao", "municipalityName": "Shanghai", "location": {"lat": 31.1979, "lon": 121.336}, "countryCode": "CN"}, "averageDailyFlights": 4.14, "operators": [{"name": "Shanghai Airlines", "iata": "FM", "icao": "CSH"}, {"name": "Spring Airlines", "iata": "9C", "icao": "CQH"}]}, {"destination": {"icao": "ZJHK", "iata": "HAK", "name": "Haikou Meilan", "shortName": "Meilan", "municipalityName": "Haikou", "location": {"lat": 19.9349, "lon": 110.459}, "countryCode": "CN"}, "averageDailyFlights": 3.86, "operators": [{"name": "Hainan Airlines", "iata": "HU", "icao": "CHH"}, {"name": "China Southern Airlines", "iata": "CZ", "icao": "CSN"}, {"name": "Tianjin Airlines", "iata": "GS", "icao": "GCR"}]}, {"destination": {"icao": "ZBTJ", "iata": "TSN", "name": "Tianjin Binhai", "shortName": "Binhai", "municipalityName": "Tianjin", "location": {"lat": 39.1244, "lon": 117.346}, "countryCode": "CN"}, "averageDailyFlights": 3.59, "operators": [{"name": "Tianjin Airlines", "iata": "GS", "icao": "GCR"}, {"name": "Air China", "iata": "CA", "icao": "CCA"}, {"name": "Colorful Guizhou Airlines", "iata": "GY", "icao": "CGZ"}]}, {"destination": {"icao": "ZLLL", "iata": "LHW", "name": "Lanzhou Zhongchuan", "shortName": "Zhongchuan", "municipalityName": "Lanzhou", "location": {"lat": 36.5152, "lon": 103.62}, "countryCode": "CN"}, "averageDailyFlights": 3.43, "operators": [{"name": "Hainan Airlines", "iata": "HU", "icao": "CHH"}, {"name": "China Eastern Airlines", "iata": "MU", "icao": "CES"}, {"name": "China Southern Airlines", "iata": "CZ", "icao": "CSN"}, {"name": "Sichuan Airlines", "iata": "3U", "icao": "CSC"}]}, {"destination": {"icao": "ZSWX", "iata": "WUX", "name": "Wuxi Sunan Shuofang", "shortName": "Sunan Shuofang", "municipalityName": "Wuxi", "location": {"lat": 31.4944, "lon": 120.429}, "countryCode": "CN"}, "averageDailyFlights": 3.43, "operators": [{"name": "9 Air Co", "iata": "AQ", "icao": "JYH"}, {"name": "Shenzhen Airlines", "iata": "ZH", "icao": "CSZ"}]}, {"destination": {"icao": "ZHHH", "iata": "WUH", "name": "Wuhan Tianhe", "shortName": "Tianhe", "municipalityName": "Wuhan", "location": {"lat": 30.7838, "lon": 114.208}, "countryCode": "CN"}, "averageDailyFlights": 3.36, "operators": [{"name": "China Southern Airlines", "iata": "CZ", "icao": "CSN"}, {"name": "Air China", "iata": "CA", "icao": "CCA"}, {"name": "Colorful Guizhou Airlines", "iata": "GY", "icao": "CGZ"}]}, {"destination": {"icao": "ZSQD", "iata": "TAO", "name": "Qingdao Liuting", "shortName": "Liuting", "municipalityName": "Qingdao", "location": {"lat": 36.2661, "lon": 120.374}, "countryCode": "CN"}, "averageDailyFlights": 3.16, "operators": [{"name": "China Southern Airlines", "iata": "CZ", "icao": "CSN"}, {"name": "Beijing Capital Airlines", "iata": "JD", "icao": "CBJ"}, {"name": "Shandong Airlines", "iata": "SC", "icao": "CDG"}, {"name": "Chengdu Airlines", "iata": "EU", "icao": "UEA"}]}, {"destination": {"icao": "ZSOF", "iata": "HFE", "name": "Hefei Luogang", "shortName": "Luogang", "municipalityName": "Hefei", "location": {"lat": 31.78, "lon": 117.298}, "countryCode": "CN"}, "averageDailyFlights": 3.15, "operators": [{"name": "Chengdu Airlines", "iata": "EU", "icao": "UEA"}, {"name": "9 Air Co", "iata": "AQ", "icao": "JYH"}, {"name": "Sichuan Airlines", "iata": "3U", "icao": "CSC"}, {"name": "Beijing Capital Airlines", "iata": "JD", "icao": "CBJ"}, {"name": "Shenzhen Airlines", "iata": "ZH", "icao": "CSZ"}]}, {"destination": {"icao": "ZSLQ", "iata": "HYN", "name": "Huangyan Luqiao", "shortName": "Luqiao", "municipalityName": "Huangyan", "location": {"lat": 28.5622, "lon": 121.429}, "countryCode": "CN"}, "averageDailyFlights": 3.14, "operators": [{"name": "China Southern Airlines", "iata": "CZ", "icao": "CSN"}, {"name": "Colorful Guizhou Airlines", "iata": "GY", "icao": "CGZ"}, {"name": "Chongqing Airlines", "iata": "OQ", "icao": "CQN"}]}, {"destination": {"icao": "ZBYN", "iata": "TYN", "name": "Taiyuan Wusu", "shortName": "Wusu", "municipalityName": "Taiyuan", "location": {"lat": 37.7469, "lon": 112.628}, "countryCode": "CN"}, "averageDailyFlights": 3.0, "operators": [{"name": "Juneyao Airlines", "iata": "HO", "icao": "DKH"}, {"name": "Shandong Airlines", "iata": "SC", "icao": "CDG"}, {"name": "Kunming Airlines", "iata": "KY", "icao": "KNA"}, {"name": "China Eastern Airlines", "iata": "MU", "icao": "CES"}]}, {"destination": {"icao": "ZSNT", "iata": "NTG", "name": "Nantong ", "shortName": "Nantong", "municipalityName": "Nantong", "location": {"lat": 32.0708, "lon": 120.976}, "countryCode": "CN"}, "averageDailyFlights": 2.86, "operators": [{"name": "Shenzhen Airlines", "iata": "ZH", "icao": "CSZ"}, {"name": "Colorful Guizhou Airlines", "iata": "GY", "icao": "CGZ"}]}, {"destination": {"icao": "ZSJN", "iata": "TNA", "name": "Jinan Yaoqiang", "shortName": "Yaoqiang", "municipalityName": "Jinan", "location": {"lat": 36.8572, "lon": 117.216}, "countryCode": "CN"}, "averageDailyFlights": 2.46, "operators": [{"name": "Chengdu Airlines", "iata": "EU", "icao": "UEA"}, {"name": "West Air (China)", "iata": "PN", "icao": "CHB"}, {"name": "Tianjin Airlines", "iata": "GS", "icao": "GCR"}, {"name": "Loong Air", "iata": "GJ", "icao": "CDC"}, {"name": "Shandong Airlines", "iata": "SC", "icao": "CDG"}]}, {"destination": {"icao": "ZBAA", "iata": "PEK", "name": "Beijing Capital", "shortName": "Capital", "municipalityName": "Beijing", "location": {"lat": 40.0801, "lon": 116.585}, "countryCode": "CN"}, "averageDailyFlights": 2.14, "operators": [{"name": "Hainan Airlines", "iata": "HU", "icao": "CHH"}]}, {"destination": {"icao": "ZSYW", "iata": "YIW", "name": "Yiwu ", "shortName": "Yiwu", "municipalityName": "Yiwu", "location": {"lat": 29.3447, "lon": 120.032}, "countryCode": "CN"}, "averageDailyFlights": 2.14, "operators": [{"name": "Colorful Guizhou Airlines", "iata": "GY", "icao": "CGZ"}, {"name": "China Southern Airlines", "iata": "CZ", "icao": "CSN"}]}, {"destination": {"name": "\u00dcr\u00fcmqi"}, "averageDailyFlights": 2.0, "operators": [{"name": "China Southern Airlines", "iata": "CZ", "icao": "CSN"}, {"name": "Tianjin Airlines", "iata": "GS", "icao": "GCR"}]}, {"destination": {"icao": "ZPLJ", "iata": "LJG", "name": "Lijiang ", "shortName": "Lijiang", "municipalityName": "Lijiang", "location": {"lat": 26.68, "lon": 100.246}, "countryCode": "CN"}, "averageDailyFlights": 1.86, "operators": [{"name": "Colorful Guizhou Airlines", "iata": "GY", "icao": "CGZ"}, {"name": "Beijing Capital Airlines", "iata": "JD", "icao": "CBJ"}, {"name": "Chengdu Airlines", "iata": "EU", "icao": "UEA"}]}, {"destination": {"icao": "ZGOW", "iata": "SWA", "name": "Shantou Jieyang Chaoshan", "shortName": "Jieyang Chaoshan", "municipalityName": "Shantou", "location": {"lat": 23.552, "lon": 116.5033}, "countryCode": "CN"}, "averageDailyFlights": 1.86, "operators": [{"name": "Tianjin Airlines", "iata": "GS", "icao": "GCR"}, {"name": "China Southern Airlines", "iata": "CZ", "icao": "CSN"}]}, {"destination": {"icao": "ZGHZ", "iata": "HUZ", "name": "Huizhou ", "shortName": "Huizhou", "municipalityName": "Huizhou", "location": {"lat": 23.05, "lon": 114.6}, "countryCode": "CN"}, "averageDailyFlights": 1.71, "operators": [{"name": "Juneyao Airlines", "iata": "HO", "icao": "DKH"}]}, {"destination": {"icao": "ZHYC", "iata": "YIH", "name": "Yichang ", "shortName": "Yichang", "municipalityName": "Yichang", "location": {"lat": 30.55655, "lon": 111.47999}, "countryCode": "CN"}, "averageDailyFlights": 1.71, "operators": [{"name": "Beijing Capital Airlines", "iata": "JD", "icao": "CBJ"}, {"name": "Air China", "iata": "CA", "icao": "CCA"}]}, {"destination": {"icao": "ZLIC", "iata": "INC", "name": "Yinchuan ", "shortName": "Yinchuan", "municipalityName": "Yinchuan", "location": {"lat": 38.4819, "lon": 106.009}, "countryCode": "CN"}, "averageDailyFlights": 1.71, "operators": [{"name": "China Southern Airlines", "iata": "CZ", "icao": "CSN"}]}, {"destination": {"icao": "ZBHH", "iata": "HET", "name": "Hohhot Baita", "shortName": "Baita", "municipalityName": "Hohhot", "location": {"lat": 40.8514, "lon": 111.824}, "countryCode": "CN"}, "averageDailyFlights": 1.57, "operators": [{"name": "Hainan Airlines", "iata": "HU", "icao": "CHH"}, {"name": "Air China", "iata": "CA", "icao": "CCA"}]}, {"destination": {"icao": "ZBSJ", "iata": "SJW", "name": "Shijiazhuang Daguocun", "shortName": "Daguocun", "municipalityName": "Shijiazhuang", "location": {"lat": 38.2807, "lon": 114.697}, "countryCode": "CN"}, "averageDailyFlights": 1.57, "operators": [{"name": "Hebei Airlines", "iata": "NS", "icao": "HBH"}, {"name": "Chengdu Airlines", "iata": "EU", "icao": "UEA"}, {"name": "Spring Airlines", "iata": "9C", "icao": "CQH"}]}, {"destination": {"icao": "ZUWX", "iata": "WXN", "name": "Wanxian ", "shortName": "Wanxian", "municipalityName": "Wanxian", "location": {"lat": 30.8017, "lon": 108.433}, "countryCode": "CN"}, "averageDailyFlights": 1.57, "operators": [{"name": "Colorful Guizhou Airlines", "iata": "GY", "icao": "CGZ"}]}, {"destination": {"name": "Shenyang"}, "averageDailyFlights": 1.57, "operators": [{"name": "Chengdu Airlines", "iata": "EU", "icao": "UEA"}, {"name": "Qingdao Airlines", "iata": "QW", "icao": "QDA"}]}, {"destination": {"icao": "ZGSD", "iata": "ZUH", "name": "Zhuhai ", "shortName": "Zhuhai", "municipalityName": "Zhuhai", "location": {"lat": 22.0064, "lon": 113.376}, "countryCode": "CN"}, "averageDailyFlights": 1.44, "operators": [{"name": "China Southern Airlines", "iata": "CZ", "icao": "CSN"}, {"name": "Tianjin Airlines", "iata": "GS", "icao": "GCR"}, {"name": "China Express Airlines", "iata": "G5", "icao": "HXA"}]}, {"destination": {"icao": "ZSCG", "iata": "CZX", "name": "Changzhou ", "shortName": "Changzhou", "municipalityName": "Changzhou", "location": {"lat": 31.9197, "lon": 119.779}, "countryCode": "CN"}, "averageDailyFlights": 1.43, "operators": [{"name": "Colorful Guizhou Airlines", "iata": "GY", "icao": "CGZ"}, {"name": "Qingdao Airlines", "iata": "QW", "icao": "QDA"}, {"name": "Shandong Airlines", "iata": "SC", "icao": "CDG"}]}, {"destination": {"icao": "ZGBS", "iata": "AEB", "name": "Baise Youjiang", "shortName": "Youjiang", "municipalityName": "Baise", "location": {"lat": 23.7206, "lon": 106.96}, "countryCode": "CN"}, "averageDailyFlights": 1.14, "operators": [{"name": "Colorful Guizhou Airlines", "iata": "GY", "icao": "CGZ"}]}, {"destination": {"icao": "ZHES", "iata": "ENH", "name": "Enshi ", "shortName": "Enshi", "municipalityName": "Enshi", "location": {"lat": 30.3203, "lon": 109.485}, "countryCode": "CN"}, "averageDailyFlights": 1.14, "operators": [{"name": "China Eastern Airlines", "iata": "MU", "icao": "CES"}]}, {"destination": {"icao": "ZSSH", "iata": "HIA", "name": "Huai'an Lianshui", "shortName": "Lianshui", "municipalityName": "Huai'an", "location": {"lat": 33.790833, "lon": 119.125}, "countryCode": "CN"}, "averageDailyFlights": 1.14, "operators": [{"name": "Colorful Guizhou Airlines", "iata": "GY", "icao": "CGZ"}]}, {"destination": {"icao": "ZPJH", "iata": "JHG", "name": "Jinghong Xishuangbanna Gasa", "shortName": "Xishuangbanna Gasa", "municipalityName": "Jinghong", "location": {"lat": 21.9739, "lon": 100.76}, "countryCode": "CN"}, "averageDailyFlights": 1.14, "operators": [{"name": "Sichuan Airlines", "iata": "3U", "icao": "CSC"}]}, {"destination": {"icao": "ZHLY", "iata": "LYA", "name": "Luoyang ", "shortName": "Luoyang", "municipalityName": "Luoyang", "location": {"lat": 34.7411, "lon": 112.388}, "countryCode": "CN"}, "averageDailyFlights": 1.14, "operators": [{"name": "Colorful Guizhou Airlines", "iata": "GY", "icao": "CGZ"}]}, {"destination": {"icao": "ZSCN", "iata": "KHN", "name": "Nanchang Changbei", "shortName": "Changbei", "municipalityName": "Nanchang", "location": {"lat": 28.865, "lon": 115.9}, "countryCode": "CN"}, "averageDailyFlights": 1.14, "operators": [{"name": "Jiangxi Airlines", "iata": "RY", "icao": "CJX"}, {"name": "Chengdu Airlines", "iata": "EU", "icao": "UEA"}]}, {"destination": {"icao": "ZSJU", "iata": "JUZ", "name": "Quzhou ", "shortName": "Quzhou", "municipalityName": "Quzhou", "location": {"lat": 28.9658, "lon": 118.899}, "countryCode": "CN"}, "averageDailyFlights": 1.14, "operators": [{"name": "China Express Airlines", "iata": "G5", "icao": "HXA"}]}, {"destination": {"icao": "ZHXF", "iata": "XFN", "name": "Xiangfan ", "shortName": "Xiangfan", "municipalityName": "Xiangfan", "location": {"lat": 32.1506, "lon": 112.291}, "countryCode": "CN"}, "averageDailyFlights": 1.14, "operators": [{"name": "Suparna Airlines", "iata": "Y8", "icao": "YZR"}]}, {"destination": {"icao": "ZLXN", "iata": "XNN", "name": "Xining Caojiabu", "shortName": "Caojiabu", "municipalityName": "Xining", "location": {"lat": 36.5275, "lon": 102.043}, "countryCode": "CN"}, "averageDailyFlights": 1.14, "operators": [{"name": "China Southern Airlines", "iata": "CZ", "icao": "CSN"}]}, {"destination": {"icao": "ZSXZ", "iata": "XUZ", "name": "Xuzhou Guanyin", "shortName": "Guanyin", "municipalityName": "Xuzhou", "location": {"lat": 34.059055, "lon": 117.555275}, "countryCode": "CN"}, "averageDailyFlights": 1.14, "operators": [{"name": "Air Guilin", "iata": "GT", "icao": "CGH"}, {"name": "Sichuan Airlines", "iata": "3U", "icao": "CSC"}]}, {"destination": {"icao": "ZSYN", "iata": "YNZ", "name": "Yancheng ", "shortName": "Yancheng", "municipalityName": "Yancheng", "location": {"lat": 33.425835, "lon": 120.20306}, "countryCode": "CN"}, "averageDailyFlights": 1.14, "operators": [{"name": "9 Air Co", "iata": "AQ", "icao": "JYH"}]}, {"destination": {"icao": "ZBYC", "iata": "YCU", "name": "Yuncheng Guangong", "shortName": "Guangong", "municipalityName": "Yuncheng", "location": {"lat": 35.11639, "lon": 111.03139}, "countryCode": "CN"}, "averageDailyFlights": 1.14, "operators": [{"name": "Air China", "iata": "CA", "icao": "CCA"}]}, {"destination": {"name": "Changchun"}, "averageDailyFlights": 1.14, "operators": [{"name": "Qingdao Airlines", "iata": "QW", "icao": "QDA"}, {"name": "9 Air Co", "iata": "AQ", "icao": "JYH"}]}, {"destination": {"icao": "ZLJN", "iata": "JNG", "name": "Jining Qufu", "shortName": "Qufu", "municipalityName": "Jining", "location": {"lat": 35.292778, "lon": 116.346664}, "countryCode": "CN"}, "averageDailyFlights": 1.0, "operators": [{"name": "Chengdu Airlines", "iata": "EU", "icao": "UEA"}]}, {"destination": {"icao": "VTBD", "iata": "DMK", "name": "Bangkok Don Mueang", "shortName": "Don Mueang", "municipalityName": "Bangkok", "location": {"lat": 13.912599, "lon": 100.607}, "countryCode": "TH"}, "averageDailyFlights": 0.71, "operators": [{"name": "9 Air Co", "iata": "AQ", "icao": "JYH"}]}, {"destination": {"icao": "ZBOW", "iata": "BAV", "name": "Baotou ", "shortName": "Baotou", "municipalityName": "Baotou", "location": {"lat": 40.56, "lon": 109.997}, "countryCode": "CN"}, "averageDailyFlights": 0.71, "operators": [{"name": "China Express Airlines", "iata": "G5", "icao": "HXA"}]}, {"destination": {"icao": "ZGCD", "iata": "CGD", "name": "Changde ", "shortName": "Changde", "municipalityName": "Changde", "location": {"lat": 28.9189, "lon": 111.64}, "countryCode": "CN"}, "averageDailyFlights": 0.71, "operators": [{"name": "China Eastern Airlines", "iata": "MU", "icao": "CES"}]}, {"destination": {"icao": "ZGHA", "iata": "CSX", "name": "Changsha Huanghua", "shortName": "Huanghua", "municipalityName": "Changsha", "location": {"lat": 28.1892, "lon": 113.22}, "countryCode": "CN"}, "averageDailyFlights": 0.71, "operators": [{"name": "China Southern Airlines", "iata": "CZ", "icao": "CSN"}]}, {"destination": {"icao": "ZSGZ", "iata": "KOW", "name": "Ganzhou ", "shortName": "Ganzhou", "municipalityName": "Ganzhou", "location": {"lat": 25.853333, "lon": 114.77889}, "countryCode": "CN"}, "averageDailyFlights": 0.71, "operators": [{"name": "Loong Air", "iata": "GJ", "icao": "CDC"}]}, {"destination": {"icao": "ZPLX", "iata": "LUM", "name": "Luxi Mangshi", "shortName": "Mangshi", "municipalityName": "Luxi", "location": {"lat": 24.4011, "lon": 98.5317}, "countryCode": "CN"}, "averageDailyFlights": 0.71, "operators": [{"name": "Colorful Guizhou Airlines", "iata": "GY", "icao": "CGZ"}]}, {"destination": {"icao": "ZULZ", "iata": "LZO", "name": "Luzhou ", "shortName": "Luzhou", "municipalityName": "Luzhou", "location": {"lat": 28.8522, "lon": 105.393}, "countryCode": "CN"}, "averageDailyFlights": 0.71, "operators": [{"name": "Colorful Guizhou Airlines", "iata": "GY", "icao": "CGZ"}]}, {"destination": {"icao": "ZHSS", "iata": "SHS", "name": "Shashi ", "shortName": "Shashi", "municipalityName": "Shashi", "location": {"lat": 30.3244, "lon": 112.281}, "countryCode": "CN"}, "averageDailyFlights": 0.71, "operators": [{"name": "China Express Airlines", "iata": "G5", "icao": "HXA"}]}, {"destination": {"icao": "ZLYL", "iata": "UYN", "name": "Yulin ", "shortName": "Yulin", "municipalityName": "Yulin", "location": {"lat": 38.2692, "lon": 109.731}, "countryCode": "CN"}, "averageDailyFlights": 0.71, "operators": [{"name": "Tianjin Airlines", "iata": "GS", "icao": "GCR"}]}, {"destination": {"icao": "ZGZJ", "iata": "ZHA", "name": "Zhanjiang ", "shortName": "Zhanjiang", "municipalityName": "Zhanjiang", "location": {"lat": 21.2144, "lon": 110.358}, "countryCode": "CN"}, "averageDailyFlights": 0.71, "operators": [{"name": "Tianjin Airlines", "iata": "GS", "icao": "GCR"}, {"name": "China Express Airlines", "iata": "G5", "icao": "HXA"}]}, {"destination": {"name": "Dunshen"}, "averageDailyFlights": 0.71, "operators": [{"name": "China Express Airlines", "iata": "G5", "icao": "HXA"}]}, {"destination": {"name": "Iu"}, "averageDailyFlights": 0.71, "operators": [{"name": "Colorful Guizhou Airlines", "iata": "GY", "icao": "CGZ"}]}, {"destination": {"name": "Yanchzhou"}, "averageDailyFlights": 0.71, "operators": [{"name": "Spring Airlines", "iata": "9C", "icao": "CQH"}]}, {"destination": {"icao": "ZSLG", "iata": "LYG", "name": "Lianyungang ", "shortName": "Lianyungang", "municipalityName": "Lianyungang", "location": {"lat": 34.571667, "lon": 118.87361}, "countryCode": "CN"}, "averageDailyFlights": 0.57, "operators": [{"name": "9 Air Co", "iata": "AQ", "icao": "JYH"}]}, {"destination": {"icao": "ZGNN", "iata": "NNG", "name": "Nanning Wuxu", "shortName": "Wuxu", "municipalityName": "Nanning", "location": {"lat": 22.6083, "lon": 108.172}, "countryCode": "CN"}, "averageDailyFlights": 0.57, "operators": [{"name": "China Southern Airlines", "iata": "CZ", "icao": "CSN"}]}, {"destination": {"name": "Chengdu"}, "averageDailyFlights": 0.57, "operators": [{"name": "Air China", "iata": "CA", "icao": "CCA"}]}, {"destination": {"icao": "ZSAQ", "iata": "AQG", "name": "Anking Anqing", "shortName": "Anqing", "municipalityName": "Anking", "location": {"lat": 30.5822, "lon": 117.05}, "countryCode": "CN"}, "averageDailyFlights": 0.43, "operators": [{"name": "Tianjin Airlines", "iata": "GS", "icao": "GCR"}]}, {"destination": {"icao": "ZUGU", "iata": "GYS", "name": "Guangyuan ", "shortName": "Guangyuan", "municipalityName": "Guangyuan", "location": {"lat": 32.3911, "lon": 105.702}, "countryCode": "CN"}, "averageDailyFlights": 0.43, "operators": [{"name": "Spring Airlines", "iata": "9C", "icao": "CQH"}]}, {"destination": {"icao": "ZSJA", "iata": "JGS", "name": "Ji\u2019an Jinggangshan", "shortName": "Jinggangshan", "municipalityName": "Ji\u2019an", "location": {"lat": 26.8569, "lon": 114.737}, "countryCode": "CN"}, "averageDailyFlights": 0.43, "operators": [{"name": "China Eastern Airlines", "iata": "MU", "icao": "CES"}]}, {"destination": {"icao": "ZHNY", "iata": "NNY", "name": "Nanyang ", "shortName": "Nanyang", "municipalityName": "Nanyang", "location": {"lat": 32.9808, "lon": 112.615}, "countryCode": "CN"}, "averageDailyFlights": 0.43, "operators": [{"name": "China Express Airlines", "iata": "G5", "icao": "HXA"}]}, {"destination": {"icao": "VTSP", "iata": "HKT", "name": "Phuket ", "shortName": "Phuket", "municipalityName": "Phuket", "location": {"lat": 8.1132, "lon": 98.3169}, "countryCode": "TH"}, "averageDailyFlights": 0.43, "operators": [{"name": "9 Air Co", "iata": "AQ", "icao": "JYH"}]}, {"destination": {"icao": "ZLYA", "iata": "ENY", "name": "Yan'an ", "shortName": "Yan'an", "municipalityName": "Yan'an", "location": {"lat": 36.6369, "lon": 109.554}, "countryCode": "CN"}, "averageDailyFlights": 0.43, "operators": [{"name": "China Express Airlines", "iata": "G5", "icao": "HXA"}]}, {"destination": {"name": "Zunyi"}, "averageDailyFlights": 0.43, "operators": [{"name": "Colorful Guizhou Airlines", "iata": "GY", "icao": "CGZ"}]}, {"destination": {"name": "Enyan"}, "averageDailyFlights": 0.29, "operators": [{"name": "China Express Airlines", "iata": "G5", "icao": "HXA"}]}, {"destination": {"icao": "ZBHD", "iata": "HDG", "name": "Handan ", "shortName": "Handan", "municipalityName": "Handan", "location": {"lat": 36.525833, "lon": 114.42555}, "countryCode": "CN"}, "averageDailyFlights": 0.14, "operators": [{"name": "China Express Airlines", "iata": "G5", "icao": "HXA"}]}, {"destination": {"name": "Harbin"}, "averageDailyFlights": 0.14, "operators": [{"name": "Sichuan Airlines", "iata": "3U", "icao": "CSC"}]}]}