{"routes": [{"destination": {"icao": "CYYT", "iata": "YYT", "name": "St. John's ", "shortName": "St. John's", "municipalityName": "St. John's", "location": {"lat": 47.6186, "lon": -52.7519}, "countryCode": "CA"}, "averageDailyFlights": 3.0, "operators": [{"name": "PAL Airlines", "iata": "PB", "icao": "PVL"}]}, {"destination": {"icao": "CYYR", "iata": "YYR", "name": "Goose Bay ", "shortName": "Goose Bay", "municipalityName": "Goose Bay", "location": {"lat": 53.3192, "lon": -60.4258}, "countryCode": "CA"}, "averageDailyFlights": 1.86, "operators": [{"name": "PAL Airlines", "iata": "PB", "icao": "PVL"}]}, {"destination": {"icao": "CYYZ", "iata": "YYZ", "name": "Toronto Pearson", "shortName": "Pearson", "municipalityName": "Toronto", "location": {"lat": 43.6772, "lon": -79.6306}, "countryCode": "CA"}, "averageDailyFlights": 1.29, "operators": [{"name": "Air Canada", "iata": "AC", "icao": "ACA"}]}, {"destination": {"icao": "CYHZ", "iata": "YHZ", "name": "Halifax Stanfield", "shortName": "Stanfield", "municipalityName": "Halifax", "location": {"lat": 44.8808, "lon": -63.5086}, "countryCode": "CA"}, "averageDailyFlights": 1.0, "operators": [{"name": "Air Canada", "iata": "AC", "icao": "ACA"}]}, {"destination": {"icao": "CYUL", "iata": "YUL", "name": "Montreal Trudeau", "shortName": "Trudeau", "municipalityName": "Montreal", "location": {"lat": 45.4706, "lon": -73.7408}, "countryCode": "CA"}, "averageDailyFlights": 0.86, "operators": [{"name": "Air Canada", "iata": "AC", "icao": "ACA"}]}, {"destination": {"icao": "CYQM", "iata": "YQM", "name": "Moncton Greater", "shortName": "Greater", "municipalityName": "Moncton", "location": {"lat": 46.1122, "lon": -64.6786}, "countryCode": "CA"}, "averageDailyFlights": 0.71, "operators": [{"name": "PAL Airlines", "iata": "PB", "icao": "PVL"}]}, {"destination": {"icao": "CZUM", "iata": "ZUM", "name": "Churchill Falls ", "shortName": "Churchill Falls", "municipalityName": "Churchill Falls", "location": {"lat": 53.5619, "lon": -64.1064}, "countryCode": "CA"}, "averageDailyFlights": 0.29, "operators": [{"name": "PAL Airlines", "iata": "PB", "icao": "PVL"}]}, {"destination": {"icao": "CYWK", "iata": "YWK", "name": "Wabush ", "shortName": "Wabush", "municipalityName": "Wabush", "location": {"lat": 52.9219, "lon": -66.8644}, "countryCode": "CA"}, "averageDailyFlights": 0.29, "operators": [{"name": "PAL Airlines", "iata": "PB", "icao": "PVL"}]}, {"destination": {"icao": "CYQX", "iata": "YQX", "name": "Gander ", "shortName": "Gander", "municipalityName": "Gander", "location": {"lat": 48.9369, "lon": -54.5681}, "countryCode": "CA"}, "averageDailyFlights": 0.14, "operators": [{"name": "PAL Airlines", "iata": "PB", "icao": "PVL"}]}, {"destination": {"icao": "MUVR", "iata": "VRA", "name": "Varadero Juan Gualberto Gomez", "shortName": "Juan Gualberto Gomez", "municipalityName": "Varadero", "location": {"lat": 23.0344, "lon": -81.4353}, "countryCode": "CU"}, "averageDailyFlights": 0.14, "operators": [{"name": "Sunwing", "iata": "WG", "icao": "SWG"}]}]}