{"routes": [{"destination": {"icao": "LFPG", "iata": "CDG", "name": "Paris Charles de Gaulle", "shortName": "Charles de Gaulle", "municipalityName": "Paris", "location": {"lat": 49.0128, "lon": 2.549999}, "countryCode": "FR"}, "averageDailyFlights": 2.14, "operators": [{"name": "Nouvelair Tunisie", "iata": "BJ", "icao": "LBT"}, {"name": "Tunisair", "iata": "TU", "icao": "TAR"}]}, {"destination": {"icao": "LFPO", "iata": "ORY", "name": "Paris -Orly", "shortName": "-Orly", "municipalityName": "Paris", "location": {"lat": 48.7253, "lon": 2.35944}, "countryCode": "FR"}, "averageDailyFlights": 1.14, "operators": [{"name": "Transavia France", "iata": "TO", "icao": "TVF"}]}, {"destination": {"icao": "LFLL", "iata": "LYS", "name": "Lyon Saint-Exup\u00e9ry", "shortName": "Saint-Exup\u00e9ry", "municipalityName": "Lyon", "location": {"lat": 45.7264, "lon": 5.090829}, "countryCode": "FR"}, "averageDailyFlights": 1.0, "operators": [{"name": "Nouvelair Tunisie", "iata": "BJ", "icao": "LBT"}, {"name": "Transavia France", "iata": "TO", "icao": "TVF"}, {"name": "Tunisair", "iata": "TU", "icao": "TAR"}]}, {"destination": {"icao": "LFMN", "iata": "NCE", "name": "Nice -C\u00f4te d'Azur", "shortName": "-C\u00f4te d'Azur", "municipalityName": "Nice", "location": {"lat": 43.6584, "lon": 7.215869}, "countryCode": "FR"}, "averageDailyFlights": 1.0, "operators": [{"name": "Tunisair", "iata": "TU", "icao": "TAR"}, {"name": "Nouvelair Tunisie", "iata": "BJ", "icao": "LBT"}]}, {"destination": {"icao": "EBBR", "iata": "BRU", "name": "Brussels ", "shortName": "Brussels", "municipalityName": "Brussels", "location": {"lat": 50.9014, "lon": 4.484439}, "countryCode": "BE"}, "averageDailyFlights": 0.57, "operators": [{"name": "Nouvelair Tunisie", "iata": "BJ", "icao": "LBT"}, {"name": "Brussels Airlines", "iata": "SN", "icao": "BEL"}]}, {"destination": {"icao": "DTTJ", "iata": "DJE", "name": "Houmt El Souk Djerba Zarzis", "shortName": "Djerba Zarzis", "municipalityName": "Houmt El Souk", "location": {"lat": 33.875, "lon": 10.7755}, "countryCode": "TN"}, "averageDailyFlights": 0.57, "operators": [{"name": "Tunisair", "iata": "TU", "icao": "TAR"}, {"name": "SmartWings", "iata": "QS", "icao": "TVS"}]}, {"destination": {"icao": "EDDL", "iata": "DUS", "name": "Duesseldorf D\u00fcsseldorf", "shortName": "D\u00fcsseldorf", "municipalityName": "Duesseldorf", "location": {"lat": 51.2895, "lon": 6.766779}, "countryCode": "DE"}, "averageDailyFlights": 0.43, "operators": [{"name": "Nouvelair Tunisie", "iata": "BJ", "icao": "LBT"}]}, {"destination": {"icao": "LFML", "iata": "MRS", "name": "Marseille Provence", "shortName": "Provence", "municipalityName": "Marseille", "location": {"lat": 43.43927, "lon": 5.221424}, "countryCode": "FR"}, "averageDailyFlights": 0.43, "operators": [{"name": "Tunisair", "iata": "TU", "icao": "TAR"}, {"name": "Transavia France", "iata": "TO", "icao": "TVF"}]}, {"destination": {"icao": "LFRS", "iata": "NTE", "name": "Nantes Atlantique", "shortName": "Atlantique", "municipalityName": "Nantes", "location": {"lat": 47.1532, "lon": -1.61073}, "countryCode": "FR"}, "averageDailyFlights": 0.43, "operators": [{"name": "Transavia France", "iata": "TO", "icao": "TVF"}]}, {"destination": {"icao": "ELLX", "iata": "LUX", "name": "Luxembourg -Findel", "shortName": "-Findel", "municipalityName": "Luxembourg", "location": {"lat": 49.6266, "lon": 6.21152}, "countryCode": "LU"}, "averageDailyFlights": 0.29, "operators": [{"name": "Luxair", "iata": "LG", "icao": "LGL"}]}, {"destination": {"icao": "EDDB", "iata": "BER", "name": "Berlin Brandenburg", "shortName": "Brandenburg", "municipalityName": "Berlin", "location": {"lat": 52.35139, "lon": 13.493889}, "countryCode": "DE"}, "averageDailyFlights": 0.14, "operators": [{"name": "Nouvelair Tunisie", "iata": "BJ", "icao": "LBT"}]}, {"destination": {"icao": "EDDF", "iata": "FRA", "name": "Frankfurt-am-Main ", "shortName": "Frankfurt-am-Main", "municipalityName": "Frankfurt-am-Main", "location": {"lat": 50.0264, "lon": 8.543129}, "countryCode": "DE"}, "averageDailyFlights": 0.14, "operators": [{"name": "Nouvelair Tunisie", "iata": "BJ", "icao": "LBT"}]}, {"destination": {"icao": "EDDH", "iata": "HAM", "name": "Hamburg ", "shortName": "Hamburg", "municipalityName": "Hamburg", "location": {"lat": 53.6304, "lon": 9.988229}, "countryCode": "DE"}, "averageDailyFlights": 0.14, "operators": [{"name": "Tunisair", "iata": "TU", "icao": "TAR"}]}, {"destination": {"icao": "EDDV", "iata": "HAJ", "name": "Hanover Hannover", "shortName": "Hannover", "municipalityName": "Hanover", "location": {"lat": 52.4611, "lon": 9.685079}, "countryCode": "DE"}, "averageDailyFlights": 0.14, "operators": [{"name": "Nouvelair Tunisie", "iata": "BJ", "icao": "LBT"}]}, {"destination": {"icao": "OEJN", "iata": "JED", "name": "Jeddah King Abdulaziz", "shortName": "King Abdulaziz", "municipalityName": "Jeddah", "location": {"lat": 21.6796, "lon": 39.1565}, "countryCode": "SA"}, "averageDailyFlights": 0.14, "operators": [{"name": "Tunisair", "iata": "TU", "icao": "TAR"}]}, {"destination": {"icao": "LFQQ", "iata": "LIL", "name": "Lille/Lesquin Lille-Lesquin", "shortName": "Lille-Lesquin", "municipalityName": "Lille/Lesquin", "location": {"lat": 50.5619, "lon": 3.08944}, "countryCode": "FR"}, "averageDailyFlights": 0.14, "operators": [{"name": "Nouvelair Tunisie", "iata": "BJ", "icao": "LBT"}]}, {"destination": {"icao": "EDDS", "iata": "STR", "name": "Stuttgart ", "shortName": "Stuttgart", "municipalityName": "Stuttgart", "location": {"lat": 48.6899, "lon": 9.22196}, "countryCode": "DE"}, "averageDailyFlights": 0.14, "operators": [{"name": "Nouvelair Tunisie", "iata": "BJ", "icao": "LBT"}]}, {"destination": {"icao": "DTTA", "iata": "TUN", "name": "Tunis Carthage", "shortName": "Carthage", "municipalityName": "Tunis", "location": {"lat": 36.851, "lon": 10.227199}, "countryCode": "TN"}, "averageDailyFlights": 0.14, "operators": [{"name": "Tunisair", "iata": "TU", "icao": "TAR"}]}]}