{"routes": [{"destination": {"icao": "EIDW", "iata": "DUB", "name": "Dublin ", "shortName": "Dublin", "municipalityName": "Dublin", "location": {"lat": 53.4213, "lon": -6.27007}, "countryCode": "IE"}, "averageDailyFlights": 11.0, "operators": [{"name": "EAI"}, {"name": "Ryanair", "iata": "FR", "icao": "RYR"}, {"name": "Aer Lingus", "iata": "EI", "icao": "EIN"}, {"name": "GEC"}]}, {"destination": {"icao": "EHAM", "iata": "AMS", "name": "Amsterdam Schiphol", "shortName": "Schiphol", "municipalityName": "Amsterdam", "location": {"lat": 52.3086, "lon": 4.763889}, "countryCode": "NL"}, "averageDailyFlights": 7.43, "operators": [{"name": "KLM", "iata": "KL", "icao": "KLM"}, {"name": "easyJet", "iata": "U2", "icao": "EZY"}]}, {"destination": {"icao": "EGAC", "iata": "BHD", "name": "Belfast George Best  City", "shortName": "George Best  City", "municipalityName": "Belfast", "location": {"lat": 54.6181, "lon": -5.872499}, "countryCode": "GB"}, "averageDailyFlights": 6.71, "operators": [{"name": "Aer Lingus", "iata": "EI", "icao": "EIN"}, {"name": "EAG"}, {"name": "EAI"}]}, {"destination": {"icao": "LFPG", "iata": "CDG", "name": "Paris Charles de Gaulle", "shortName": "Charles de Gaulle", "municipalityName": "Paris", "location": {"lat": 49.0128, "lon": 2.549999}, "countryCode": "FR"}, "averageDailyFlights": 6.32, "operators": [{"name": "Air France", "iata": "AF", "icao": "AFR"}, {"name": "easyJet", "iata": "U2", "icao": "EZY"}, {"name": "Gol", "iata": "G3", "icao": "GLO"}, {"name": "China Eastern Airlines", "iata": "MU", "icao": "CES"}, {"name": "Virgin Atlantic", "iata": "VS", "icao": "VIR"}]}, {"destination": {"icao": "EGAA", "iata": "BFS", "name": "Belfast ", "shortName": "Belfast", "municipalityName": "Belfast", "location": {"lat": 54.6575, "lon": -6.215829}, "countryCode": "GB"}, "averageDailyFlights": 4.29, "operators": [{"name": "easyJet", "iata": "U2", "icao": "EZY"}]}, {"destination": {"icao": "EDDF", "iata": "FRA", "name": "Frankfurt-am-Main ", "shortName": "Frankfurt-am-Main", "municipalityName": "Frankfurt-am-Main", "location": {"lat": 50.0264, "lon": 8.543129}, "countryCode": "DE"}, "averageDailyFlights": 4.16, "operators": [{"name": "Lufthansa", "iata": "LH", "icao": "DLH"}]}, {"destination": {"icao": "LEMG", "iata": "AGP", "name": "M\u00e1laga ", "shortName": "M\u00e1laga", "municipalityName": "M\u00e1laga", "location": {"lat": 36.6749, "lon": -4.49911}, "countryCode": "ES"}, "averageDailyFlights": 3.86, "operators": [{"name": "Ryanair", "iata": "FR", "icao": "RYR"}, {"name": "TUI Airways", "iata": "BY", "icao": "TOM"}, {"name": "Jet2", "iata": "LS", "icao": "EXS"}, {"name": "easyJet", "iata": "U2", "icao": "EZY"}]}, {"destination": {"icao": "GCTS", "iata": "TFS", "name": "Tenerife Island Tenerife South", "shortName": "Tenerife South", "municipalityName": "Tenerife Island", "location": {"lat": 28.0445, "lon": -16.5725}, "countryCode": "ES"}, "averageDailyFlights": 3.86, "operators": [{"name": "Jet2", "iata": "LS", "icao": "EXS"}, {"name": "TUI Airways", "iata": "BY", "icao": "TOM"}, {"name": "easyJet", "iata": "U2", "icao": "EZY"}, {"name": "Ryanair", "iata": "FR", "icao": "RYR"}]}, {"destination": {"icao": "LEPA", "iata": "PMI", "name": "Palma De Mallorca ", "shortName": "Palma De Mallorca", "municipalityName": "Palma De Mallorca", "location": {"lat": 39.5517, "lon": 2.73881}, "countryCode": "ES"}, "averageDailyFlights": 3.57, "operators": [{"name": "Jet2", "iata": "LS", "icao": "EXS"}, {"name": "easyJet", "iata": "U2", "icao": "EZY"}, {"name": "Ryanair", "iata": "FR", "icao": "RYR"}, {"name": "TUI Airways", "iata": "BY", "icao": "TOM"}]}, {"destination": {"icao": "LEAL", "iata": "ALC", "name": "Alicante ", "shortName": "Alicante", "municipalityName": "Alicante", "location": {"lat": 38.2822, "lon": -0.558156}, "countryCode": "ES"}, "averageDailyFlights": 3.29, "operators": [{"name": "Jet2", "iata": "LS", "icao": "EXS"}, {"name": "Ryanair", "iata": "FR", "icao": "RYR"}, {"name": "easyJet", "iata": "U2", "icao": "EZY"}, {"name": "TUI Airways", "iata": "BY", "icao": "TOM"}]}, {"destination": {"icao": "LTAI", "iata": "AYT", "name": "Antalya ", "shortName": "Antalya", "municipalityName": "Antalya", "location": {"lat": 36.8987, "lon": 30.8005}, "countryCode": "TR"}, "averageDailyFlights": 3.29, "operators": [{"name": "Corendon Air", "iata": "XC", "icao": "CAI"}, {"name": "Jet2", "iata": "LS", "icao": "EXS"}, {"name": "Sun Express", "iata": "XQ", "icao": "SXS"}, {"name": "easyJet", "iata": "U2", "icao": "EZY"}, {"name": "TUI Airways", "iata": "BY", "icao": "TOM"}]}, {"destination": {"icao": "LEBL", "iata": "BCN", "name": "Barcelona ", "shortName": "Barcelona", "municipalityName": "Barcelona", "location": {"lat": 41.2971, "lon": 2.078459}, "countryCode": "ES"}, "averageDailyFlights": 3.14, "operators": [{"name": "Vueling", "iata": "VY", "icao": "VLG"}, {"name": "Jet2", "iata": "LS", "icao": "EXS"}, {"name": "Ryanair", "iata": "FR", "icao": "RYR"}, {"name": "easyJet", "iata": "U2", "icao": "EZY"}]}, {"destination": {"icao": "LPFR", "iata": "FAO", "name": "Faro ", "shortName": "Faro", "municipalityName": "Faro", "location": {"lat": 37.0144, "lon": -7.965909}, "countryCode": "PT"}, "averageDailyFlights": 2.86, "operators": [{"name": "TUI Airways", "iata": "BY", "icao": "TOM"}, {"name": "Jet2", "iata": "LS", "icao": "EXS"}, {"name": "Ryanair", "iata": "FR", "icao": "RYR"}, {"name": "easyJet", "iata": "U2", "icao": "EZY"}]}, {"destination": {"icao": "EGPH", "iata": "EDI", "name": "Edinburgh ", "shortName": "Edinburgh", "municipalityName": "Edinburgh", "location": {"lat": 55.95, "lon": -3.372499}, "countryCode": "GB"}, "averageDailyFlights": 2.71, "operators": [{"name": "easyJet", "iata": "U2", "icao": "EZY"}]}, {"destination": {"icao": "OMDB", "iata": "DXB", "name": "Dubai ", "shortName": "Dubai", "municipalityName": "Dubai", "location": {"lat": 25.252798, "lon": 55.3644}, "countryCode": "AE"}, "averageDailyFlights": 2.29, "operators": [{"name": "Emirates", "iata": "EK", "icao": "UAE"}]}, {"destination": {"icao": "EGPF", "iata": "GLA", "name": "Glasgow ", "shortName": "Glasgow", "municipalityName": "Glasgow", "location": {"lat": 55.8719, "lon": -4.43306}, "countryCode": "GB"}, "averageDailyFlights": 2.29, "operators": [{"name": "easyJet", "iata": "U2", "icao": "EZY"}]}, {"destination": {"icao": "LTFM", "iata": "IST", "name": "Istanbul ", "shortName": "Istanbul", "municipalityName": "Istanbul", "location": {"lat": 41.275276, "lon": 28.751944}, "countryCode": "TR"}, "averageDailyFlights": 2.29, "operators": [{"name": "Turkish Airlines", "iata": "TK", "icao": "THY"}]}, {"destination": {"icao": "EDDL", "iata": "DUS", "name": "Duesseldorf D\u00fcsseldorf", "shortName": "D\u00fcsseldorf", "municipalityName": "Duesseldorf", "location": {"lat": 51.2895, "lon": 6.766779}, "countryCode": "DE"}, "averageDailyFlights": 2.16, "operators": [{"name": "Eurowings", "iata": "EW", "icao": "EWG"}, {"name": "Lufthansa", "iata": "LH", "icao": "DLH"}]}, {"destination": {"icao": "EGPD", "iata": "ABZ", "name": "Aberdeen Dyce", "shortName": "Dyce", "municipalityName": "Aberdeen", "location": {"lat": 57.2019, "lon": -2.197779}, "countryCode": "GB"}, "averageDailyFlights": 2.14, "operators": [{"name": "Loganair", "iata": "LM", "icao": "LOG"}]}, {"destination": {"icao": "LSGG", "iata": "GVA", "name": "Geneva Cointrin", "shortName": "Cointrin", "municipalityName": "Geneva", "location": {"lat": 46.2381, "lon": 6.10895}, "countryCode": "CH"}, "averageDailyFlights": 2.14, "operators": [{"name": "easyJet", "iata": "U2", "icao": "EZY"}, {"name": "Jet2", "iata": "LS", "icao": "EXS"}, {"name": "AZE"}]}, {"destination": {"icao": "GCRR", "iata": "ACE", "name": "Lanzarote Island Lanzarote", "shortName": "Lanzarote", "municipalityName": "Lanzarote Island", "location": {"lat": 28.9455, "lon": -13.605199}, "countryCode": "ES"}, "averageDailyFlights": 2.14, "operators": [{"name": "TUI Airways", "iata": "BY", "icao": "TOM"}, {"name": "Jet2", "iata": "LS", "icao": "EXS"}, {"name": "Ryanair", "iata": "FR", "icao": "RYR"}]}, {"destination": {"icao": "EDDM", "iata": "MUC", "name": "Munich ", "shortName": "Munich", "municipalityName": "Munich", "location": {"lat": 48.3538, "lon": 11.7861}, "countryCode": "DE"}, "averageDailyFlights": 2.14, "operators": [{"name": "Lufthansa", "iata": "LH", "icao": "DLH"}]}, {"destination": {"icao": "GCFV", "iata": "FUE", "name": "Fuerteventura Island Fuerteventura", "shortName": "Fuerteventura", "municipalityName": "Fuerteventura Island", "location": {"lat": 28.4527, "lon": -13.8638}, "countryCode": "ES"}, "averageDailyFlights": 1.71, "operators": [{"name": "TUI Airways", "iata": "BY", "icao": "TOM"}, {"name": "Jet2", "iata": "LS", "icao": "EXS"}, {"name": "Ryanair", "iata": "FR", "icao": "RYR"}, {"name": "easyJet", "iata": "U2", "icao": "EZY"}]}, {"destination": {"icao": "LTBS", "iata": "DLM", "name": "Dalaman ", "shortName": "Dalaman", "municipalityName": "Dalaman", "location": {"lat": 36.7131, "lon": 28.7925}, "countryCode": "TR"}, "averageDailyFlights": 1.57, "operators": [{"name": "TUI Airways", "iata": "BY", "icao": "TOM"}, {"name": "Sun Express", "iata": "XQ", "icao": "SXS"}, {"name": "Jet2", "iata": "LS", "icao": "EXS"}, {"name": "easyJet", "iata": "U2", "icao": "EZY"}]}, {"destination": {"icao": "GCLP", "iata": "LPA", "name": "Gran Canaria Island Gran Canaria", "shortName": "Gran Canaria", "municipalityName": "Gran Canaria Island", "location": {"lat": 27.9319, "lon": -15.386599}, "countryCode": "ES"}, "averageDailyFlights": 1.57, "operators": [{"name": "Jet2", "iata": "LS", "icao": "EXS"}, {"name": "Ryanair", "iata": "FR", "icao": "RYR"}, {"name": "TUI Airways", "iata": "BY", "icao": "TOM"}]}, {"destination": {"icao": "LCLK", "iata": "LCA", "name": "Larnarca Larnaca", "shortName": "Larnaca", "municipalityName": "Larnarca", "location": {"lat": 34.8751, "lon": 33.6249}, "countryCode": "CY"}, "averageDailyFlights": 1.44, "operators": [{"name": "TUI Airways", "iata": "BY", "icao": "TOM"}, {"name": "easyJet", "iata": "U2", "icao": "EZY"}, {"name": "Jet2", "iata": "LS", "icao": "EXS"}]}, {"destination": {"icao": "LROP", "iata": "OTP", "name": "Bucharest Henri Coand\u0103", "shortName": "Henri Coand\u0103", "municipalityName": "Bucharest", "location": {"lat": 44.5722, "lon": 26.1022}, "countryCode": "RO"}, "averageDailyFlights": 1.43, "operators": [{"name": "Wizz Air Malta", "iata": "W4", "icao": "WMT"}, {"name": "Ryanair", "iata": "FR", "icao": "RYR"}]}, {"destination": {"icao": "LSZH", "iata": "ZRH", "name": "Zurich Kloten", "shortName": "Kloten", "municipalityName": "Zurich", "location": {"lat": 47.4647, "lon": 8.549169}, "countryCode": "CH"}, "averageDailyFlights": 1.43, "operators": [{"name": "SWISS", "iata": "LX", "icao": "SWR"}]}, {"destination": {"icao": "LCPH", "iata": "PFO", "name": "Paphos ", "shortName": "Paphos", "municipalityName": "Paphos", "location": {"lat": 34.718, "lon": 32.4857}, "countryCode": "CY"}, "averageDailyFlights": 1.29, "operators": [{"name": "TUI Airways", "iata": "BY", "icao": "TOM"}, {"name": "Jet2", "iata": "LS", "icao": "EXS"}, {"name": "Ryanair", "iata": "FR", "icao": "RYR"}]}, {"destination": {"icao": "LFOB", "iata": "BVA", "name": "Beauvais/Till\u00e9 Paris Beauvais Till\u00e9", "shortName": "Paris Beauvais Till\u00e9", "municipalityName": "Beauvais/Till\u00e9", "location": {"lat": 49.4544, "lon": 2.11278}, "countryCode": "FR"}, "averageDailyFlights": 1.14, "operators": [{"name": "Ryanair", "iata": "FR", "icao": "RYR"}]}, {"destination": {"icao": "LHBP", "iata": "BUD", "name": "Budapest Ferenc Liszt", "shortName": "Ferenc Liszt", "municipalityName": "Budapest", "location": {"lat": 47.4369, "lon": 19.255598}, "countryCode": "HU"}, "averageDailyFlights": 1.14, "operators": [{"name": "Wizz Air", "iata": "W6", "icao": "WZZ"}, {"name": "Jet2", "iata": "LS", "icao": "EXS"}, {"name": "Ryanair", "iata": "FR", "icao": "RYR"}]}, {"destination": {"icao": "OTHH", "iata": "DOH", "name": "Doha Hamad", "shortName": "Hamad", "municipalityName": "Doha", "location": {"lat": 25.273056, "lon": 51.608055}, "countryCode": "QA"}, "averageDailyFlights": 1.14, "operators": [{"name": "Qatar Airways", "iata": "QR", "icao": "QTR"}]}, {"destination": {"icao": "EDDB", "iata": "BER", "name": "Berlin Brandenburg", "shortName": "Brandenburg", "municipalityName": "Berlin", "location": {"lat": 52.35139, "lon": 13.493889}, "countryCode": "DE"}, "averageDailyFlights": 1.0, "operators": [{"name": "easyJet", "iata": "U2", "icao": "EZY"}, {"name": "Ryanair", "iata": "FR", "icao": "RYR"}]}, {"destination": {"icao": "EGNS", "iata": "IOM", "name": "Castletown Isle of Man", "shortName": "Isle of Man", "municipalityName": "Castletown", "location": {"lat": 54.0833, "lon": -4.623889}, "countryCode": "IM"}, "averageDailyFlights": 1.0, "operators": [{"name": "Loganair", "iata": "LM", "icao": "LOG"}]}, {"destination": {"icao": "EPKK", "iata": "KRK", "name": "Krak\u00f3w John Paul II   -Balice", "shortName": "John Paul II   -Balice", "municipalityName": "Krak\u00f3w", "location": {"lat": 50.0777, "lon": 19.7848}, "countryCode": "PL"}, "averageDailyFlights": 1.0, "operators": [{"name": "Ryanair", "iata": "FR", "icao": "RYR"}, {"name": "Jet2", "iata": "LS", "icao": "EXS"}]}, {"destination": {"icao": "EGJJ", "iata": "JER", "name": "St Helier Jersey", "shortName": "Jersey", "municipalityName": "St Helier", "location": {"lat": 49.2079, "lon": -2.195509}, "countryCode": "JE"}, "averageDailyFlights": 1.0, "operators": [{"name": "Blue Islands", "iata": "SI", "icao": "BCI"}, {"name": "easyJet", "iata": "U2", "icao": "EZY"}]}, {"destination": {"icao": "GMMX", "iata": "RAK", "name": "Marrakech Menara", "shortName": "Menara", "municipalityName": "Marrakech", "location": {"lat": 31.6069, "lon": -8.036299}, "countryCode": "MA"}, "averageDailyFlights": 0.87, "operators": [{"name": "Ryanair UK", "iata": "RK", "icao": "RUK"}, {"name": "TUI Airways", "iata": "BY", "icao": "TOM"}]}, {"destination": {"icao": "EKCH", "iata": "CPH", "name": "Copenhagen Kastrup", "shortName": "Kastrup", "municipalityName": "Copenhagen", "location": {"lat": 55.6179, "lon": 12.656}, "countryCode": "DK"}, "averageDailyFlights": 0.86, "operators": [{"name": "SAS", "iata": "SK", "icao": "SAS"}]}, {"destination": {"icao": "LGIR", "iata": "HER", "name": "Heraklion Nikos Kazantzakis", "shortName": "Nikos Kazantzakis", "municipalityName": "Heraklion", "location": {"lat": 35.3397, "lon": 25.1803}, "countryCode": "GR"}, "averageDailyFlights": 0.86, "operators": [{"name": "TUI Airways", "iata": "BY", "icao": "TOM"}, {"name": "Jet2", "iata": "LS", "icao": "EXS"}, {"name": "easyJet", "iata": "U2", "icao": "EZY"}]}, {"destination": {"icao": "LPPT", "iata": "LIS", "name": "Lisbon Portela", "shortName": "Portela", "municipalityName": "Lisbon", "location": {"lat": 38.7813, "lon": -9.135919}, "countryCode": "PT"}, "averageDailyFlights": 0.86, "operators": [{"name": "Ryanair", "iata": "FR", "icao": "RYR"}, {"name": "easyJet", "iata": "U2", "icao": "EZY"}]}, {"destination": {"icao": "LGRP", "iata": "RHO", "name": "Rodes Island Diagoras", "shortName": "Diagoras", "municipalityName": "Rodes Island", "location": {"lat": 36.4054, "lon": 28.0862}, "countryCode": "GR"}, "averageDailyFlights": 0.81, "operators": [{"name": "Jet2", "iata": "LS", "icao": "EXS"}, {"name": "Ryanair", "iata": "FR", "icao": "RYR"}, {"name": "TUI Airways", "iata": "BY", "icao": "TOM"}]}, {"destination": {"icao": "EICK", "iata": "ORK", "name": "Cork ", "shortName": "Cork", "municipalityName": "Cork", "location": {"lat": 51.8413, "lon": -8.491109}, "countryCode": "IE"}, "averageDailyFlights": 0.71, "operators": [{"name": "Ryanair", "iata": "FR", "icao": "RYR"}]}, {"destination": {"icao": "DTNH", "iata": "NBE", "name": "Enfidha - Hammamet", "shortName": "- Hammamet", "municipalityName": "Enfidha", "location": {"lat": 36.075832, "lon": 10.438611}, "countryCode": "TN"}, "averageDailyFlights": 0.71, "operators": [{"name": "easyJet", "iata": "U2", "icao": "EZY"}, {"name": "TUI Airways", "iata": "BY", "icao": "TOM"}]}, {"destination": {"icao": "LEIB", "iata": "IBZ", "name": "Ibiza Town Ibiza", "shortName": "Ibiza", "municipalityName": "Ibiza Town", "location": {"lat": 38.8729, "lon": 1.373119}, "countryCode": "ES"}, "averageDailyFlights": 0.71, "operators": [{"name": "Ryanair", "iata": "FR", "icao": "RYR"}, {"name": "Jet2", "iata": "LS", "icao": "EXS"}]}, {"destination": {"icao": "LGKR", "iata": "CFU", "name": "Kerkyra Island Ioannis Kapodistrias", "shortName": "Ioannis Kapodistrias", "municipalityName": "Kerkyra Island", "location": {"lat": 39.6019, "lon": 19.9117}, "countryCode": "GR"}, "averageDailyFlights": 0.71, "operators": [{"name": "Jet2", "iata": "LS", "icao": "EXS"}, {"name": "Ryanair", "iata": "FR", "icao": "RYR"}]}, {"destination": {"icao": "LMML", "iata": "MLA", "name": "Luqa Malta", "shortName": "Malta", "municipalityName": "Luqa", "location": {"lat": 35.8575, "lon": 14.4775}, "countryCode": "MT"}, "averageDailyFlights": 0.71, "operators": [{"name": "Jet2", "iata": "LS", "icao": "EXS"}, {"name": "Ryanair", "iata": "FR", "icao": "RYR"}, {"name": "TUI Airways", "iata": "BY", "icao": "TOM"}]}, {"destination": {"icao": "LIRF", "iata": "FCO", "name": "Rome Leonardo da Vinci\u2013Fiumicino", "shortName": "Leonardo da Vinci\u2013Fiumicino", "municipalityName": "Rome", "location": {"lat": 41.8045, "lon": 12.2508}, "countryCode": "IT"}, "averageDailyFlights": 0.71, "operators": [{"name": "Jet2", "iata": "LS", "icao": "EXS"}]}, {"destination": {"icao": "LIPZ", "iata": "VCE", "name": "Venice Marco Polo", "shortName": "Marco Polo", "municipalityName": "Venice", "location": {"lat": 45.5053, "lon": 12.3519}, "countryCode": "IT"}, "averageDailyFlights": 0.71, "operators": [{"name": "Jet2", "iata": "LS", "icao": "EXS"}, {"name": "Ryanair", "iata": "FR", "icao": "RYR"}]}, {"destination": {"name": "Guernsey"}, "averageDailyFlights": 0.71, "operators": [{"name": "Aurigny Air Services", "iata": "GR", "icao": "AUR"}]}, {"destination": {"icao": "GMAD", "iata": "AGA", "name": "Agadir Al Massira", "shortName": "Al Massira", "municipalityName": "Agadir", "location": {"lat": 30.325, "lon": -9.413069}, "countryCode": "MA"}, "averageDailyFlights": 0.62, "operators": [{"name": "Ryanair UK", "iata": "RK", "icao": "RUK"}, {"name": "TUI Airways", "iata": "BY", "icao": "TOM"}]}, {"destination": {"icao": "VIAR", "iata": "ATQ", "name": "Amritsar Sri Guru Ram Dass Jee", "shortName": "Sri Guru Ram Dass Jee", "municipalityName": "Amritsar", "location": {"lat": 31.7096, "lon": 74.7973}, "countryCode": "IN"}, "averageDailyFlights": 0.57, "operators": [{"name": "Air India", "iata": "AI", "icao": "AIC"}]}, {"destination": {"icao": "MMUN", "iata": "CUN", "name": "Canc\u00fan ", "shortName": "Canc\u00fan", "municipalityName": "Canc\u00fan", "location": {"lat": 21.0365, "lon": -86.8771}, "countryCode": "MX"}, "averageDailyFlights": 0.57, "operators": [{"name": "TUI Airways", "iata": "BY", "icao": "TOM"}]}, {"destination": {"icao": "LTFJ", "iata": "SAW", "name": "Istanbul Sabiha G\u00f6k\u00e7en", "shortName": "Sabiha G\u00f6k\u00e7en", "municipalityName": "Istanbul", "location": {"lat": 40.8986, "lon": 29.3092}, "countryCode": "TR"}, "averageDailyFlights": 0.57, "operators": [{"name": "Pegasus", "iata": "PC", "icao": "PGT"}]}, {"destination": {"icao": "OEJN", "iata": "JED", "name": "Jeddah King Abdulaziz", "shortName": "King Abdulaziz", "municipalityName": "Jeddah", "location": {"lat": 21.6796, "lon": 39.1565}, "countryCode": "SA"}, "averageDailyFlights": 0.57, "operators": [{"name": "Saudi Arabian Airlines", "iata": "SV", "icao": "SVA"}]}, {"destination": {"icao": "LKPR", "iata": "PRG", "name": "Prague Ruzyn\u011b", "shortName": "Ruzyn\u011b", "municipalityName": "Prague", "location": {"lat": 50.1008, "lon": 14.26}, "countryCode": "CZ"}, "averageDailyFlights": 0.57, "operators": [{"name": "Jet2", "iata": "LS", "icao": "EXS"}, {"name": "Eurowings", "iata": "EW", "icao": "EWG"}]}, {"destination": {"icao": "LERS", "iata": "REU", "name": "Reus Air Base", "shortName": "Air Base", "municipalityName": "Reus", "location": {"lat": 41.1474, "lon": 1.16717}, "countryCode": "ES"}, "averageDailyFlights": 0.57, "operators": [{"name": "Ryanair", "iata": "FR", "icao": "RYR"}, {"name": "Jet2", "iata": "LS", "icao": "EXS"}]}, {"destination": {"icao": "LEXJ", "iata": "SDR", "name": "Santander ", "shortName": "Santander", "municipalityName": "Santander", "location": {"lat": 43.4271, "lon": -3.820009}, "countryCode": "ES"}, "averageDailyFlights": 0.57, "operators": [{"name": "Ryanair", "iata": "FR", "icao": "RYR"}]}, {"destination": {"icao": "EGJB", "iata": "GCI", "name": "St Peter Port Guernsey", "shortName": "Guernsey", "municipalityName": "St Peter Port", "location": {"lat": 49.435, "lon": -2.601969}, "countryCode": "GG"}, "averageDailyFlights": 0.57, "operators": [{"name": "Aurigny Air Services", "iata": "GR", "icao": "AUR"}, {"name": "ATV"}]}, {"destination": {"icao": "LIPX", "iata": "VRN", "name": "Verona Villafranca", "shortName": "Villafranca", "municipalityName": "Verona", "location": {"lat": 45.3957, "lon": 10.8885}, "countryCode": "IT"}, "averageDailyFlights": 0.57, "operators": [{"name": "Ryanair", "iata": "FR", "icao": "RYR"}]}, {"destination": {"icao": "HESH", "iata": "SSH", "name": "Sharm el Sheikh ", "shortName": "Sharm el Sheikh", "municipalityName": "Sharm el Sheikh", "location": {"lat": 27.9773, "lon": 34.395}, "countryCode": "EG"}, "averageDailyFlights": 0.46, "operators": [{"name": "easyJet", "iata": "U2", "icao": "EZY"}, {"name": "TUI Airways", "iata": "BY", "icao": "TOM"}]}, {"destination": {"icao": "LGAV", "iata": "ATH", "name": "Athens Eleftherios Venizelos", "shortName": "Eleftherios Venizelos", "municipalityName": "Athens", "location": {"lat": 37.9364, "lon": 23.944498}, "countryCode": "GR"}, "averageDailyFlights": 0.43, "operators": [{"name": "Jet2", "iata": "LS", "icao": "EXS"}]}, {"destination": {"icao": "LIME", "iata": "BGY", "name": "Bergamo Orio al Serio", "shortName": "Orio al Serio", "municipalityName": "Bergamo", "location": {"lat": 45.6739, "lon": 9.70417}, "countryCode": "IT"}, "averageDailyFlights": 0.43, "operators": [{"name": "Ryanair", "iata": "FR", "icao": "RYR"}]}, {"destination": {"icao": "TBPB", "iata": "BGI", "name": "Bridgetown Sir Grantley Adams", "shortName": "Sir Grantley Adams", "municipalityName": "Bridgetown", "location": {"lat": 13.0746, "lon": -59.4925}, "countryCode": "BB"}, "averageDailyFlights": 0.43, "operators": [{"name": "TUI Airways", "iata": "BY", "icao": "TOM"}]}, {"destination": {"icao": "EPBY", "iata": "BZG", "name": "Bydgoszcz Ignacy Jan Paderewski", "shortName": "Ignacy Jan Paderewski", "municipalityName": "Bydgoszcz", "location": {"lat": 53.0968, "lon": 17.9777}, "countryCode": "PL"}, "averageDailyFlights": 0.43, "operators": [{"name": "Ryanair", "iata": "FR", "icao": "RYR"}]}, {"destination": {"icao": "LFLB", "iata": "CMF", "name": "Chamb\u00e9ry/Aix-les-Bains Chamb\u00e9ry-Savoie", "shortName": "Chamb\u00e9ry-Savoie", "municipalityName": "Chamb\u00e9ry/Aix-les-Bains", "location": {"lat": 45.6381, "lon": 5.880229}, "countryCode": "FR"}, "averageDailyFlights": 0.43, "operators": [{"name": "Jet2", "iata": "LS", "icao": "EXS"}]}, {"destination": {"icao": "LPMA", "iata": "FNC", "name": "Funchal Madeira", "shortName": "Madeira", "municipalityName": "Funchal", "location": {"lat": 32.6979, "lon": -16.7745}, "countryCode": "PT"}, "averageDailyFlights": 0.43, "operators": [{"name": "Jet2", "iata": "LS", "icao": "EXS"}, {"name": "TUI Airways", "iata": "BY", "icao": "TOM"}]}, {"destination": {"icao": "LEGE", "iata": "GRO", "name": "Girona ", "shortName": "Girona", "municipalityName": "Girona", "location": {"lat": 41.901, "lon": 2.76055}, "countryCode": "ES"}, "averageDailyFlights": 0.43, "operators": [{"name": "Jet2", "iata": "LS", "icao": "EXS"}, {"name": "Ryanair", "iata": "FR", "icao": "RYR"}]}, {"destination": {"icao": "LEMD", "iata": "MAD", "name": "Madrid Adolfo Su\u00e1rez \u2013Barajas", "shortName": "Adolfo Su\u00e1rez \u2013Barajas", "municipalityName": "Madrid", "location": {"lat": 40.4936, "lon": -3.56676}, "countryCode": "ES"}, "averageDailyFlights": 0.43, "operators": [{"name": "Ryanair", "iata": "FR", "icao": "RYR"}]}, {"destination": {"icao": "LIRN", "iata": "NAP", "name": "N\u00e1poli Naples", "shortName": "Naples", "municipalityName": "N\u00e1poli", "location": {"lat": 40.886, "lon": 14.2908}, "countryCode": "IT"}, "averageDailyFlights": 0.43, "operators": [{"name": "Jet2", "iata": "LS", "icao": "EXS"}, {"name": "TUI Airways", "iata": "BY", "icao": "TOM"}]}, {"destination": {"icao": "LPPR", "iata": "OPO", "name": "Porto Francisco de S\u00e1 Carneiro", "shortName": "Francisco de S\u00e1 Carneiro", "municipalityName": "Porto", "location": {"lat": 41.2481, "lon": -8.681389}, "countryCode": "PT"}, "averageDailyFlights": 0.43, "operators": [{"name": "Ryanair", "iata": "FR", "icao": "RYR"}]}, {"destination": {"icao": "EPPO", "iata": "POZ", "name": "Pozna\u0144 -\u0141awica", "shortName": "-\u0141awica", "municipalityName": "Pozna\u0144", "location": {"lat": 52.421, "lon": 16.8263}, "countryCode": "PL"}, "averageDailyFlights": 0.43, "operators": [{"name": "Ryanair", "iata": "FR", "icao": "RYR"}]}, {"destination": {"icao": "LEZL", "iata": "SVQ", "name": "Seville Sevilla", "shortName": "Sevilla", "municipalityName": "Seville", "location": {"lat": 37.418, "lon": -5.893109}, "countryCode": "ES"}, "averageDailyFlights": 0.43, "operators": [{"name": "Ryanair", "iata": "FR", "icao": "RYR"}]}, {"destination": {"icao": "LATI", "iata": "TIA", "name": "Tirana Mother Teresa", "shortName": "Mother Teresa", "municipalityName": "Tirana", "location": {"lat": 41.4147, "lon": 19.7206}, "countryCode": "AL"}, "averageDailyFlights": 0.43, "operators": [{"name": "Ryanair UK", "iata": "RK", "icao": "RUK"}]}, {"destination": {"icao": "EPMO", "iata": "WMI", "name": "Warsaw Modlin", "shortName": "Modlin", "municipalityName": "Warsaw", "location": {"lat": 52.4511, "lon": 20.6518}, "countryCode": "PL"}, "averageDailyFlights": 0.43, "operators": [{"name": "Ryanair", "iata": "FR", "icao": "RYR"}]}, {"destination": {"icao": "LDZD", "iata": "ZAD", "name": "Zadar Zemunik", "shortName": "Zemunik", "municipalityName": "Zadar", "location": {"lat": 44.1083, "lon": 15.346699}, "countryCode": "HR"}, "averageDailyFlights": 0.43, "operators": [{"name": "Ryanair", "iata": "FR", "icao": "RYR"}]}, {"destination": {"icao": "EINN", "iata": "SNN", "name": "Limerick city Shannon", "shortName": "Shannon", "municipalityName": "Limerick city", "location": {"lat": 52.702, "lon": -8.924819}, "countryCode": "IE"}, "averageDailyFlights": 0.4, "operators": [{"name": "Ryanair", "iata": "FR", "icao": "RYR"}, {"name": "Qatar Airways", "iata": "QR", "icao": "QTR"}, {"name": "Aer Lingus", "iata": "EI", "icao": "EIN"}]}, {"destination": {"icao": "VIDP", "iata": "DEL", "name": "New Delhi Indira Gandhi", "shortName": "Indira Gandhi", "municipalityName": "New Delhi", "location": {"lat": 28.5665, "lon": 77.1031}, "countryCode": "IN"}, "averageDailyFlights": 0.32, "operators": [{"name": "Air India", "iata": "AI", "icao": "AIC"}]}, {"destination": {"icao": "LFBO", "iata": "TLS", "name": "Toulouse-Blagnac ", "shortName": "Toulouse-Blagnac", "municipalityName": "Toulouse-Blagnac", "location": {"lat": 43.6291, "lon": 1.363819}, "countryCode": "FR"}, "averageDailyFlights": 0.32, "operators": [{"name": "Ryanair", "iata": "FR", "icao": "RYR"}, {"name": "TUI Airways", "iata": "BY", "icao": "TOM"}]}, {"destination": {"icao": "LTFE", "iata": "BJV", "name": "Bodrum Milas", "shortName": "Milas", "municipalityName": "Bodrum", "location": {"lat": 37.2506, "lon": 27.6643}, "countryCode": "TR"}, "averageDailyFlights": 0.29, "operators": [{"name": "Jet2", "iata": "LS", "icao": "EXS"}]}, {"destination": {"icao": "LFBD", "iata": "BOD", "name": "Bordeaux/M\u00e9rignac Bordeaux-M\u00e9rignac", "shortName": "Bordeaux-M\u00e9rignac", "municipalityName": "Bordeaux/M\u00e9rignac", "location": {"lat": 44.8283, "lon": -0.715556}, "countryCode": "FR"}, "averageDailyFlights": 0.29, "operators": [{"name": "Ryanair", "iata": "FR", "icao": "RYR"}]}, {"destination": {"icao": "EIKN", "iata": "NOC", "name": "Charleston Ireland West Knock", "shortName": "Ireland West Knock", "municipalityName": "Charleston", "location": {"lat": 53.9103, "lon": -8.81849}, "countryCode": "IE"}, "averageDailyFlights": 0.29, "operators": [{"name": "Ryanair", "iata": "FR", "icao": "RYR"}]}, {"destination": {"icao": "LRCV", "iata": "CRA", "name": "Craiova ", "shortName": "Craiova", "municipalityName": "Craiova", "location": {"lat": 44.3181, "lon": 23.8886}, "countryCode": "RO"}, "averageDailyFlights": 0.29, "operators": [{"name": "Wizz Air Malta", "iata": "W4", "icao": "WMT"}]}, {"destination": {"icao": "EGAE", "iata": "LDY", "name": "Derry City City of Derry", "shortName": "City of Derry", "municipalityName": "Derry City", "location": {"lat": 55.0428, "lon": -7.161109}, "countryCode": "GB"}, "averageDailyFlights": 0.29, "operators": [{"name": "Ryanair UK", "iata": "RK", "icao": "RUK"}]}, {"destination": {"icao": "LDDU", "iata": "DBV", "name": "Dubrovnik ", "shortName": "Dubrovnik", "municipalityName": "Dubrovnik", "location": {"lat": 42.5614, "lon": 18.2682}, "countryCode": "HR"}, "averageDailyFlights": 0.29, "operators": [{"name": "Jet2", "iata": "LS", "icao": "EXS"}]}, {"destination": {"icao": "HEGN", "iata": "HRG", "name": "Hurghada ", "shortName": "Hurghada", "municipalityName": "Hurghada", "location": {"lat": 27.1783, "lon": 33.7994}, "countryCode": "EG"}, "averageDailyFlights": 0.29, "operators": [{"name": "TUI Airways", "iata": "BY", "icao": "TOM"}]}, {"destination": {"icao": "LTBJ", "iata": "ADB", "name": "\u0130zmir Adnan Menderes", "shortName": "Adnan Menderes", "municipalityName": "\u0130zmir", "location": {"lat": 38.2924, "lon": 27.157}, "countryCode": "TR"}, "averageDailyFlights": 0.29, "operators": [{"name": "Jet2", "iata": "LS", "icao": "EXS"}]}, {"destination": {"icao": "KMLB", "iata": "MLB", "name": "Melbourne ", "shortName": "Melbourne", "municipalityName": "Melbourne", "location": {"lat": 28.1028, "lon": -80.6453}, "countryCode": "US"}, "averageDailyFlights": 0.29, "operators": [{"name": "TUI Airways", "iata": "BY", "icao": "TOM"}]}, {"destination": {"icao": "LIMC", "iata": "MXP", "name": "Milan Malpensa", "shortName": "Malpensa", "municipalityName": "Milan", "location": {"lat": 45.6306, "lon": 8.72811}, "countryCode": "IT"}, "averageDailyFlights": 0.29, "operators": [{"name": "easyJet", "iata": "U2", "icao": "EZY"}]}, {"destination": {"icao": "MKJS", "iata": "MBJ", "name": "Montego Bay Sangster", "shortName": "Sangster", "municipalityName": "Montego Bay", "location": {"lat": 18.5037, "lon": -77.9134}, "countryCode": "JM"}, "averageDailyFlights": 0.29, "operators": [{"name": "TUI Airways", "iata": "BY", "icao": "TOM"}]}, {"destination": {"icao": "LEMI", "iata": "RMU", "name": "Murcia -Corvera", "shortName": "-Corvera", "municipalityName": "Murcia", "location": {"lat": 37.80258, "lon": -1.125389}, "countryCode": "ES"}, "averageDailyFlights": 0.29, "operators": [{"name": "Ryanair", "iata": "FR", "icao": "RYR"}]}, {"destination": {"icao": "LFMN", "iata": "NCE", "name": "Nice -C\u00f4te d'Azur", "shortName": "-C\u00f4te d'Azur", "municipalityName": "Nice", "location": {"lat": 43.6584, "lon": 7.215869}, "countryCode": "FR"}, "averageDailyFlights": 0.29, "operators": [{"name": "Jet2", "iata": "LS", "icao": "EXS"}]}, {"destination": {"icao": "LIRP", "iata": "PSA", "name": "Pisa ", "shortName": "Pisa", "municipalityName": "Pisa", "location": {"lat": 43.6839, "lon": 10.3927}, "countryCode": "IT"}, "averageDailyFlights": 0.29, "operators": [{"name": "Ryanair", "iata": "FR", "icao": "RYR"}]}, {"destination": {"icao": "GVBA", "iata": "BVC", "name": "Rabil ", "shortName": "Rabil", "municipalityName": "Rabil", "location": {"lat": 16.1365, "lon": -22.8889}, "countryCode": "CV"}, "averageDailyFlights": 0.29, "operators": [{"name": "TUI Airways", "iata": "BY", "icao": "TOM"}]}, {"destination": {"icao": "BIKF", "iata": "KEF", "name": "Reykjavik Keflavik", "shortName": "Keflavik", "municipalityName": "Reykjavik", "location": {"lat": 63.985, "lon": -22.6056}, "countryCode": "IS"}, "averageDailyFlights": 0.29, "operators": [{"name": "Jet2", "iata": "LS", "icao": "EXS"}]}, {"destination": {"icao": "LBSF", "iata": "SOF", "name": "Sofia ", "shortName": "Sofia", "municipalityName": "Sofia", "location": {"lat": 42.696693, "lon": 23.411436}, "countryCode": "BG"}, "averageDailyFlights": 0.29, "operators": [{"name": "Ryanair", "iata": "FR", "icao": "RYR"}]}, {"destination": {"icao": "ESSA", "iata": "ARN", "name": "Stockholm -Arlanda", "shortName": "-Arlanda", "municipalityName": "Stockholm", "location": {"lat": 59.6519, "lon": 17.9186}, "countryCode": "SE"}, "averageDailyFlights": 0.29, "operators": [{"name": "Ryanair", "iata": "FR", "icao": "RYR"}]}, {"destination": {"icao": "EDDS", "iata": "STR", "name": "Stuttgart ", "shortName": "Stuttgart", "municipalityName": "Stuttgart", "location": {"lat": 48.6899, "lon": 9.22196}, "countryCode": "DE"}, "averageDailyFlights": 0.29, "operators": [{"name": "ATV"}, {"name": "ATL"}]}, {"destination": {"icao": "LFBT", "iata": "LDE", "name": "Tarbes/Lourdes/Pyr\u00e9n\u00e9es Tarbes-Lourdes-Pyr\u00e9n\u00e9es", "shortName": "Tarbes-Lourdes-Pyr\u00e9n\u00e9es", "municipalityName": "Tarbes/Lourdes/Pyr\u00e9n\u00e9es", "location": {"lat": 43.1787, "lon": -0.006438}, "countryCode": "FR"}, "averageDailyFlights": 0.29, "operators": [{"name": "Enter Air", "iata": "E4", "icao": "ENT"}, {"name": "Jet2", "iata": "LS", "icao": "EXS"}]}, {"destination": {"icao": "LIMF", "iata": "TRN", "name": "Torino Turin", "shortName": "Turin", "municipalityName": "Torino", "location": {"lat": 45.2008, "lon": 7.64963}, "countryCode": "IT"}, "averageDailyFlights": 0.29, "operators": [{"name": "Jet2", "iata": "LS", "icao": "EXS"}]}, {"destination": {"icao": "LEVC", "iata": "VLC", "name": "Valencia ", "shortName": "Valencia", "municipalityName": "Valencia", "location": {"lat": 39.4893, "lon": -0.481624}, "countryCode": "ES"}, "averageDailyFlights": 0.29, "operators": [{"name": "Ryanair", "iata": "FR", "icao": "RYR"}]}, {"destination": {"icao": "LOWW", "iata": "VIE", "name": "Vienna Schwechat", "shortName": "Schwechat", "municipalityName": "Vienna", "location": {"lat": 48.1103, "lon": 16.5697}, "countryCode": "AT"}, "averageDailyFlights": 0.29, "operators": [{"name": "Jet2", "iata": "LS", "icao": "EXS"}]}, {"destination": {"name": "Boa Vista"}, "averageDailyFlights": 0.29, "operators": [{"name": "TUI Airways", "iata": "BY", "icao": "TOM"}]}, {"destination": {"name": "Isle Of Man"}, "averageDailyFlights": 0.29, "operators": [{"name": "British Airways", "iata": "BA", "icao": "BAW"}, {"name": "Loganair", "iata": "LM", "icao": "LOG"}]}, {"destination": {"name": "Jersey"}, "averageDailyFlights": 0.29, "operators": [{"name": "Blue Islands", "iata": "SI", "icao": "BCI"}]}, {"destination": {"icao": "EKBI", "iata": "BLL", "name": "Billund ", "shortName": "Billund", "municipalityName": "Billund", "location": {"lat": 55.7403, "lon": 9.15178}, "countryCode": "DK"}, "averageDailyFlights": 0.14, "operators": [{"name": "Star Air A/S", "iata": "DJ", "icao": "SRR"}]}, {"destination": {"icao": "GVAC", "iata": "SID", "name": "Espargos Am\u00edlcar Cabral", "shortName": "Am\u00edlcar Cabral", "municipalityName": "Espargos", "location": {"lat": 16.7414, "lon": -22.9494}, "countryCode": "CV"}, "averageDailyFlights": 0.14, "operators": [{"name": "TUI Airways", "iata": "BY", "icao": "TOM"}]}, {"destination": {"icao": "LFLS", "iata": "GNB", "name": "Grenoble/Saint-Geoirs Grenoble-Is\u00e8re", "shortName": "Grenoble-Is\u00e8re", "municipalityName": "Grenoble/Saint-Geoirs", "location": {"lat": 45.3629, "lon": 5.32937}, "countryCode": "FR"}, "averageDailyFlights": 0.14, "operators": [{"name": "Jet2", "iata": "LS", "icao": "EXS"}]}, {"destination": {"icao": "LOWI", "iata": "INN", "name": "Innsbruck ", "shortName": "Innsbruck", "municipalityName": "Innsbruck", "location": {"lat": 47.2602, "lon": 11.343999}, "countryCode": "AT"}, "averageDailyFlights": 0.14, "operators": [{"name": "Jet2", "iata": "LS", "icao": "EXS"}]}, {"destination": {"icao": "LEMH", "iata": "MAH", "name": "Menorca Island Menorca", "shortName": "Menorca", "municipalityName": "Menorca Island", "location": {"lat": 39.8626, "lon": 4.218649}, "countryCode": "ES"}, "averageDailyFlights": 0.14, "operators": [{"name": "Jet2", "iata": "LS", "icao": "EXS"}]}, {"destination": {"icao": "DTMB", "iata": "MIR", "name": "Monastir Habib Bourguiba", "shortName": "Habib Bourguiba", "municipalityName": "Monastir", "location": {"lat": 35.7581, "lon": 10.754699}, "countryCode": "TN"}, "averageDailyFlights": 0.14, "operators": [{"name": "TUI Airways", "iata": "BY", "icao": "TOM"}]}, {"destination": {"icao": "LOWS", "iata": "SZG", "name": "Salzburg ", "shortName": "Salzburg", "municipalityName": "Salzburg", "location": {"lat": 47.7933, "lon": 13.0043}, "countryCode": "AT"}, "averageDailyFlights": 0.14, "operators": [{"name": "Jet2", "iata": "LS", "icao": "EXS"}]}, {"destination": {"name": "Chambery"}, "averageDailyFlights": 0.14, "operators": [{"name": "TUI Airways", "iata": "BY", "icao": "TOM"}]}, {"destination": {"name": "Knock Ireland West"}, "averageDailyFlights": 0.14, "operators": [{"name": "Ryanair", "iata": "FR", "icao": "RYR"}]}, {"destination": {"name": "Sal Cape Verde"}, "averageDailyFlights": 0.14, "operators": [{"name": "TUI Airways", "iata": "BY", "icao": "TOM"}]}, {"destination": {"name": "Turin"}, "averageDailyFlights": 0.14, "operators": [{"name": "TUI Airways", "iata": "BY", "icao": "TOM"}]}]}