{"routes": [{"destination": {"icao": "EGKK", "iata": "LGW", "name": "London Gatwick", "shortName": "Gatwick", "municipalityName": "London", "location": {"lat": 51.1481, "lon": -0.190277}, "countryCode": "GB"}, "averageDailyFlights": 2.14, "operators": [{"name": "Eastern Airways", "iata": "T3", "icao": "EZE"}]}, {"destination": {"icao": "EIDW", "iata": "DUB", "name": "Dublin ", "shortName": "Dublin", "municipalityName": "Dublin", "location": {"lat": 53.4213, "lon": -6.27007}, "countryCode": "IE"}, "averageDailyFlights": 1.57, "operators": [{"name": "Aer Lingus", "iata": "EI", "icao": "EIN"}, {"name": "Ryanair", "iata": "FR", "icao": "RYR"}, {"name": "EAI"}]}, {"destination": {"icao": "EGCC", "iata": "MAN", "name": "Manchester ", "shortName": "Manchester", "municipalityName": "Manchester", "location": {"lat": 53.3537, "lon": -2.27495}, "countryCode": "GB"}, "averageDailyFlights": 1.29, "operators": [{"name": "Loganair", "iata": "LM", "icao": "LOG"}, {"name": "easyJet", "iata": "U2", "icao": "EZY"}]}, {"destination": {"icao": "EGAC", "iata": "BHD", "name": "Belfast George Best  City", "shortName": "George Best  City", "municipalityName": "Belfast", "location": {"lat": 54.6181, "lon": -5.872499}, "countryCode": "GB"}, "averageDailyFlights": 0.57, "operators": [{"name": "EAG"}, {"name": "Aer Lingus", "iata": "EI", "icao": "EIN"}]}, {"destination": {"icao": "EGSS", "iata": "STN", "name": "London Stansted", "shortName": "Stansted", "municipalityName": "London", "location": {"lat": 51.885, "lon": 0.234999}, "countryCode": "GB"}, "averageDailyFlights": 0.57, "operators": [{"name": "Ryanair UK", "iata": "RK", "icao": "RUK"}]}, {"destination": {"icao": "LEAL", "iata": "ALC", "name": "Alicante ", "shortName": "Alicante", "municipalityName": "Alicante", "location": {"lat": 38.2822, "lon": -0.558156}, "countryCode": "ES"}, "averageDailyFlights": 0.43, "operators": [{"name": "Ryanair", "iata": "FR", "icao": "RYR"}]}, {"destination": {"icao": "EGPH", "iata": "EDI", "name": "Edinburgh ", "shortName": "Edinburgh", "municipalityName": "Edinburgh", "location": {"lat": 55.95, "lon": -3.372499}, "countryCode": "GB"}, "averageDailyFlights": 0.29, "operators": [{"name": "Loganair", "iata": "LM", "icao": "LOG"}]}, {"destination": {"icao": "LPFR", "iata": "FAO", "name": "Faro ", "shortName": "Faro", "municipalityName": "Faro", "location": {"lat": 37.0144, "lon": -7.965909}, "countryCode": "PT"}, "averageDailyFlights": 0.29, "operators": [{"name": "Ryanair", "iata": "FR", "icao": "RYR"}]}, {"destination": {"icao": "LEMG", "iata": "AGP", "name": "M\u00e1laga ", "shortName": "M\u00e1laga", "municipalityName": "M\u00e1laga", "location": {"lat": 36.6749, "lon": -4.49911}, "countryCode": "ES"}, "averageDailyFlights": 0.14, "operators": [{"name": "Ryanair", "iata": "FR", "icao": "RYR"}]}]}