{"routes": [{"destination": {"icao": "EHAM", "iata": "AMS", "name": "Amsterdam Schiphol", "shortName": "Schiphol", "municipalityName": "Amsterdam", "location": {"lat": 52.3086, "lon": 4.763889}, "countryCode": "NL"}, "averageDailyFlights": 11.29, "operators": [{"name": "British Airways", "iata": "BA", "icao": "BAW"}, {"name": "KLM", "iata": "KL", "icao": "KLM"}]}, {"destination": {"icao": "EGPH", "iata": "EDI", "name": "Edinburgh ", "shortName": "Edinburgh", "municipalityName": "Edinburgh", "location": {"lat": 55.95, "lon": -3.372499}, "countryCode": "GB"}, "averageDailyFlights": 6.43, "operators": [{"name": "British Airways", "iata": "BA", "icao": "BAW"}]}, {"destination": {"icao": "LSZH", "iata": "ZRH", "name": "Zurich Kloten", "shortName": "Kloten", "municipalityName": "Zurich", "location": {"lat": 47.4647, "lon": 8.549169}, "countryCode": "CH"}, "averageDailyFlights": 5.43, "operators": [{"name": "SWISS", "iata": "LX", "icao": "SWR"}, {"name": "British Airways", "iata": "BA", "icao": "BAW"}]}, {"destination": {"icao": "EIDW", "iata": "DUB", "name": "Dublin ", "shortName": "Dublin", "municipalityName": "Dublin", "location": {"lat": 53.4213, "lon": -6.27007}, "countryCode": "IE"}, "averageDailyFlights": 5.0, "operators": [{"name": "British Airways", "iata": "BA", "icao": "BAW"}]}, {"destination": {"icao": "ELLX", "iata": "LUX", "name": "Luxembourg -Findel", "shortName": "-Findel", "municipalityName": "Luxembourg", "location": {"lat": 49.6266, "lon": 6.21152}, "countryCode": "LU"}, "averageDailyFlights": 4.71, "operators": [{"name": "Luxair", "iata": "LG", "icao": "LGL"}]}, {"destination": {"icao": "EDDF", "iata": "FRA", "name": "Frankfurt-am-Main ", "shortName": "Frankfurt-am-Main", "municipalityName": "Frankfurt-am-Main", "location": {"lat": 50.0264, "lon": 8.543129}, "countryCode": "DE"}, "averageDailyFlights": 3.86, "operators": [{"name": "British Airways", "iata": "BA", "icao": "BAW"}, {"name": "Air Dolomiti", "iata": "EN", "icao": "DLA"}, {"name": "Lufthansa", "iata": "LH", "icao": "DLH"}]}, {"destination": {"icao": "EGPF", "iata": "GLA", "name": "Glasgow ", "shortName": "Glasgow", "municipalityName": "Glasgow", "location": {"lat": 55.8719, "lon": -4.43306}, "countryCode": "GB"}, "averageDailyFlights": 3.43, "operators": [{"name": "British Airways", "iata": "BA", "icao": "BAW"}]}, {"destination": {"icao": "EDDB", "iata": "BER", "name": "Berlin Brandenburg", "shortName": "Brandenburg", "municipalityName": "Berlin", "location": {"lat": 52.35139, "lon": 13.493889}, "countryCode": "DE"}, "averageDailyFlights": 3.0, "operators": [{"name": "British Airways", "iata": "BA", "icao": "BAW"}]}, {"destination": {"icao": "LIML", "iata": "LIN", "name": "Milan Linate", "shortName": "Linate", "municipalityName": "Milan", "location": {"lat": 45.4451, "lon": 9.27674}, "countryCode": "IT"}, "averageDailyFlights": 3.0, "operators": [{"name": "British Airways", "iata": "BA", "icao": "BAW"}, {"name": "ITA Airways", "iata": "AZ", "icao": "ITY"}]}, {"destination": {"icao": "EHRD", "iata": "RTM", "name": "Rotterdam The Hague", "shortName": "The Hague", "municipalityName": "Rotterdam", "location": {"lat": 51.9569, "lon": 4.43722}, "countryCode": "NL"}, "averageDailyFlights": 3.0, "operators": [{"name": "British Airways", "iata": "BA", "icao": "BAW"}]}, {"destination": {"icao": "LIRQ", "iata": "FLR", "name": "Firenze Peretola", "shortName": "Peretola", "municipalityName": "Firenze", "location": {"lat": 43.81, "lon": 11.2051}, "countryCode": "IT"}, "averageDailyFlights": 2.43, "operators": [{"name": "British Airways", "iata": "BA", "icao": "BAW"}]}, {"destination": {"icao": "EGAC", "iata": "BHD", "name": "Belfast George Best  City", "shortName": "George Best  City", "municipalityName": "Belfast", "location": {"lat": 54.6181, "lon": -5.872499}, "countryCode": "GB"}, "averageDailyFlights": 2.14, "operators": [{"name": "British Airways", "iata": "BA", "icao": "BAW"}]}, {"destination": {"icao": "EGJB", "iata": "GCI", "name": "St Peter Port Guernsey", "shortName": "Guernsey", "municipalityName": "St Peter Port", "location": {"lat": 49.435, "lon": -2.601969}, "countryCode": "GG"}, "averageDailyFlights": 2.0, "operators": [{"name": "Aurigny Air Services", "iata": "GR", "icao": "AUR"}]}, {"destination": {"icao": "LIRF", "iata": "FCO", "name": "Rome Leonardo da Vinci\u2013Fiumicino", "shortName": "Leonardo da Vinci\u2013Fiumicino", "municipalityName": "Rome", "location": {"lat": 41.8045, "lon": 12.2508}, "countryCode": "IT"}, "averageDailyFlights": 1.86, "operators": [{"name": "ITA Airways", "iata": "AZ", "icao": "ITY"}]}, {"destination": {"icao": "LFMN", "iata": "NCE", "name": "Nice -C\u00f4te d'Azur", "shortName": "-C\u00f4te d'Azur", "municipalityName": "Nice", "location": {"lat": 43.6584, "lon": 7.215869}, "countryCode": "FR"}, "averageDailyFlights": 1.43, "operators": [{"name": "British Airways", "iata": "BA", "icao": "BAW"}]}, {"destination": {"icao": "LEIB", "iata": "IBZ", "name": "Ibiza Town Ibiza", "shortName": "Ibiza", "municipalityName": "Ibiza Town", "location": {"lat": 38.8729, "lon": 1.373119}, "countryCode": "ES"}, "averageDailyFlights": 1.14, "operators": [{"name": "British Airways", "iata": "BA", "icao": "BAW"}]}, {"destination": {"icao": "LEBL", "iata": "BCN", "name": "Barcelona ", "shortName": "Barcelona", "municipalityName": "Barcelona", "location": {"lat": 41.2971, "lon": 2.078459}, "countryCode": "ES"}, "averageDailyFlights": 1.0, "operators": [{"name": "British Airways", "iata": "BA", "icao": "BAW"}]}, {"destination": {"icao": "LEMG", "iata": "AGP", "name": "M\u00e1laga ", "shortName": "M\u00e1laga", "municipalityName": "M\u00e1laga", "location": {"lat": 36.6749, "lon": -4.49911}, "countryCode": "ES"}, "averageDailyFlights": 1.0, "operators": [{"name": "British Airways", "iata": "BA", "icao": "BAW"}]}, {"destination": {"icao": "EGNS", "iata": "IOM", "name": "Castletown Isle of Man", "shortName": "Isle of Man", "municipalityName": "Castletown", "location": {"lat": 54.0833, "lon": -4.623889}, "countryCode": "IM"}, "averageDailyFlights": 0.86, "operators": [{"name": "Loganair", "iata": "LM", "icao": "LOG"}]}, {"destination": {"icao": "LSGG", "iata": "GVA", "name": "Geneva Cointrin", "shortName": "Cointrin", "municipalityName": "Geneva", "location": {"lat": 46.2381, "lon": 6.10895}, "countryCode": "CH"}, "averageDailyFlights": 0.86, "operators": [{"name": "British Airways", "iata": "BA", "icao": "BAW"}]}, {"destination": {"icao": "EYVI", "iata": "VNO", "localCode": "\u0412\u0418\u041b", "name": "Vilnius ", "shortName": "Vilnius", "municipalityName": "Vilnius", "location": {"lat": 54.6341, "lon": 25.2858}, "countryCode": "LT"}, "averageDailyFlights": 0.86, "operators": [{"name": "LOT - Polish Airlines", "iata": "LO", "icao": "LOT"}]}, {"destination": {"icao": "EKBI", "iata": "BLL", "name": "Billund ", "shortName": "Billund", "municipalityName": "Billund", "location": {"lat": 55.7403, "lon": 9.15178}, "countryCode": "DK"}, "averageDailyFlights": 0.71, "operators": [{"name": "Sun-Air", "iata": "EZ", "icao": "SUS"}, {"name": "British Airways", "iata": "BA", "icao": "BAW"}]}, {"destination": {"icao": "LEPA", "iata": "PMI", "name": "Palma De Mallorca ", "shortName": "Palma De Mallorca", "municipalityName": "Palma De Mallorca", "location": {"lat": 39.5517, "lon": 2.73881}, "countryCode": "ES"}, "averageDailyFlights": 0.71, "operators": [{"name": "British Airways", "iata": "BA", "icao": "BAW"}]}, {"destination": {"icao": "EBAW", "iata": "ANR", "name": "Antwerp (Deurne)", "shortName": "(Deurne)", "municipalityName": "Antwerp", "location": {"lat": 51.1894, "lon": 4.460279}, "countryCode": "BE"}, "averageDailyFlights": 0.43, "operators": [{"name": "Luxair", "iata": "LG", "icao": "LGL"}]}, {"destination": {"icao": "LESO", "iata": "EAS", "name": "Hondarribia San Sebastian", "shortName": "San Sebastian", "municipalityName": "Hondarribia", "location": {"lat": 43.3565, "lon": -1.790609}, "countryCode": "ES"}, "averageDailyFlights": 0.43, "operators": [{"name": "British Airways", "iata": "BA", "icao": "BAW"}]}, {"destination": {"icao": "EGSC", "iata": "CBG", "name": "Cambridge ", "shortName": "Cambridge", "municipalityName": "Cambridge", "location": {"lat": 52.205, "lon": 0.174999}, "countryCode": "GB"}, "averageDailyFlights": 0.14, "operators": [{"name": "British Airways", "iata": "BA", "icao": "BAW"}]}, {"destination": {"icao": "LFLB", "iata": "CMF", "name": "Chamb\u00e9ry/Aix-les-Bains Chamb\u00e9ry-Savoie", "shortName": "Chamb\u00e9ry-Savoie", "municipalityName": "Chamb\u00e9ry/Aix-les-Bains", "location": {"lat": 45.6381, "lon": 5.880229}, "countryCode": "FR"}, "averageDailyFlights": 0.14, "operators": [{"name": "British Airways", "iata": "BA", "icao": "BAW"}]}, {"destination": {"icao": "EGTE", "iata": "EXT", "name": "Exeter ", "shortName": "Exeter", "municipalityName": "Exeter", "location": {"lat": 50.7344, "lon": -3.413889}, "countryCode": "GB"}, "averageDailyFlights": 0.14, "operators": [{"name": "British Airways", "iata": "BA", "icao": "BAW"}]}, {"destination": {"icao": "LOWS", "iata": "SZG", "name": "Salzburg ", "shortName": "Salzburg", "municipalityName": "Salzburg", "location": {"lat": 47.7933, "lon": 13.0043}, "countryCode": "AT"}, "averageDailyFlights": 0.14, "operators": [{"name": "British Airways", "iata": "BA", "icao": "BAW"}]}]}