{"routes": [{"destination": {"icao": "EHAM", "iata": "AMS", "name": "Amsterdam Schiphol", "shortName": "Schiphol", "municipalityName": "Amsterdam", "location": {"lat": 52.3086, "lon": 4.763889}, "countryCode": "NL"}, "averageDailyFlights": 6.86, "operators": [{"name": "KLM", "iata": "KL", "icao": "KLM"}]}, {"destination": {"icao": "EDDF", "iata": "FRA", "name": "Frankfurt-am-Main ", "shortName": "Frankfurt-am-Main", "municipalityName": "Frankfurt-am-Main", "location": {"lat": 50.0264, "lon": 8.543129}, "countryCode": "DE"}, "averageDailyFlights": 4.43, "operators": [{"name": "Lufthansa", "iata": "LH", "icao": "DLH"}]}, {"destination": {"icao": "EGSS", "iata": "STN", "name": "London Stansted", "shortName": "Stansted", "municipalityName": "London", "location": {"lat": 51.885, "lon": 0.234999}, "countryCode": "GB"}, "averageDailyFlights": 3.14, "operators": [{"name": "Ryanair", "iata": "FR", "icao": "RYR"}]}, {"destination": {"icao": "LFPG", "iata": "CDG", "name": "Paris Charles de Gaulle", "shortName": "Charles de Gaulle", "municipalityName": "Paris", "location": {"lat": 49.0128, "lon": 2.549999}, "countryCode": "FR"}, "averageDailyFlights": 3.0, "operators": [{"name": "ASL Airlines Belgium", "iata": "3V", "icao": "TAY"}, {"name": "Air France", "iata": "AF", "icao": "AFR"}]}, {"destination": {"icao": "EDDM", "iata": "MUC", "name": "Munich ", "shortName": "Munich", "municipalityName": "Munich", "location": {"lat": 48.3538, "lon": 11.7861}, "countryCode": "DE"}, "averageDailyFlights": 2.14, "operators": [{"name": "Lufthansa", "iata": "LH", "icao": "DLH"}]}, {"destination": {"icao": "ENGM", "iata": "OSL", "name": "Oslo Gardermoen", "shortName": "Gardermoen", "municipalityName": "Oslo", "location": {"lat": 60.1939, "lon": 11.100399}, "countryCode": "NO"}, "averageDailyFlights": 2.0, "operators": [{"name": "Norwegian Air Shuttle", "iata": "DY", "icao": "NOZ"}, {"name": "SAS", "iata": "SK", "icao": "SAS"}]}, {"destination": {"icao": "EGCC", "iata": "MAN", "name": "Manchester ", "shortName": "Manchester", "municipalityName": "Manchester", "location": {"lat": 53.3537, "lon": -2.27495}, "countryCode": "GB"}, "averageDailyFlights": 1.86, "operators": [{"name": "Ryanair", "iata": "FR", "icao": "RYR"}, {"name": "British Airways", "iata": "BA", "icao": "BAW"}, {"name": "Sun-Air", "iata": "EZ", "icao": "SUS"}, {"name": "Ryanair UK", "iata": "RK", "icao": "RUK"}]}, {"destination": {"icao": "EPWA", "iata": "WAW", "name": "Warsaw Chopin", "shortName": "Chopin", "municipalityName": "Warsaw", "location": {"lat": 52.1657, "lon": 20.9671}, "countryCode": "PL"}, "averageDailyFlights": 1.43, "operators": [{"name": "LOT - Polish Airlines", "iata": "LO", "icao": "LOT"}]}, {"destination": {"icao": "LHBP", "iata": "BUD", "name": "Budapest Ferenc Liszt", "shortName": "Ferenc Liszt", "municipalityName": "Budapest", "location": {"lat": 47.4369, "lon": 19.255598}, "countryCode": "HU"}, "averageDailyFlights": 1.29, "operators": [{"name": "Ryanair", "iata": "FR", "icao": "RYR"}]}, {"destination": {"icao": "GCLP", "iata": "LPA", "name": "Gran Canaria Island Gran Canaria", "shortName": "Gran Canaria", "municipalityName": "Gran Canaria Island", "location": {"lat": 27.9319, "lon": -15.386599}, "countryCode": "ES"}, "averageDailyFlights": 1.29, "operators": [{"name": "CAT"}, {"name": "Sunclass Airlines", "iata": "DK", "icao": "VKG"}, {"name": "JTD"}, {"name": "airBaltic", "iata": "BT", "icao": "BTI"}]}, {"destination": {"icao": "LEMG", "iata": "AGP", "name": "M\u00e1laga ", "shortName": "M\u00e1laga", "municipalityName": "M\u00e1laga", "location": {"lat": 36.6749, "lon": -4.49911}, "countryCode": "ES"}, "averageDailyFlights": 1.14, "operators": [{"name": "JTD"}, {"name": "Norwegian Air Sweden", "iata": "D8", "icao": "NSZ"}, {"name": "Ryanair", "iata": "FR", "icao": "RYR"}]}, {"destination": {"icao": "EKRN", "iata": "RNN", "name": "R\u00f8nne Bornholm", "shortName": "Bornholm", "municipalityName": "R\u00f8nne", "location": {"lat": 55.0633, "lon": 14.759599}, "countryCode": "DK"}, "averageDailyFlights": 1.14, "operators": [{"name": "Danish Air", "iata": "DX", "icao": "DTR"}, {"name": "DOT LT", "iata": "R6", "icao": "DNU"}]}, {"destination": {"icao": "EPKK", "iata": "KRK", "name": "Krak\u00f3w John Paul II   -Balice", "shortName": "John Paul II   -Balice", "municipalityName": "Krak\u00f3w", "location": {"lat": 50.0777, "lon": 19.7848}, "countryCode": "PL"}, "averageDailyFlights": 1.0, "operators": [{"name": "Ryanair", "iata": "FR", "icao": "RYR"}]}, {"destination": {"icao": "LEPA", "iata": "PMI", "name": "Palma De Mallorca ", "shortName": "Palma De Mallorca", "municipalityName": "Palma De Mallorca", "location": {"lat": 39.5517, "lon": 2.73881}, "countryCode": "ES"}, "averageDailyFlights": 1.0, "operators": [{"name": "Ryanair", "iata": "FR", "icao": "RYR"}, {"name": "Sunclass Airlines", "iata": "DK", "icao": "VKG"}, {"name": "JTD"}]}, {"destination": {"icao": "LTFM", "iata": "IST", "name": "Istanbul ", "shortName": "Istanbul", "municipalityName": "Istanbul", "location": {"lat": 41.275276, "lon": 28.751944}, "countryCode": "TR"}, "averageDailyFlights": 0.86, "operators": [{"name": "Turkish Airlines", "iata": "TK", "icao": "THY"}]}, {"destination": {"icao": "EGLC", "iata": "LCY", "name": "London City", "shortName": "City", "municipalityName": "London", "location": {"lat": 51.5053, "lon": 0.055277}, "countryCode": "GB"}, "averageDailyFlights": 0.86, "operators": [{"name": "Sun-Air", "iata": "EZ", "icao": "SUS"}, {"name": "British Airways", "iata": "BA", "icao": "BAW"}]}, {"destination": {"icao": "EVRA", "iata": "RIX", "localCode": "\u0420\u0418\u0425", "name": "Riga ", "shortName": "Riga", "municipalityName": "Riga", "location": {"lat": 56.9236, "lon": 23.9711}, "countryCode": "LV"}, "averageDailyFlights": 0.86, "operators": [{"name": "airBaltic", "iata": "BT", "icao": "BTI"}]}, {"destination": {"icao": "LIRF", "iata": "FCO", "name": "Rome Leonardo da Vinci\u2013Fiumicino", "shortName": "Leonardo da Vinci\u2013Fiumicino", "municipalityName": "Rome", "location": {"lat": 41.8045, "lon": 12.2508}, "countryCode": "IT"}, "averageDailyFlights": 0.86, "operators": [{"name": "Ryanair", "iata": "FR", "icao": "RYR"}]}, {"destination": {"icao": "EKVG", "iata": "FAE", "name": "Vagar ", "shortName": "Vagar", "municipalityName": "Vagar", "location": {"lat": 62.0636, "lon": -7.277219}, "countryCode": "FO"}, "averageDailyFlights": 0.86, "operators": [{"name": "Atlantic Airways", "iata": "RC", "icao": "FLI"}, {"name": "SWN"}]}, {"destination": {"icao": "LEBL", "iata": "BCN", "name": "Barcelona ", "shortName": "Barcelona", "municipalityName": "Barcelona", "location": {"lat": 41.2971, "lon": 2.078459}, "countryCode": "ES"}, "averageDailyFlights": 0.71, "operators": [{"name": "Ryanair", "iata": "FR", "icao": "RYR"}, {"name": "Vueling", "iata": "VY", "icao": "VLG"}]}, {"destination": {"icao": "LIME", "iata": "BGY", "name": "Bergamo Orio al Serio", "shortName": "Orio al Serio", "municipalityName": "Bergamo", "location": {"lat": 45.6739, "lon": 9.70417}, "countryCode": "IT"}, "averageDailyFlights": 0.71, "operators": [{"name": "Ryanair", "iata": "FR", "icao": "RYR"}]}, {"destination": {"icao": "EFHK", "iata": "HEL", "name": "Helsinki Vantaa", "shortName": "Vantaa", "municipalityName": "Helsinki", "location": {"lat": 60.3172, "lon": 24.9633}, "countryCode": "FI"}, "averageDailyFlights": 0.71, "operators": [{"name": "Finnair", "iata": "AY", "icao": "FIN"}]}, {"destination": {"icao": "LTAI", "iata": "AYT", "name": "Antalya ", "shortName": "Antalya", "municipalityName": "Antalya", "location": {"lat": 36.8987, "lon": 30.8005}, "countryCode": "TR"}, "averageDailyFlights": 0.64, "operators": [{"name": "Sun Express", "iata": "XQ", "icao": "SXS"}, {"name": "Pegasus", "iata": "PC", "icao": "PGT"}]}, {"destination": {"icao": "ENBR", "iata": "BGO", "name": "Bergen Flesland", "shortName": "Flesland", "municipalityName": "Bergen", "location": {"lat": 60.2934, "lon": 5.21814}, "countryCode": "NO"}, "averageDailyFlights": 0.57, "operators": [{"name": "Wideroe", "iata": "WF", "icao": "WIF"}]}, {"destination": {"icao": "EBCI", "iata": "CRL", "name": "Brussels South Charleroi", "shortName": "South Charleroi", "municipalityName": "Brussels", "location": {"lat": 50.4592, "lon": 4.45382}, "countryCode": "BE"}, "averageDailyFlights": 0.57, "operators": [{"name": "Ryanair", "iata": "FR", "icao": "RYR"}]}, {"destination": {"icao": "EDDK", "iata": "CGN", "name": "Cologne Bonn", "shortName": "Bonn", "municipalityName": "Cologne", "location": {"lat": 50.8659, "lon": 7.142739}, "countryCode": "DE"}, "averageDailyFlights": 0.57, "operators": [{"name": "Bluebird Nordic", "iata": "BO", "icao": "BBD"}]}, {"destination": {"icao": "EGPH", "iata": "EDI", "name": "Edinburgh ", "shortName": "Edinburgh", "municipalityName": "Edinburgh", "location": {"lat": 55.95, "lon": -3.372499}, "countryCode": "GB"}, "averageDailyFlights": 0.57, "operators": [{"name": "Ryanair", "iata": "FR", "icao": "RYR"}]}, {"destination": {"icao": "UTSA", "iata": "NVI", "localCode": "\u041d\u0412\u0418", "name": "Navoi ", "shortName": "Navoi", "municipalityName": "Navoi", "location": {"lat": 40.1172, "lon": 65.1708}, "countryCode": "UZ"}, "averageDailyFlights": 0.57, "operators": [{"name": "Star Air A/S", "iata": "DJ", "icao": "SRR"}]}, {"destination": {"icao": "LIRP", "iata": "PSA", "name": "Pisa ", "shortName": "Pisa", "municipalityName": "Pisa", "location": {"lat": 43.6839, "lon": 10.3927}, "countryCode": "IT"}, "averageDailyFlights": 0.57, "operators": [{"name": "Ryanair", "iata": "FR", "icao": "RYR"}]}, {"destination": {"icao": "EPPO", "iata": "POZ", "name": "Pozna\u0144 -\u0141awica", "shortName": "-\u0141awica", "municipalityName": "Pozna\u0144", "location": {"lat": 52.421, "lon": 16.8263}, "countryCode": "PL"}, "averageDailyFlights": 0.57, "operators": [{"name": "Ryanair", "iata": "FR", "icao": "RYR"}]}, {"destination": {"icao": "BIKF", "iata": "KEF", "name": "Reykjavik Keflavik", "shortName": "Keflavik", "municipalityName": "Reykjavik", "location": {"lat": 63.985, "lon": -22.6056}, "countryCode": "IS"}, "averageDailyFlights": 0.57, "operators": [{"name": "Icelandair", "iata": "FI", "icao": "ICE"}, {"name": "Bluebird Nordic", "iata": "BO", "icao": "BBD"}]}, {"destination": {"icao": "GCTS", "iata": "TFS", "name": "Tenerife Island Tenerife South", "shortName": "Tenerife South", "municipalityName": "Tenerife Island", "location": {"lat": 28.0445, "lon": -16.5725}, "countryCode": "ES"}, "averageDailyFlights": 0.57, "operators": [{"name": "Atlantic Airways", "iata": "RC", "icao": "FLI"}, {"name": "JTD"}, {"name": "Sunclass Airlines", "iata": "DK", "icao": "VKG"}]}, {"destination": {"icao": "LIEA", "iata": "AHO", "name": "Alghero -Fertilia", "shortName": "-Fertilia", "municipalityName": "Alghero", "location": {"lat": 40.6321, "lon": 8.290769}, "countryCode": "IT"}, "averageDailyFlights": 0.43, "operators": [{"name": "Ryanair", "iata": "FR", "icao": "RYR"}]}, {"destination": {"icao": "LIBD", "iata": "BRI", "name": "Bari Karol Wojty\u0142a", "shortName": "Karol Wojty\u0142a", "municipalityName": "Bari", "location": {"lat": 41.1389, "lon": 16.7606}, "countryCode": "IT"}, "averageDailyFlights": 0.43, "operators": [{"name": "Ryanair", "iata": "FR", "icao": "RYR"}]}, {"destination": {"icao": "LIPE", "iata": "BLQ", "name": "Bologna Guglielmo Marconi", "shortName": "Guglielmo Marconi", "municipalityName": "Bologna", "location": {"lat": 44.5354, "lon": 11.2887}, "countryCode": "IT"}, "averageDailyFlights": 0.43, "operators": [{"name": "Ryanair", "iata": "FR", "icao": "RYR"}]}, {"destination": {"icao": "ESGG", "iata": "GOT", "name": "Goteborg Gothenburg-Landvetter", "shortName": "Gothenburg-Landvetter", "municipalityName": "Goteborg", "location": {"lat": 57.6628, "lon": 12.2798}, "countryCode": "SE"}, "averageDailyFlights": 0.43, "operators": [{"name": "British Airways", "iata": "BA", "icao": "BAW"}, {"name": "Sun-Air", "iata": "EZ", "icao": "SUS"}]}, {"destination": {"icao": "LRIA", "iata": "IAS", "name": "Ia\u015fi ", "shortName": "Ia\u015fi", "municipalityName": "Ia\u015fi", "location": {"lat": 47.1785, "lon": 27.6206}, "countryCode": "RO"}, "averageDailyFlights": 0.43, "operators": [{"name": "Wizz Air Malta", "iata": "W4", "icao": "WMT"}]}, {"destination": {"icao": "EDDP", "iata": "LEJ", "name": "Leipzig Halle", "shortName": "Halle", "municipalityName": "Leipzig", "location": {"lat": 51.4324, "lon": 12.2416}, "countryCode": "DE"}, "averageDailyFlights": 0.43, "operators": [{"name": "EAT Leipzig", "iata": "QY", "icao": "BCS"}]}, {"destination": {"icao": "LMML", "iata": "MLA", "name": "Luqa Malta", "shortName": "Malta", "municipalityName": "Luqa", "location": {"lat": 35.8575, "lon": 14.4775}, "countryCode": "MT"}, "averageDailyFlights": 0.43, "operators": [{"name": "Ryanair", "iata": "FR", "icao": "RYR"}]}, {"destination": {"icao": "LEZL", "iata": "SVQ", "name": "Seville Sevilla", "shortName": "Sevilla", "municipalityName": "Seville", "location": {"lat": 37.418, "lon": -5.893109}, "countryCode": "ES"}, "averageDailyFlights": 0.43, "operators": [{"name": "Ryanair", "iata": "FR", "icao": "RYR"}]}, {"destination": {"icao": "LOWW", "iata": "VIE", "name": "Vienna Schwechat", "shortName": "Schwechat", "municipalityName": "Vienna", "location": {"lat": 48.1103, "lon": 16.5697}, "countryCode": "AT"}, "averageDailyFlights": 0.43, "operators": [{"name": "Ryanair", "iata": "FR", "icao": "RYR"}]}, {"destination": {"icao": "EPWR", "iata": "WRO", "name": "Wroc\u0142aw Copernicus", "shortName": "Copernicus", "municipalityName": "Wroc\u0142aw", "location": {"lat": 51.1027, "lon": 16.8858}, "countryCode": "PL"}, "averageDailyFlights": 0.43, "operators": [{"name": "Ryanair", "iata": "FR", "icao": "RYR"}]}, {"destination": {"icao": "ESSA", "iata": "ARN", "name": "Stockholm -Arlanda", "shortName": "-Arlanda", "municipalityName": "Stockholm", "location": {"lat": 59.6519, "lon": 17.9186}, "countryCode": "SE"}, "averageDailyFlights": 0.31, "operators": [{"name": "Sunclass Airlines", "iata": "DK", "icao": "VKG"}, {"name": "SAS", "iata": "SK", "icao": "SAS"}]}, {"destination": {"icao": "LEAL", "iata": "ALC", "name": "Alicante ", "shortName": "Alicante", "municipalityName": "Alicante", "location": {"lat": 38.2822, "lon": -0.558156}, "countryCode": "ES"}, "averageDailyFlights": 0.29, "operators": [{"name": "Ryanair", "iata": "FR", "icao": "RYR"}]}, {"destination": {"icao": "EIDW", "iata": "DUB", "name": "Dublin ", "shortName": "Dublin", "municipalityName": "Dublin", "location": {"lat": 53.4213, "lon": -6.27007}, "countryCode": "IE"}, "averageDailyFlights": 0.29, "operators": [{"name": "Ryanair", "iata": "FR", "icao": "RYR"}]}, {"destination": {"icao": "EDDL", "iata": "DUS", "name": "Duesseldorf D\u00fcsseldorf", "shortName": "D\u00fcsseldorf", "municipalityName": "Duesseldorf", "location": {"lat": 51.2895, "lon": 6.766779}, "countryCode": "DE"}, "averageDailyFlights": 0.29, "operators": [{"name": "British Airways", "iata": "BA", "icao": "BAW"}, {"name": "Sun-Air", "iata": "EZ", "icao": "SUS"}]}, {"destination": {"icao": "GCFV", "iata": "FUE", "name": "Fuerteventura Island Fuerteventura", "shortName": "Fuerteventura", "municipalityName": "Fuerteventura Island", "location": {"lat": 28.4527, "lon": -13.8638}, "countryCode": "ES"}, "averageDailyFlights": 0.29, "operators": [{"name": "JTD"}, {"name": "Atlantic Airways", "iata": "RC", "icao": "FLI"}]}, {"destination": {"icao": "LEMD", "iata": "MAD", "name": "Madrid Adolfo Su\u00e1rez \u2013Barajas", "shortName": "Adolfo Su\u00e1rez \u2013Barajas", "municipalityName": "Madrid", "location": {"lat": 40.4936, "lon": -3.56676}, "countryCode": "ES"}, "averageDailyFlights": 0.29, "operators": [{"name": "Ryanair", "iata": "FR", "icao": "RYR"}]}, {"destination": {"icao": "LPPR", "iata": "OPO", "name": "Porto Francisco de S\u00e1 Carneiro", "shortName": "Francisco de S\u00e1 Carneiro", "municipalityName": "Porto", "location": {"lat": 41.2481, "lon": -8.681389}, "countryCode": "PT"}, "averageDailyFlights": 0.29, "operators": [{"name": "Ryanair", "iata": "FR", "icao": "RYR"}]}, {"destination": {"icao": "EETN", "iata": "TLL", "localCode": "TLL", "name": "Tallinn Lennart Meri", "shortName": "Lennart Meri", "municipalityName": "Tallinn", "location": {"lat": 59.4133, "lon": 24.8328}, "countryCode": "EE"}, "averageDailyFlights": 0.29, "operators": [{"name": "Ryanair", "iata": "FR", "icao": "RYR"}]}, {"destination": {"icao": "LICT", "iata": "TPS", "name": "Trapani Vincenzo Florio  -Birgi", "shortName": "Vincenzo Florio  -Birgi", "municipalityName": "Trapani", "location": {"lat": 37.9114, "lon": 12.487999}, "countryCode": "IT"}, "averageDailyFlights": 0.29, "operators": [{"name": "Ryanair", "iata": "FR", "icao": "RYR"}]}, {"destination": {"icao": "LIPH", "iata": "TSF", "name": "Treviso -Sant'Angelo", "shortName": "-Sant'Angelo", "municipalityName": "Treviso", "location": {"lat": 45.6484, "lon": 12.194399}, "countryCode": "IT"}, "averageDailyFlights": 0.29, "operators": [{"name": "Ryanair", "iata": "FR", "icao": "RYR"}]}, {"destination": {"icao": "LEVC", "iata": "VLC", "name": "Valencia ", "shortName": "Valencia", "municipalityName": "Valencia", "location": {"lat": 39.4893, "lon": -0.481624}, "countryCode": "ES"}, "averageDailyFlights": 0.29, "operators": [{"name": "Ryanair", "iata": "FR", "icao": "RYR"}]}, {"destination": {"icao": "EYVI", "iata": "VNO", "localCode": "\u0412\u0418\u041b", "name": "Vilnius ", "shortName": "Vilnius", "municipalityName": "Vilnius", "location": {"lat": 54.6341, "lon": 25.2858}, "countryCode": "LT"}, "averageDailyFlights": 0.29, "operators": [{"name": "Ryanair", "iata": "FR", "icao": "RYR"}]}, {"destination": {"icao": "EGBB", "iata": "BHX", "name": "Birmingham ", "shortName": "Birmingham", "municipalityName": "Birmingham", "location": {"lat": 52.4539, "lon": -1.748029}, "countryCode": "GB"}, "averageDailyFlights": 0.14, "operators": [{"name": "Star Air A/S", "iata": "DJ", "icao": "SRR"}]}, {"destination": {"icao": "EKCH", "iata": "CPH", "name": "Copenhagen Kastrup", "shortName": "Kastrup", "municipalityName": "Copenhagen", "location": {"lat": 55.6179, "lon": 12.656}, "countryCode": "DK"}, "averageDailyFlights": 0.14, "operators": [{"name": "Sunclass Airlines", "iata": "DK", "icao": "VKG"}]}, {"destination": {"icao": "LPFR", "iata": "FAO", "name": "Faro ", "shortName": "Faro", "municipalityName": "Faro", "location": {"lat": 37.0144, "lon": -7.965909}, "countryCode": "PT"}, "averageDailyFlights": 0.14, "operators": [{"name": "JTD"}]}, {"destination": {"icao": "HEGN", "iata": "HRG", "name": "Hurghada ", "shortName": "Hurghada", "municipalityName": "Hurghada", "location": {"lat": 27.1783, "lon": 33.7994}, "countryCode": "EG"}, "averageDailyFlights": 0.14, "operators": [{"name": "JTD"}]}, {"destination": {"icao": "LEJR", "iata": "XRY", "name": "Jerez de la Forntera Jerez", "shortName": "Jerez", "municipalityName": "Jerez de la Forntera", "location": {"lat": 36.7446, "lon": -6.06011}, "countryCode": "ES"}, "averageDailyFlights": 0.14, "operators": [{"name": "CAT"}]}, {"destination": {"icao": "BGSF", "iata": "SFJ", "name": "Kangerlussuaq ", "shortName": "Kangerlussuaq", "municipalityName": "Kangerlussuaq", "location": {"lat": 67.01222, "lon": -50.7116}, "countryCode": "GL"}, "averageDailyFlights": 0.14, "operators": [{"name": "Air Greenland", "iata": "GL", "icao": "GRL"}]}, {"destination": {"icao": "GCRR", "iata": "ACE", "name": "Lanzarote Island Lanzarote", "shortName": "Lanzarote", "municipalityName": "Lanzarote Island", "location": {"lat": 28.9455, "lon": -13.605199}, "countryCode": "ES"}, "averageDailyFlights": 0.14, "operators": [{"name": "JTD"}]}, {"destination": {"icao": "GCLA", "iata": "SPC", "name": "Sta Cruz de la Palma, La Palma Island La Palma", "shortName": "La Palma", "municipalityName": "Sta Cruz de la Palma, La Palma Island", "location": {"lat": 28.6265, "lon": -17.755598}, "countryCode": "ES"}, "averageDailyFlights": 0.14, "operators": [{"name": "JTD"}]}, {"destination": {"icao": "LPPS", "iata": "PXO", "name": "Vila Baleira Porto Santo", "shortName": "Porto Santo", "municipalityName": "Vila Baleira", "location": {"lat": 33.0734, "lon": -16.35}, "countryCode": "PT"}, "averageDailyFlights": 0.14, "operators": [{"name": "CAT"}]}, {"destination": {"icao": "LSZH", "iata": "ZRH", "name": "Zurich Kloten", "shortName": "Kloten", "municipalityName": "Zurich", "location": {"lat": 47.4647, "lon": 8.549169}, "countryCode": "CH"}, "averageDailyFlights": 0.14, "operators": [{"name": "Air Alsie", "iata": "6I", "icao": "MMD"}]}, {"destination": {"name": "Bucharest"}, "averageDailyFlights": 0.14, "operators": [{"name": "Wizz Air Malta", "iata": "W4", "icao": "WMT"}]}, {"destination": {"name": "Gda\u0144sk"}, "averageDailyFlights": 0.14, "operators": [{"name": "Ryanair", "iata": "FR", "icao": "RYR"}]}]}