{"routes": [{"destination": {"icao": "ENTC", "iata": "TOS", "name": "Troms\u00f8 ", "shortName": "Troms\u00f8", "municipalityName": "Troms\u00f8", "location": {"lat": 69.6833, "lon": 18.9189}, "countryCode": "NO"}, "averageDailyFlights": 4.71, "operators": [{"name": "Wideroe", "iata": "WF", "icao": "WIF"}, {"name": "Norwegian Air Shuttle", "iata": "DY", "icao": "NOZ"}, {"name": "SAS", "iata": "SK", "icao": "SAS"}]}, {"destination": {"icao": "ENGM", "iata": "OSL", "name": "Oslo Gardermoen", "shortName": "Gardermoen", "municipalityName": "Oslo", "location": {"lat": 60.1939, "lon": 11.100399}, "countryCode": "NO"}, "averageDailyFlights": 2.29, "operators": [{"name": "Norwegian Air Shuttle", "iata": "DY", "icao": "NOZ"}, {"name": "SAS", "iata": "SK", "icao": "SAS"}]}, {"destination": {"icao": "ENVD", "iata": "VDS", "name": "Vads\u00f8 ", "shortName": "Vads\u00f8", "municipalityName": "Vads\u00f8", "location": {"lat": 70.0653, "lon": 29.8447}, "countryCode": "NO"}, "averageDailyFlights": 1.0, "operators": [{"name": "Wideroe", "iata": "WF", "icao": "WIF"}]}, {"destination": {"icao": "ENHF", "iata": "HFT", "name": "Hammerfest ", "shortName": "Hammerfest", "municipalityName": "Hammerfest", "location": {"lat": 70.6797, "lon": 23.6686}, "countryCode": "NO"}, "averageDailyFlights": 0.71, "operators": [{"name": "Wideroe", "iata": "WF", "icao": "WIF"}]}, {"destination": {"icao": "ENBS", "iata": "BJF", "name": "B\u00e5tsfjord ", "shortName": "B\u00e5tsfjord", "municipalityName": "B\u00e5tsfjord", "location": {"lat": 70.6005, "lon": 29.6914}, "countryCode": "NO"}, "averageDailyFlights": 0.57, "operators": [{"name": "Wideroe", "iata": "WF", "icao": "WIF"}]}]}