{"routes": [{"destination": {"icao": "ENGM", "iata": "OSL", "name": "Oslo Gardermoen", "shortName": "Gardermoen", "municipalityName": "Oslo", "location": {"lat": 60.1939, "lon": 11.100399}, "countryCode": "NO"}, "averageDailyFlights": 11.86, "operators": [{"name": "SAS", "iata": "SK", "icao": "SAS"}, {"name": "Norwegian Air Shuttle", "iata": "DY", "icao": "NOZ"}]}, {"destination": {"icao": "ENHF", "iata": "HFT", "name": "Hammerfest ", "shortName": "Hammerfest", "municipalityName": "Hammerfest", "location": {"lat": 70.6797, "lon": 23.6686}, "countryCode": "NO"}, "averageDailyFlights": 7.29, "operators": [{"name": "Wideroe", "iata": "WF", "icao": "WIF"}]}, {"destination": {"icao": "ENAT", "iata": "ALF", "name": "Alta ", "shortName": "Alta", "municipalityName": "Alta", "location": {"lat": 69.9761, "lon": 23.3717}, "countryCode": "NO"}, "averageDailyFlights": 5.14, "operators": [{"name": "Wideroe", "iata": "WF", "icao": "WIF"}, {"name": "Norwegian Air Shuttle", "iata": "DY", "icao": "NOZ"}, {"name": "SAS", "iata": "SK", "icao": "SAS"}]}, {"destination": {"icao": "ENBO", "iata": "BOO", "name": "Bod\u00f8 ", "shortName": "Bod\u00f8", "municipalityName": "Bod\u00f8", "location": {"lat": 67.2692, "lon": 14.3653}, "countryCode": "NO"}, "averageDailyFlights": 5.0, "operators": [{"name": "Wideroe", "iata": "WF", "icao": "WIF"}, {"name": "SAS", "iata": "SK", "icao": "SAS"}]}, {"destination": {"icao": "ENBR", "iata": "BGO", "name": "Bergen Flesland", "shortName": "Flesland", "municipalityName": "Bergen", "location": {"lat": 60.2934, "lon": 5.21814}, "countryCode": "NO"}, "averageDailyFlights": 3.0, "operators": [{"name": "Wideroe", "iata": "WF", "icao": "WIF"}]}, {"destination": {"icao": "ENNA", "iata": "LKL", "name": "Lakselv Banak", "shortName": "Banak", "municipalityName": "Lakselv", "location": {"lat": 70.0688, "lon": 24.9735}, "countryCode": "NO"}, "averageDailyFlights": 2.86, "operators": [{"name": "Danish Air", "iata": "DX", "icao": "DTR"}, {"name": "Wideroe", "iata": "WF", "icao": "WIF"}]}, {"destination": {"icao": "ENAN", "iata": "ANX", "name": "Andenes And\u00f8ya", "shortName": "And\u00f8ya", "municipalityName": "Andenes", "location": {"lat": 69.2925, "lon": 16.1442}, "countryCode": "NO"}, "averageDailyFlights": 2.0, "operators": [{"name": "Wideroe", "iata": "WF", "icao": "WIF"}]}, {"destination": {"icao": "ENSK", "iata": "SKN", "name": "Hadsel Stokmarknes Skagen", "shortName": "Stokmarknes Skagen", "municipalityName": "Hadsel", "location": {"lat": 68.57883, "lon": 15.033416}, "countryCode": "NO"}, "averageDailyFlights": 1.86, "operators": [{"name": "Wideroe", "iata": "WF", "icao": "WIF"}]}, {"destination": {"icao": "ENKR", "iata": "KKN", "name": "Kirkenes H\u00f8ybuktmoen", "shortName": "H\u00f8ybuktmoen", "municipalityName": "Kirkenes", "location": {"lat": 69.7258, "lon": 29.8913}, "countryCode": "NO"}, "averageDailyFlights": 1.86, "operators": [{"name": "Wideroe", "iata": "WF", "icao": "WIF"}]}, {"destination": {"icao": "ENSR", "iata": "SOJ", "name": "S\u00f8rkjosen ", "shortName": "S\u00f8rkjosen", "municipalityName": "S\u00f8rkjosen", "location": {"lat": 69.7868, "lon": 20.9594}, "countryCode": "NO"}, "averageDailyFlights": 1.86, "operators": [{"name": "Wideroe", "iata": "WF", "icao": "WIF"}]}, {"destination": {"icao": "ENVA", "iata": "TRD", "name": "Trondheim V\u00e6rnes", "shortName": "V\u00e6rnes", "municipalityName": "Trondheim", "location": {"lat": 63.4578, "lon": 10.923999}, "countryCode": "NO"}, "averageDailyFlights": 1.71, "operators": [{"name": "Wideroe", "iata": "WF", "icao": "WIF"}]}, {"destination": {"icao": "EFHK", "iata": "HEL", "name": "Helsinki Vantaa", "shortName": "Vantaa", "municipalityName": "Helsinki", "location": {"lat": 60.3172, "lon": 24.9633}, "countryCode": "FI"}, "averageDailyFlights": 1.43, "operators": [{"name": "Finnair", "iata": "AY", "icao": "FIN"}]}, {"destination": {"icao": "ENSB", "iata": "LYR", "name": "Longyearbyen Longyear", "shortName": "Longyear", "municipalityName": "Longyearbyen", "location": {"lat": 78.2461, "lon": 15.4656}, "countryCode": "NO"}, "averageDailyFlights": 1.43, "operators": [{"name": "Sprint Air", "iata": "P8", "icao": "SRN"}, {"name": "Norwegian Air Shuttle", "iata": "DY", "icao": "NOZ"}, {"name": "SAS", "iata": "SK", "icao": "SAS"}]}, {"destination": {"icao": "ENEV", "iata": "EVE", "name": "Evenes ", "shortName": "Evenes", "municipalityName": "Evenes", "location": {"lat": 68.4913, "lon": 16.6781}, "countryCode": "NO"}, "averageDailyFlights": 0.86, "operators": [{"name": "Wideroe", "iata": "WF", "icao": "WIF"}]}, {"destination": {"icao": "EKCH", "iata": "CPH", "name": "Copenhagen Kastrup", "shortName": "Kastrup", "municipalityName": "Copenhagen", "location": {"lat": 55.6179, "lon": 12.656}, "countryCode": "DK"}, "averageDailyFlights": 0.57, "operators": [{"name": "SAS", "iata": "SK", "icao": "SAS"}, {"name": "Norwegian Air Sweden", "iata": "D8", "icao": "NSZ"}]}, {"destination": {"icao": "ENHK", "iata": "HAA", "name": "Hasvik ", "shortName": "Hasvik", "municipalityName": "Hasvik", "location": {"lat": 70.4867, "lon": 22.1397}, "countryCode": "NO"}, "averageDailyFlights": 0.57, "operators": [{"name": "Wideroe", "iata": "WF", "icao": "WIF"}]}, {"destination": {"icao": "LFPG", "iata": "CDG", "name": "Paris Charles de Gaulle", "shortName": "Charles de Gaulle", "municipalityName": "Paris", "location": {"lat": 49.0128, "lon": 2.549999}, "countryCode": "FR"}, "averageDailyFlights": 0.43, "operators": [{"name": "ASL Airlines France", "iata": "5O", "icao": "FPO"}, {"name": "Norwegian Air Shuttle", "iata": "DY", "icao": "NOZ"}, {"name": "Air France", "iata": "AF", "icao": "AFR"}]}, {"destination": {"icao": "EDDL", "iata": "DUS", "name": "Duesseldorf D\u00fcsseldorf", "shortName": "D\u00fcsseldorf", "municipalityName": "Duesseldorf", "location": {"lat": 51.2895, "lon": 6.766779}, "countryCode": "DE"}, "averageDailyFlights": 0.29, "operators": [{"name": "Eurowings", "iata": "EW", "icao": "EWG"}]}, {"destination": {"icao": "EDDF", "iata": "FRA", "name": "Frankfurt-am-Main ", "shortName": "Frankfurt-am-Main", "municipalityName": "Frankfurt-am-Main", "location": {"lat": 50.0264, "lon": 8.543129}, "countryCode": "DE"}, "averageDailyFlights": 0.29, "operators": [{"name": "Lufthansa", "iata": "LH", "icao": "DLH"}]}, {"destination": {"icao": "EPGD", "iata": "GDN", "name": "Gda\u0144sk Lech Wa\u0142\u0119sa", "shortName": "Lech Wa\u0142\u0119sa", "municipalityName": "Gda\u0144sk", "location": {"lat": 54.3776, "lon": 18.4662}, "countryCode": "PL"}, "averageDailyFlights": 0.29, "operators": [{"name": "Wizz Air", "iata": "W6", "icao": "WZZ"}]}, {"destination": {"icao": "ENHV", "iata": "HVG", "name": "Honningsv\u00e5g Valan", "shortName": "Valan", "municipalityName": "Honningsv\u00e5g", "location": {"lat": 71.0097, "lon": 25.9836}, "countryCode": "NO"}, "averageDailyFlights": 0.29, "operators": [{"name": "Wideroe", "iata": "WF", "icao": "WIF"}]}, {"destination": {"icao": "ESSA", "iata": "ARN", "name": "Stockholm -Arlanda", "shortName": "-Arlanda", "municipalityName": "Stockholm", "location": {"lat": 59.6519, "lon": 17.9186}, "countryCode": "SE"}, "averageDailyFlights": 0.29, "operators": [{"name": "SAS", "iata": "SK", "icao": "SAS"}]}, {"destination": {"icao": "EHAM", "iata": "AMS", "name": "Amsterdam Schiphol", "shortName": "Schiphol", "municipalityName": "Amsterdam", "location": {"lat": 52.3086, "lon": 4.763889}, "countryCode": "NL"}, "averageDailyFlights": 0.14, "operators": [{"name": "Transavia", "iata": "HV", "icao": "TRA"}]}, {"destination": {"icao": "LIME", "iata": "BGY", "name": "Bergamo Orio al Serio", "shortName": "Orio al Serio", "municipalityName": "Bergamo", "location": {"lat": 45.6739, "lon": 9.70417}, "countryCode": "IT"}, "averageDailyFlights": 0.14, "operators": [{"name": "Norwegian Air Shuttle", "iata": "DY", "icao": "NOZ"}]}, {"destination": {"icao": "EDDB", "iata": "BER", "name": "Berlin Brandenburg", "shortName": "Brandenburg", "municipalityName": "Berlin", "location": {"lat": 52.35139, "lon": 13.493889}, "countryCode": "DE"}, "averageDailyFlights": 0.14, "operators": [{"name": "Norwegian Air Shuttle", "iata": "DY", "icao": "NOZ"}]}]}