{"routes": [{"destination": {"icao": "FAOR", "iata": "JNB", "name": "Jo'anna OR Tambo", "shortName": "OR Tambo", "municipalityName": "Jo'anna", "location": {"lat": -26.1392, "lon": 28.246}, "countryCode": "ZA"}, "averageDailyFlights": 21.71, "operators": [{"name": "South African Airlink", "iata": "4Z", "icao": "LNK"}, {"name": "South African Airways", "iata": "SA", "icao": "SAA"}, {"name": "CemAir", "iata": "5Z", "icao": "KEM"}, {"name": "Singapore Airlines", "iata": "SQ", "icao": "SIA"}]}, {"destination": {"icao": "FALE", "iata": "DUR", "name": "Durban King Shaka", "shortName": "King Shaka", "municipalityName": "Durban", "location": {"lat": -29.614445, "lon": 31.119722}, "countryCode": "ZA"}, "averageDailyFlights": 10.86, "operators": [{"name": "CemAir", "iata": "5Z", "icao": "KEM"}, {"name": "Safair", "iata": "FA", "icao": "SFR"}]}, {"destination": {"icao": "FALA", "iata": "HLA", "name": "Jo'anna Lanseria", "shortName": "Lanseria", "municipalityName": "Jo'anna", "location": {"lat": -25.9385, "lon": 27.9261}, "countryCode": "ZA"}, "averageDailyFlights": 8.29, "operators": [{"name": "Safair", "iata": "FA", "icao": "SFR"}]}, {"destination": {"icao": "FAPE", "iata": "PLZ", "name": "Port Elizabeth ", "shortName": "Port Elizabeth", "municipalityName": "Port Elizabeth", "location": {"lat": -33.9849, "lon": 25.6173}, "countryCode": "ZA"}, "averageDailyFlights": 4.86, "operators": [{"name": "South African Airlink", "iata": "4Z", "icao": "LNK"}, {"name": "Safair", "iata": "FA", "icao": "SFR"}]}, {"destination": {"icao": "FABL", "iata": "BFN", "name": "Bloemfontain Bram Fischer", "shortName": "Bram Fischer", "municipalityName": "Bloemfontain", "location": {"lat": -29.0927, "lon": 26.3024}, "countryCode": "ZA"}, "averageDailyFlights": 3.71, "operators": [{"name": "South African Airlink", "iata": "4Z", "icao": "LNK"}, {"name": "Safair", "iata": "FA", "icao": "SFR"}]}, {"destination": {"icao": "FAGG", "iata": "GRJ", "name": "George ", "shortName": "George", "municipalityName": "George", "location": {"lat": -34.0056, "lon": 22.3789}, "countryCode": "ZA"}, "averageDailyFlights": 3.57, "operators": [{"name": "South African Airlink", "iata": "4Z", "icao": "LNK"}, {"name": "Safair", "iata": "FA", "icao": "SFR"}]}, {"destination": {"icao": "FAEL", "iata": "ELS", "name": "East London Ben Schoeman", "shortName": "Ben Schoeman", "municipalityName": "East London", "location": {"lat": -33.0356, "lon": 27.8259}, "countryCode": "ZA"}, "averageDailyFlights": 3.0, "operators": [{"name": "Safair", "iata": "FA", "icao": "SFR"}, {"name": "CemAir", "iata": "5Z", "icao": "KEM"}]}, {"destination": {"icao": "FYWH", "iata": "WDH", "name": "Windhoek Hosea Kutako", "shortName": "Hosea Kutako", "municipalityName": "Windhoek", "location": {"lat": -22.4799, "lon": 17.4709}, "countryCode": "NA"}, "averageDailyFlights": 3.0, "operators": [{"name": "South African Airlink", "iata": "4Z", "icao": "LNK"}]}, {"destination": {"icao": "FAKM", "iata": "KIM", "name": "Kimberley ", "shortName": "Kimberley", "municipalityName": "Kimberley", "location": {"lat": -28.8028, "lon": 24.7652}, "countryCode": "ZA"}, "averageDailyFlights": 2.57, "operators": [{"name": "South African Airlink", "iata": "4Z", "icao": "LNK"}, {"name": "CemAir", "iata": "5Z", "icao": "KEM"}]}, {"destination": {"icao": "OMDB", "iata": "DXB", "name": "Dubai ", "shortName": "Dubai", "municipalityName": "Dubai", "location": {"lat": 25.252798, "lon": 55.3644}, "countryCode": "AE"}, "averageDailyFlights": 2.29, "operators": [{"name": "Emirates", "iata": "EK", "icao": "UAE"}]}, {"destination": {"icao": "FAHS", "iata": "HDS", "name": "Hoedspruit Air Force Base", "shortName": "Air Force Base", "municipalityName": "Hoedspruit", "location": {"lat": -24.3686, "lon": 31.0487}, "countryCode": "ZA"}, "averageDailyFlights": 2.29, "operators": [{"name": "CemAir", "iata": "5Z", "icao": "KEM"}, {"name": "South African Airlink", "iata": "4Z", "icao": "LNK"}]}, {"destination": {"icao": "FAKN", "iata": "MQP", "name": "Mpumalanga Kruger", "shortName": "Kruger", "municipalityName": "Mpumalanga", "location": {"lat": -25.3832, "lon": 31.1056}, "countryCode": "ZA"}, "averageDailyFlights": 2.29, "operators": [{"name": "South African Airlink", "iata": "4Z", "icao": "LNK"}, {"name": "Safair", "iata": "FA", "icao": "SFR"}]}, {"destination": {"name": "Plettenberg"}, "averageDailyFlights": 2.14, "operators": [{"name": "CemAir", "iata": "5Z", "icao": "KEM"}]}, {"destination": {"icao": "FYWB", "iata": "WVB", "name": "Walvis Bay ", "shortName": "Walvis Bay", "municipalityName": "Walvis Bay", "location": {"lat": -22.9799, "lon": 14.645299}, "countryCode": "NA"}, "averageDailyFlights": 2.0, "operators": [{"name": "South African Airlink", "iata": "4Z", "icao": "LNK"}]}, {"destination": {"icao": "HAAB", "iata": "ADD", "name": "Addis Ababa Bole", "shortName": "Bole", "municipalityName": "Addis Ababa", "location": {"lat": 8.97789, "lon": 38.7993}, "countryCode": "ET"}, "averageDailyFlights": 1.86, "operators": [{"name": "Ethiopian Airlines", "iata": "ET", "icao": "ETH"}]}, {"destination": {"icao": "FVHA", "iata": "HRE", "name": "Harare ", "shortName": "Harare", "municipalityName": "Harare", "location": {"lat": -17.9318, "lon": 31.0928}, "countryCode": "ZW"}, "averageDailyFlights": 1.71, "operators": [{"name": "South African Airlink", "iata": "4Z", "icao": "LNK"}, {"name": "RwandAir", "iata": "WB", "icao": "RWD"}]}, {"destination": {"icao": "OTHH", "iata": "DOH", "name": "Doha Hamad", "shortName": "Hamad", "municipalityName": "Doha", "location": {"lat": 25.273056, "lon": 51.608055}, "countryCode": "QA"}, "averageDailyFlights": 1.57, "operators": [{"name": "Qatar Airways", "iata": "QR", "icao": "QTR"}]}, {"destination": {"icao": "FVFA", "iata": "VFA", "name": "Victoria Falls ", "shortName": "Victoria Falls", "municipalityName": "Victoria Falls", "location": {"lat": -18.0959, "lon": 25.839}, "countryCode": "ZW"}, "averageDailyFlights": 1.43, "operators": [{"name": "South African Airlink", "iata": "4Z", "icao": "LNK"}, {"name": "Kenya Airways", "iata": "KQ", "icao": "KQA"}]}, {"destination": {"icao": "FBMN", "iata": "MUB", "name": "Maun ", "shortName": "Maun", "municipalityName": "Maun", "location": {"lat": -19.9726, "lon": 23.4311}, "countryCode": "BW"}, "averageDailyFlights": 1.32, "operators": [{"name": "South African Airlink", "iata": "4Z", "icao": "LNK"}, {"name": "Condor", "iata": "DE", "icao": "CFG"}]}, {"destination": {"icao": "EHAM", "iata": "AMS", "name": "Amsterdam Schiphol", "shortName": "Schiphol", "municipalityName": "Amsterdam", "location": {"lat": 52.3086, "lon": 4.763889}, "countryCode": "NL"}, "averageDailyFlights": 1.29, "operators": [{"name": "KLM", "iata": "KL", "icao": "KLM"}]}, {"destination": {"icao": "LTFM", "iata": "IST", "name": "Istanbul ", "shortName": "Istanbul", "municipalityName": "Istanbul", "location": {"lat": 41.275276, "lon": 28.751944}, "countryCode": "TR"}, "averageDailyFlights": 1.14, "operators": [{"name": "Turkish Airlines", "iata": "TK", "icao": "THY"}]}, {"destination": {"icao": "EGLL", "iata": "LHR", "name": "London Heathrow", "shortName": "Heathrow", "municipalityName": "London", "location": {"lat": 51.4706, "lon": -0.461941}, "countryCode": "GB"}, "averageDailyFlights": 1.14, "operators": [{"name": "British Airways", "iata": "BA", "icao": "BAW"}]}, {"destination": {"icao": "FNLU", "iata": "LAD", "name": "Luanda Quatro de Fevereiro", "shortName": "Quatro de Fevereiro", "municipalityName": "Luanda", "location": {"lat": -8.858369, "lon": 13.2312}, "countryCode": "AO"}, "averageDailyFlights": 1.14, "operators": [{"name": "TAAG", "iata": "DT", "icao": "DTA"}]}, {"destination": {"icao": "FQMA", "iata": "MPM", "name": "Maputo ", "shortName": "Maputo", "municipalityName": "Maputo", "location": {"lat": -25.9208, "lon": 32.5726}, "countryCode": "MZ"}, "averageDailyFlights": 1.14, "operators": [{"name": "South African Airlink", "iata": "4Z", "icao": "LNK"}, {"name": "LAM", "iata": "TM", "icao": "LAM"}]}, {"destination": {"icao": "FASZ", "iata": "SZK", "name": "Skukuza ", "shortName": "Skukuza", "municipalityName": "Skukuza", "location": {"lat": -24.9609, "lon": 31.5887}, "countryCode": "ZA"}, "averageDailyFlights": 1.14, "operators": [{"name": "South African Airlink", "iata": "4Z", "icao": "LNK"}]}, {"destination": {"icao": "EDDF", "iata": "FRA", "name": "Frankfurt-am-Main ", "shortName": "Frankfurt-am-Main", "municipalityName": "Frankfurt-am-Main", "location": {"lat": 50.0264, "lon": 8.543129}, "countryCode": "DE"}, "averageDailyFlights": 0.86, "operators": [{"name": "Lufthansa", "iata": "LH", "icao": "DLH"}]}, {"destination": {"icao": "EDDM", "iata": "MUC", "name": "Munich ", "shortName": "Munich", "municipalityName": "Munich", "location": {"lat": 48.3538, "lon": 11.7861}, "countryCode": "DE"}, "averageDailyFlights": 0.86, "operators": [{"name": "Lufthansa", "iata": "LH", "icao": "DLH"}]}, {"destination": {"icao": "KATL", "iata": "ATL", "name": "Atlanta Hartsfield Jackson", "shortName": "Hartsfield Jackson", "municipalityName": "Atlanta", "location": {"lat": 33.6367, "lon": -84.4281}, "countryCode": "US"}, "averageDailyFlights": 0.71, "operators": [{"name": "Delta Air Lines", "iata": "DL", "icao": "DAL"}]}, {"destination": {"icao": "FLLS", "iata": "LUN", "name": "Lusaka ", "shortName": "Lusaka", "municipalityName": "Lusaka", "location": {"lat": -15.3308, "lon": 28.4526}, "countryCode": "ZM"}, "averageDailyFlights": 0.71, "operators": [{"name": "Proflight Zambia", "iata": "P0", "icao": "PFZ"}]}, {"destination": {"icao": "FAUP", "iata": "UTN", "name": "Upington Pierre Van Ryneveld", "shortName": "Pierre Van Ryneveld", "municipalityName": "Upington", "location": {"lat": -28.3991, "lon": 21.2602}, "countryCode": "ZA"}, "averageDailyFlights": 0.71, "operators": [{"name": "South African Airlink", "iata": "4Z", "icao": "LNK"}]}, {"destination": {"icao": "KIAD", "iata": "IAD", "name": "District of Columbia Washington Dulles", "shortName": "Washington Dulles", "municipalityName": "District of Columbia", "location": {"lat": 38.9445, "lon": -77.4558}, "countryCode": "US"}, "averageDailyFlights": 0.57, "operators": [{"name": "United Airlines", "iata": "UA", "icao": "UAL"}]}, {"destination": {"icao": "FBSK", "iata": "GBE", "name": "Gaborone Sir Seretse Khama", "shortName": "Sir Seretse Khama", "municipalityName": "Gaborone", "location": {"lat": -24.5552, "lon": 25.9182}, "countryCode": "BW"}, "averageDailyFlights": 0.57, "operators": [{"name": "Air Botswana", "iata": "BP", "icao": "BOT"}]}, {"destination": {"icao": "FLLI", "iata": "LVI", "name": "Livingstone ", "shortName": "Livingstone", "municipalityName": "Livingstone", "location": {"lat": -17.8218, "lon": 25.8227}, "countryCode": "ZM"}, "averageDailyFlights": 0.57, "operators": [{"name": "Kenya Airways", "iata": "KQ", "icao": "KQA"}]}, {"destination": {"icao": "LSZH", "iata": "ZRH", "name": "Zurich Kloten", "shortName": "Kloten", "municipalityName": "Zurich", "location": {"lat": 47.4647, "lon": 8.549169}, "countryCode": "CH"}, "averageDailyFlights": 0.57, "operators": [{"name": "Edelweiss Air", "iata": "WK", "icao": "EDW"}]}, {"destination": {"icao": "HKJK", "iata": "NBO", "name": "Nairobi Jomo Kenyatta", "shortName": "Jomo Kenyatta", "municipalityName": "Nairobi", "location": {"lat": -1.319239, "lon": 36.9278}, "countryCode": "KE"}, "averageDailyFlights": 0.43, "operators": [{"name": "Kenya Airways", "iata": "KQ", "icao": "KQA"}]}, {"destination": {"icao": "FIMP", "iata": "MRU", "name": "Port Louis Sir Seewoosagur Ramgoolam", "shortName": "Sir Seewoosagur Ramgoolam", "municipalityName": "Port Louis", "location": {"lat": -20.4302, "lon": 57.6836}, "countryCode": "MU"}, "averageDailyFlights": 0.43, "operators": [{"name": "Air Mauritius", "iata": "MK", "icao": "MAU"}]}, {"destination": {"icao": "KEWR", "iata": "EWR", "name": "Newark Liberty", "shortName": "Liberty", "municipalityName": "Newark", "location": {"lat": 40.6925, "lon": -74.1687}, "countryCode": "US"}, "averageDailyFlights": 0.29, "operators": [{"name": "United Airlines", "iata": "UA", "icao": "UAL"}]}, {"destination": {"icao": "SBGR", "iata": "GRU", "name": "S\u00e3o Paulo Guarulhos - Governador Andr\u00e9 Franco Montoro", "shortName": "Guarulhos - Governador Andr\u00e9 Franco Montoro", "municipalityName": "S\u00e3o Paulo", "location": {"lat": -23.435556, "lon": -46.473057}, "countryCode": "BR"}, "averageDailyFlights": 0.29, "operators": [{"name": "South African Airways", "iata": "SA", "icao": "SAA"}]}]}