{"routes": [{"destination": {"icao": "GCLP", "iata": "LPA", "name": "Gran Canaria Island Gran Canaria", "shortName": "Gran Canaria", "municipalityName": "Gran Canaria Island", "location": {"lat": 27.9319, "lon": -15.386599}, "countryCode": "ES"}, "averageDailyFlights": 28.29, "operators": [{"name": "Binter Canarias", "iata": "NT", "icao": "IBB"}, {"name": "Canaryfly", "iata": "PM", "icao": "CNF"}]}, {"destination": {"icao": "GCLA", "iata": "SPC", "name": "Sta Cruz de la Palma, La Palma Island La Palma", "shortName": "La Palma", "municipalityName": "Sta Cruz de la Palma, La Palma Island", "location": {"lat": 28.6265, "lon": -17.755598}, "countryCode": "ES"}, "averageDailyFlights": 19.57, "operators": [{"name": "Canaryfly", "iata": "PM", "icao": "CNF"}, {"name": "Binter Canarias", "iata": "NT", "icao": "IBB"}]}, {"destination": {"icao": "LEMD", "iata": "MAD", "name": "Madrid Adolfo Su\u00e1rez \u2013Barajas", "shortName": "Adolfo Su\u00e1rez \u2013Barajas", "municipalityName": "Madrid", "location": {"lat": 40.4936, "lon": -3.56676}, "countryCode": "ES"}, "averageDailyFlights": 17.14, "operators": [{"name": "Bulgaria Air", "iata": "FB", "icao": "LZB"}, {"name": "Air Europa", "iata": "UX", "icao": "AEA"}, {"name": "Binter Canarias", "iata": "NT", "icao": "IBB"}, {"name": "Iberia Express", "iata": "I2", "icao": "IBS"}, {"name": "LATAM", "iata": "LA", "icao": "LAN"}, {"name": "Ryanair", "iata": "FR", "icao": "RYR"}, {"name": "ITA Airways", "iata": "AZ", "icao": "ITY"}]}, {"destination": {"icao": "GCRR", "iata": "ACE", "name": "Lanzarote Island Lanzarote", "shortName": "Lanzarote", "municipalityName": "Lanzarote Island", "location": {"lat": 28.9455, "lon": -13.605199}, "countryCode": "ES"}, "averageDailyFlights": 11.86, "operators": [{"name": "Binter Canarias", "iata": "NT", "icao": "IBB"}, {"name": "Canaryfly", "iata": "PM", "icao": "CNF"}]}, {"destination": {"icao": "GCFV", "iata": "FUE", "name": "Fuerteventura Island Fuerteventura", "shortName": "Fuerteventura", "municipalityName": "Fuerteventura Island", "location": {"lat": 28.4527, "lon": -13.8638}, "countryCode": "ES"}, "averageDailyFlights": 8.57, "operators": [{"name": "Binter Canarias", "iata": "NT", "icao": "IBB"}, {"name": "Iberia", "iata": "IB", "icao": "IBE"}, {"name": "Canaryfly", "iata": "PM", "icao": "CNF"}]}, {"destination": {"icao": "GCHI", "iata": "VDE", "name": "El Hierro Island Hierro", "shortName": "Hierro", "municipalityName": "El Hierro Island", "location": {"lat": 27.8148, "lon": -17.8871}, "countryCode": "ES"}, "averageDailyFlights": 7.14, "operators": [{"name": "Binter Canarias", "iata": "NT", "icao": "IBB"}, {"name": "Canaryfly", "iata": "PM", "icao": "CNF"}]}, {"destination": {"icao": "LEBL", "iata": "BCN", "name": "Barcelona ", "shortName": "Barcelona", "municipalityName": "Barcelona", "location": {"lat": 41.2971, "lon": 2.078459}, "countryCode": "ES"}, "averageDailyFlights": 5.14, "operators": [{"name": "Vueling", "iata": "VY", "icao": "VLG"}, {"name": "Ryanair", "iata": "FR", "icao": "RYR"}]}, {"destination": {"icao": "LEZL", "iata": "SVQ", "name": "Seville Sevilla", "shortName": "Sevilla", "municipalityName": "Seville", "location": {"lat": 37.418, "lon": -5.893109}, "countryCode": "ES"}, "averageDailyFlights": 3.57, "operators": [{"name": "Ryanair", "iata": "FR", "icao": "RYR"}, {"name": "Vueling", "iata": "VY", "icao": "VLG"}]}, {"destination": {"icao": "LEMG", "iata": "AGP", "name": "M\u00e1laga ", "shortName": "M\u00e1laga", "municipalityName": "M\u00e1laga", "location": {"lat": 36.6749, "lon": -4.49911}, "countryCode": "ES"}, "averageDailyFlights": 2.29, "operators": [{"name": "Vueling", "iata": "VY", "icao": "VLG"}]}, {"destination": {"icao": "GCGM", "iata": "GMZ", "name": "Alajero, La Gomera Island La Gomera", "shortName": "La Gomera", "municipalityName": "Alajero, La Gomera Island", "location": {"lat": 28.0296, "lon": -17.2146}, "countryCode": "ES"}, "averageDailyFlights": 2.02, "operators": [{"name": "Binter Canarias", "iata": "NT", "icao": "IBB"}]}, {"destination": {"icao": "LEBB", "iata": "BIO", "name": "Bilbao ", "shortName": "Bilbao", "municipalityName": "Bilbao", "location": {"lat": 43.3011, "lon": -2.910609}, "countryCode": "ES"}, "averageDailyFlights": 2.0, "operators": [{"name": "Air Europa", "iata": "UX", "icao": "AEA"}, {"name": "Vueling", "iata": "VY", "icao": "VLG"}]}, {"destination": {"icao": "LEVC", "iata": "VLC", "name": "Valencia ", "shortName": "Valencia", "municipalityName": "Valencia", "location": {"lat": 39.4893, "lon": -0.481624}, "countryCode": "ES"}, "averageDailyFlights": 1.57, "operators": [{"name": "Vueling", "iata": "VY", "icao": "VLG"}, {"name": "Ryanair", "iata": "FR", "icao": "RYR"}, {"name": "Iberia", "iata": "IB", "icao": "IBE"}]}, {"destination": {"icao": "LEAL", "iata": "ALC", "name": "Alicante ", "shortName": "Alicante", "municipalityName": "Alicante", "location": {"lat": 38.2822, "lon": -0.558156}, "countryCode": "ES"}, "averageDailyFlights": 1.14, "operators": [{"name": "Vueling", "iata": "VY", "icao": "VLG"}, {"name": "Ryanair", "iata": "FR", "icao": "RYR"}]}, {"destination": {"icao": "LEAS", "iata": "OVD", "name": "Ran\u00f3n Asturias", "shortName": "Asturias", "municipalityName": "Ran\u00f3n", "location": {"lat": 43.5636, "lon": -6.034619}, "countryCode": "ES"}, "averageDailyFlights": 1.14, "operators": [{"name": "Vueling", "iata": "VY", "icao": "VLG"}, {"name": "Binter Canarias", "iata": "NT", "icao": "IBB"}]}, {"destination": {"icao": "LEST", "iata": "SCQ", "name": "Santiago de Compostela ", "shortName": "Santiago de Compostela", "municipalityName": "Santiago de Compostela", "location": {"lat": 42.8963, "lon": -8.41514}, "countryCode": "ES"}, "averageDailyFlights": 1.14, "operators": [{"name": "Vueling", "iata": "VY", "icao": "VLG"}]}, {"destination": {"icao": "LEPA", "iata": "PMI", "name": "Palma De Mallorca ", "shortName": "Palma De Mallorca", "municipalityName": "Palma De Mallorca", "location": {"lat": 39.5517, "lon": 2.73881}, "countryCode": "ES"}, "averageDailyFlights": 0.57, "operators": [{"name": "Binter Canarias", "iata": "NT", "icao": "IBB"}, {"name": "SmartWings", "iata": "QS", "icao": "TVS"}]}, {"destination": {"icao": "LEVX", "iata": "VGO", "name": "Vigo ", "shortName": "Vigo", "municipalityName": "Vigo", "location": {"lat": 42.2318, "lon": -8.62677}, "countryCode": "ES"}, "averageDailyFlights": 0.43, "operators": [{"name": "Binter Canarias", "iata": "NT", "icao": "IBB"}]}, {"destination": {"icao": "LEZG", "iata": "ZAZ", "name": "Zaragoza Air Base", "shortName": "Air Base", "municipalityName": "Zaragoza", "location": {"lat": 41.6662, "lon": -1.04155}, "countryCode": "ES"}, "averageDailyFlights": 0.43, "operators": [{"name": "Binter Canarias", "iata": "NT", "icao": "IBB"}]}, {"destination": {"icao": "SVMI", "iata": "CCS", "name": "Caracas Sim\u00f3n Bol\u00edvar", "shortName": "Sim\u00f3n Bol\u00edvar", "municipalityName": "Caracas", "location": {"lat": 10.603116, "lon": -66.990585}, "countryCode": "VE"}, "averageDailyFlights": 0.29, "operators": [{"name": "Plus Ultra", "iata": "PU", "icao": "PUE"}]}, {"destination": {"icao": "LPMA", "iata": "FNC", "name": "Funchal Madeira", "shortName": "Madeira", "municipalityName": "Funchal", "location": {"lat": 32.6979, "lon": -16.7745}, "countryCode": "PT"}, "averageDailyFlights": 0.29, "operators": [{"name": "Binter Canarias", "iata": "NT", "icao": "IBB"}]}, {"destination": {"icao": "LEGR", "iata": "GRX", "name": "Granada Federico Garcia Lorca", "shortName": "Federico Garcia Lorca", "municipalityName": "Granada", "location": {"lat": 37.1887, "lon": -3.777359}, "countryCode": "ES"}, "averageDailyFlights": 0.29, "operators": [{"name": "Vueling", "iata": "VY", "icao": "VLG"}]}, {"destination": {"icao": "LEJR", "iata": "XRY", "name": "Jerez de la Forntera Jerez", "shortName": "Jerez", "municipalityName": "Jerez de la Forntera", "location": {"lat": 36.7446, "lon": -6.06011}, "countryCode": "ES"}, "averageDailyFlights": 0.29, "operators": [{"name": "Binter Canarias", "iata": "NT", "icao": "IBB"}]}, {"destination": {"icao": "LEXJ", "iata": "SDR", "name": "Santander ", "shortName": "Santander", "municipalityName": "Santander", "location": {"lat": 43.4271, "lon": -3.820009}, "countryCode": "ES"}, "averageDailyFlights": 0.29, "operators": [{"name": "Binter Canarias", "iata": "NT", "icao": "IBB"}]}, {"destination": {"icao": "LEIB", "iata": "IBZ", "name": "Ibiza Town Ibiza", "shortName": "Ibiza", "municipalityName": "Ibiza Town", "location": {"lat": 38.8729, "lon": 1.373119}, "countryCode": "ES"}, "averageDailyFlights": 0.14, "operators": [{"name": "AlbaStar", "iata": "AP", "icao": "LAV"}]}]}