{"routes": [{"destination": {"icao": "KDFW", "iata": "DFW", "name": "Dallas-Fort Worth ", "shortName": "Dallas-Fort Worth", "municipalityName": "Dallas-Fort Worth", "location": {"lat": 32.8968, "lon": -97.038}, "countryCode": "US"}, "averageDailyFlights": 2.86, "operators": [{"name": "Envoy Air", "iata": "MQ", "icao": "ENY"}, {"name": "United Airlines", "iata": "UA", "icao": "UAL"}, {"name": "Delta Air Lines", "iata": "DL", "icao": "DAL"}, {"name": "American Airlines", "iata": "AA", "icao": "AAL"}, {"name": "SkyWest Airlines", "iata": "OO", "icao": "SKW"}]}, {"destination": {"icao": "KTYR", "iata": "TYR", "name": "Tyler Pounds Regional", "shortName": "Pounds Regional", "municipalityName": "Tyler", "location": {"lat": 32.3541, "lon": -95.4024}, "countryCode": "US"}, "averageDailyFlights": 0.43, "operators": [{"name": "JKA"}]}, {"destination": {"icao": "KCLL", "iata": "CLL", "name": "College Station Easterwood Field", "shortName": "Easterwood Field", "municipalityName": "College Station", "location": {"lat": 30.5886, "lon": -96.3638}, "countryCode": "US"}, "averageDailyFlights": 0.29, "operators": [{"name": "Kabo Air", "iata": "N9", "icao": "QNK"}]}, {"destination": {"icao": "KLFK", "iata": "LFK", "name": "Lufkin Angelina County", "shortName": "Angelina County", "municipalityName": "Lufkin", "location": {"lat": 31.234, "lon": -94.75}, "countryCode": "US"}, "averageDailyFlights": 0.29, "operators": [{"name": "JKA"}]}, {"destination": {"icao": "KSAT", "iata": "SAT", "name": "San Antonio ", "shortName": "San Antonio", "municipalityName": "San Antonio", "location": {"lat": 29.5337, "lon": -98.4698}, "countryCode": "US"}, "averageDailyFlights": 0.29, "operators": [{"name": "Libyan Airlines", "iata": "LN", "icao": "LAA"}]}, {"destination": {"icao": "KABI", "iata": "ABI", "name": "Abilene Regional", "shortName": "Regional", "municipalityName": "Abilene", "location": {"lat": 32.4113, "lon": -99.6819}, "countryCode": "US"}, "averageDailyFlights": 0.14, "operators": [{"name": "National Airlines", "iata": "N8", "icao": "NCR"}]}, {"destination": {"icao": "KGLS", "iata": "GLS", "name": "Galveston Scholes  At", "shortName": "Scholes  At", "municipalityName": "Galveston", "location": {"lat": 29.2653, "lon": -94.8604}, "countryCode": "US"}, "averageDailyFlights": 0.14, "operators": [{"name": "JKA"}]}, {"destination": {"icao": "KGGG", "iata": "GGG", "name": "Longview East Texas Regional", "shortName": "East Texas Regional", "municipalityName": "Longview", "location": {"lat": 32.384, "lon": -94.7115}, "countryCode": "US"}, "averageDailyFlights": 0.14, "operators": [{"name": "JKA"}]}, {"destination": {"icao": "KDTN", "iata": "DTN", "name": "Shreveport Downtown", "shortName": "Downtown", "municipalityName": "Shreveport", "location": {"lat": 32.5402, "lon": -93.745}, "countryCode": "US"}, "averageDailyFlights": 0.14, "operators": [{"name": "JKA"}]}]}