{"routes": [{"destination": {"icao": "KATL", "iata": "ATL", "name": "Atlanta Hartsfield Jackson", "shortName": "Hartsfield Jackson", "municipalityName": "Atlanta", "location": {"lat": 33.6367, "lon": -84.4281}, "countryCode": "US"}, "averageDailyFlights": 3.57, "operators": [{"name": "Delta Air Lines", "iata": "DL", "icao": "DAL"}]}, {"destination": {"icao": "KDFW", "iata": "DFW", "name": "Dallas-Fort Worth ", "shortName": "Dallas-Fort Worth", "municipalityName": "Dallas-Fort Worth", "location": {"lat": 32.8968, "lon": -97.038}, "countryCode": "US"}, "averageDailyFlights": 3.57, "operators": [{"name": "American Airlines", "iata": "AA", "icao": "AAL"}, {"name": "Envoy Air", "iata": "MQ", "icao": "ENY"}, {"name": "SkyWest Airlines", "iata": "OO", "icao": "SKW"}]}, {"destination": {"icao": "KCLT", "iata": "CLT", "name": "Charlotte Douglas", "shortName": "Douglas", "municipalityName": "Charlotte", "location": {"lat": 35.214, "lon": -80.9431}, "countryCode": "US"}, "averageDailyFlights": 3.0, "operators": [{"name": "American Airlines", "iata": "AA", "icao": "AAL"}, {"name": "SCM"}]}, {"destination": {"icao": "KIAH", "iata": "IAH", "name": "Houston George Bush", "shortName": "George Bush", "municipalityName": "Houston", "location": {"lat": 29.9844, "lon": -95.3414}, "countryCode": "US"}, "averageDailyFlights": 2.29, "operators": [{"name": "United Airlines", "iata": "UA", "icao": "UAL"}]}, {"destination": {"icao": "KAVP", "iata": "AVP", "name": "Wilkes-Barre/Scranton Wilkes Barre Scranton", "shortName": "Wilkes Barre Scranton", "municipalityName": "Wilkes-Barre/Scranton", "location": {"lat": 41.3385, "lon": -75.7234}, "countryCode": "US"}, "averageDailyFlights": 0.57, "operators": [{"name": "American Airlines", "iata": "AA", "icao": "AAL"}]}, {"destination": {"icao": "KLFT", "iata": "LFT", "name": "Lafayette Regional", "shortName": "Regional", "municipalityName": "Lafayette", "location": {"lat": 30.2053, "lon": -91.9876}, "countryCode": "US"}, "averageDailyFlights": 0.43, "operators": [{"name": "CWG"}]}, {"destination": {"icao": "KPIE", "iata": "PIE", "name": "St Petersburg-Clearwater St Petersburg Clearwater", "shortName": "St Petersburg Clearwater", "municipalityName": "St Petersburg-Clearwater", "location": {"lat": 27.9102, "lon": -82.6874}, "countryCode": "US"}, "averageDailyFlights": 0.43, "operators": [{"name": "Sun Country Airlines", "iata": "SY", "icao": "SCX"}]}, {"destination": {"icao": "KPDK", "iata": "PDK", "name": "Atlanta DeKalb Peachtree", "shortName": "DeKalb Peachtree", "municipalityName": "Atlanta", "location": {"lat": 33.8756, "lon": -84.302}, "countryCode": "US"}, "averageDailyFlights": 0.29, "operators": [{"name": "JRE"}]}, {"destination": {"icao": "KJAX", "iata": "JAX", "name": "Jacksonville ", "shortName": "Jacksonville", "municipalityName": "Jacksonville", "location": {"lat": 30.4941, "lon": -81.6879}, "countryCode": "US"}, "averageDailyFlights": 0.29, "operators": [{"name": "Sun Country Airlines", "iata": "SY", "icao": "SCX"}, {"name": "NetJets Aviation", "iata": "1I", "icao": "EJA"}]}, {"destination": {"icao": "KTYS", "iata": "TYS", "name": "Knoxville McGhee Tyson", "shortName": "McGhee Tyson", "municipalityName": "Knoxville", "location": {"lat": 35.811, "lon": -83.994}, "countryCode": "US"}, "averageDailyFlights": 0.29, "operators": [{"name": "Sun Country Airlines", "iata": "SY", "icao": "SCX"}]}, {"destination": {"icao": "KLAS", "iata": "LAS", "name": "Las Vegas McCarran", "shortName": "McCarran", "municipalityName": "Las Vegas", "location": {"lat": 36.0801, "lon": -115.152}, "countryCode": "US"}, "averageDailyFlights": 0.29, "operators": [{"name": "Breeze Airways", "iata": "MX", "icao": "MXY"}]}, {"destination": {"icao": "KSRQ", "iata": "SRQ", "name": "Sarasota/Bradenton Sarasota Bradenton", "shortName": "Sarasota Bradenton", "municipalityName": "Sarasota/Bradenton", "location": {"lat": 27.3954, "lon": -82.5544}, "countryCode": "US"}, "averageDailyFlights": 0.29, "operators": [{"name": "Sun Country Airlines", "iata": "SY", "icao": "SCX"}]}, {"destination": {"icao": "KTPA", "iata": "TPA", "name": "Tampa ", "shortName": "Tampa", "municipalityName": "Tampa", "location": {"lat": 27.9755, "lon": -82.5332}, "countryCode": "US"}, "averageDailyFlights": 0.29, "operators": [{"name": "Breeze Airways", "iata": "MX", "icao": "MXY"}]}, {"destination": {"icao": "KCAK", "iata": "CAK", "name": "Akron Canton Regional", "shortName": "Canton Regional", "municipalityName": "Akron", "location": {"lat": 40.9161, "lon": -81.4422}, "countryCode": "US"}, "averageDailyFlights": 0.14, "operators": [{"name": "Sun Country Airlines", "iata": "SY", "icao": "SCX"}]}, {"destination": {"icao": "KAVL", "iata": "AVL", "name": "Asheville Regional", "shortName": "Regional", "municipalityName": "Asheville", "location": {"lat": 35.4362, "lon": -82.5418}, "countryCode": "US"}, "averageDailyFlights": 0.14, "operators": [{"name": "Sun Country Airlines", "iata": "SY", "icao": "SCX"}]}, {"destination": {"icao": "KAGS", "iata": "AGS", "name": "Augusta Regional At Bush Field", "shortName": "Regional At Bush Field", "municipalityName": "Augusta", "location": {"lat": 33.3699, "lon": -81.9645}, "countryCode": "US"}, "averageDailyFlights": 0.14, "operators": [{"name": "Sun Country Airlines", "iata": "SY", "icao": "SCX"}]}, {"destination": {"icao": "KAUS", "iata": "AUS", "name": "Austin Bergstrom", "shortName": "Bergstrom", "municipalityName": "Austin", "location": {"lat": 30.194498, "lon": -97.6699}, "countryCode": "US"}, "averageDailyFlights": 0.14, "operators": [{"name": "Sun Country Airlines", "iata": "SY", "icao": "SCX"}]}, {"destination": {"icao": "KCVG", "iata": "CVG", "name": "Cincinnati Northern Kentucky", "shortName": "Northern Kentucky", "municipalityName": "Cincinnati", "location": {"lat": 39.0488, "lon": -84.6678}, "countryCode": "US"}, "averageDailyFlights": 0.14, "operators": [{"name": "Sun Country Airlines", "iata": "SY", "icao": "SCX"}]}, {"destination": {"icao": "KCAE", "iata": "CAE", "name": "Columbia Metropolitan", "shortName": "Metropolitan", "municipalityName": "Columbia", "location": {"lat": 33.9388, "lon": -81.1195}, "countryCode": "US"}, "averageDailyFlights": 0.14, "operators": [{"name": "Sun Country Airlines", "iata": "SY", "icao": "SCX"}]}, {"destination": {"icao": "KCMH", "iata": "CMH", "name": "Columbus Port", "shortName": "Port", "municipalityName": "Columbus", "location": {"lat": 39.998, "lon": -82.8919}, "countryCode": "US"}, "averageDailyFlights": 0.14, "operators": [{"name": "Sun Country Airlines", "iata": "SY", "icao": "SCX"}]}, {"destination": {"icao": "KDAB", "iata": "DAB", "name": "Daytona Beach ", "shortName": "Daytona Beach", "municipalityName": "Daytona Beach", "location": {"lat": 29.1799, "lon": -81.0581}, "countryCode": "US"}, "averageDailyFlights": 0.14, "operators": [{"name": "Sun Country Airlines", "iata": "SY", "icao": "SCX"}]}, {"destination": {"icao": "KHOP", "iata": "HOP", "name": "Fort Campbell/Hopkinsville Campbell AAF (Fort Campbell) Air Field", "shortName": "Campbell AAF (Fort Campbell) Air Field", "municipalityName": "Fort Campbell/Hopkinsville", "location": {"lat": 36.6686, "lon": -87.4962}, "countryCode": "US"}, "averageDailyFlights": 0.14, "operators": [{"name": "Sun Country Airlines", "iata": "SY", "icao": "SCX"}]}, {"destination": {"icao": "KRSW", "iata": "RSW", "name": "Fort Myers Southwest Florida", "shortName": "Southwest Florida", "municipalityName": "Fort Myers", "location": {"lat": 26.5362, "lon": -81.7552}, "countryCode": "US"}, "averageDailyFlights": 0.14, "operators": [{"name": "Sun Country Airlines", "iata": "SY", "icao": "SCX"}]}, {"destination": {"icao": "KMCI", "iata": "MCI", "name": "Kansas City ", "shortName": "Kansas City", "municipalityName": "Kansas City", "location": {"lat": 39.2976, "lon": -94.7139}, "countryCode": "US"}, "averageDailyFlights": 0.14, "operators": [{"name": "Sun Country Airlines", "iata": "SY", "icao": "SCX"}]}, {"destination": {"icao": "KMSN", "iata": "MSN", "name": "Madison Dane County Regional Truax Field", "shortName": "Dane County Regional Truax Field", "municipalityName": "Madison", "location": {"lat": 43.1399, "lon": -89.3375}, "countryCode": "US"}, "averageDailyFlights": 0.14, "operators": [{"name": "Sun Country Airlines", "iata": "SY", "icao": "SCX"}]}, {"destination": {"icao": "KMLB", "iata": "MLB", "name": "Melbourne ", "shortName": "Melbourne", "municipalityName": "Melbourne", "location": {"lat": 28.1028, "lon": -80.6453}, "countryCode": "US"}, "averageDailyFlights": 0.14, "operators": [{"name": "STV"}]}, {"destination": {"icao": "KMSP", "iata": "MSP", "name": "Minneapolis Wold-Chamberlain", "shortName": "Wold-Chamberlain", "municipalityName": "Minneapolis", "location": {"lat": 44.882, "lon": -93.2218}, "countryCode": "US"}, "averageDailyFlights": 0.14, "operators": [{"name": "Sun Country Airlines", "iata": "SY", "icao": "SCX"}]}, {"destination": {"icao": "KOKC", "iata": "OKC", "name": "Oklahoma City Will Rogers World", "shortName": "Will Rogers World", "municipalityName": "Oklahoma City", "location": {"lat": 35.3931, "lon": -97.6007}, "countryCode": "US"}, "averageDailyFlights": 0.14, "operators": [{"name": "Sun Country Airlines", "iata": "SY", "icao": "SCX"}]}, {"destination": {"icao": "KPIT", "iata": "PIT", "name": "Pittsburgh ", "shortName": "Pittsburgh", "municipalityName": "Pittsburgh", "location": {"lat": 40.4915, "lon": -80.2329}, "countryCode": "US"}, "averageDailyFlights": 0.14, "operators": [{"name": "Sun Country Airlines", "iata": "SY", "icao": "SCX"}]}, {"destination": {"icao": "KSME", "iata": "SME", "name": "Somerset Lake Cumberland Regional", "shortName": "Lake Cumberland Regional", "municipalityName": "Somerset", "location": {"lat": 37.0534, "lon": -84.6159}, "countryCode": "US"}, "averageDailyFlights": 0.14, "operators": [{"name": "DCM"}]}, {"destination": {"icao": "KPBI", "iata": "PBI", "name": "West Palm Beach Palm Beach", "shortName": "Palm Beach", "municipalityName": "West Palm Beach", "location": {"lat": 26.6832, "lon": -80.0956}, "countryCode": "US"}, "averageDailyFlights": 0.14, "operators": [{"name": "CYO"}]}]}