{"routes": [{"destination": {"icao": "KCLT", "iata": "CLT", "name": "Charlotte Douglas", "shortName": "Douglas", "municipalityName": "Charlotte", "location": {"lat": 35.214, "lon": -80.9431}, "countryCode": "US"}, "averageDailyFlights": 11.0, "operators": [{"name": "GGW"}, {"name": "American Airlines", "iata": "AA", "icao": "AAL"}, {"name": "United Airlines", "iata": "UA", "icao": "UAL"}, {"name": "NetJets Aviation", "iata": "1I", "icao": "EJA"}, {"name": "Delta Air Lines", "iata": "DL", "icao": "DAL"}, {"name": "TCA", "iata": "N6", "icao": "TZS"}, {"name": "Nordwind Airlines", "iata": "N4", "icao": "NWS"}]}, {"destination": {"icao": "KDEN", "iata": "DEN", "name": "Denver ", "shortName": "Denver", "municipalityName": "Denver", "location": {"lat": 39.8617, "lon": -104.673}, "countryCode": "US"}, "averageDailyFlights": 10.86, "operators": [{"name": "United Airlines", "iata": "UA", "icao": "UAL"}, {"name": "Southwest Airlines", "iata": "WN", "icao": "SWA"}, {"name": "Delta Air Lines", "iata": "DL", "icao": "DAL"}]}, {"destination": {"icao": "KATL", "iata": "ATL", "name": "Atlanta Hartsfield Jackson", "shortName": "Hartsfield Jackson", "municipalityName": "Atlanta", "location": {"lat": 33.6367, "lon": -84.4281}, "countryCode": "US"}, "averageDailyFlights": 10.43, "operators": [{"name": "Delta Air Lines", "iata": "DL", "icao": "DAL"}, {"name": "United Airlines", "iata": "UA", "icao": "UAL"}, {"name": "LXJ"}]}, {"destination": {"icao": "KLAX", "iata": "LAX", "name": "Los Angeles ", "shortName": "Los Angeles", "municipalityName": "Los Angeles", "location": {"lat": 33.9425, "lon": -118.408}, "countryCode": "US"}, "averageDailyFlights": 9.43, "operators": [{"name": "United Airlines", "iata": "UA", "icao": "UAL"}, {"name": "RDN"}, {"name": "Alaska Airlines", "iata": "AS", "icao": "ASA"}, {"name": "Delta Air Lines", "iata": "DL", "icao": "DAL"}]}, {"destination": {"icao": "KSFO", "iata": "SFO", "name": "San Francisco ", "shortName": "San Francisco", "municipalityName": "San Francisco", "location": {"lat": 37.619, "lon": -122.375}, "countryCode": "US"}, "averageDailyFlights": 9.0, "operators": [{"name": "United Airlines", "iata": "UA", "icao": "UAL"}, {"name": "Alaska Airlines", "iata": "AS", "icao": "ASA"}, {"name": "NetJets Aviation", "iata": "1I", "icao": "EJA"}, {"name": "American Airlines", "iata": "AA", "icao": "AAL"}]}, {"destination": {"icao": "KEWR", "iata": "EWR", "name": "Newark Liberty", "shortName": "Liberty", "municipalityName": "Newark", "location": {"lat": 40.6925, "lon": -74.1687}, "countryCode": "US"}, "averageDailyFlights": 8.43, "operators": [{"name": "MTN"}, {"name": "United Airlines", "iata": "UA", "icao": "UAL"}, {"name": "LXJ"}, {"name": "Alaska Airlines", "iata": "AS", "icao": "ASA"}, {"name": "NetJets Aviation", "iata": "1I", "icao": "EJA"}]}, {"destination": {"icao": "CYYZ", "iata": "YYZ", "name": "Toronto Pearson", "shortName": "Pearson", "municipalityName": "Toronto", "location": {"lat": 43.6772, "lon": -79.6306}, "countryCode": "CA"}, "averageDailyFlights": 7.86, "operators": [{"name": "NetJets Aviation", "iata": "1I", "icao": "EJA"}, {"name": "United Airlines", "iata": "UA", "icao": "UAL"}, {"name": "Air Canada", "iata": "AC", "icao": "ACA"}, {"name": "FEX"}, {"name": "SYB"}, {"name": "Delta Air Lines", "iata": "DL", "icao": "DAL"}]}, {"destination": {"icao": "KTEB", "iata": "TEB", "name": "Teterboro ", "shortName": "Teterboro", "municipalityName": "Teterboro", "location": {"lat": 40.8501, "lon": -74.0608}, "countryCode": "US"}, "averageDailyFlights": 6.71, "operators": [{"name": "FTH"}, {"name": "VJA"}, {"name": "NetJets Aviation", "iata": "1I", "icao": "EJA"}, {"name": "Libyan Airlines", "iata": "LN", "icao": "LAA"}, {"name": "RDN"}, {"name": "PJC"}, {"name": "LXJ"}, {"name": "EJM"}, {"name": "Tradewind Aviation", "iata": "TJ", "icao": "GPD"}, {"name": "TFF"}, {"name": "TWY"}, {"name": "Vuela El Salvador", "iata": "N3", "icao": "VOS"}, {"name": "ERY"}, {"name": "SKV"}, {"name": "WWI"}, {"name": "TIV"}, {"name": "Kabo Air", "iata": "N9", "icao": "QNK"}, {"name": "VJT"}, {"name": "CHR"}]}, {"destination": {"icao": "KBOS", "iata": "BOS", "name": "Boston General Edward Lawrence Logan", "shortName": "General Edward Lawrence Logan", "municipalityName": "Boston", "location": {"lat": 42.3643, "lon": -71.0052}, "countryCode": "US"}, "averageDailyFlights": 6.57, "operators": [{"name": "Libyan Airlines", "iata": "LN", "icao": "LAA"}, {"name": "Jet Linx Aviation", "iata": "JL", "icao": "JTL"}, {"name": "United Airlines", "iata": "UA", "icao": "UAL"}, {"name": "EJM"}, {"name": "TWY"}, {"name": "CNS"}, {"name": "PJC"}, {"name": "WUP"}, {"name": "NetJets Aviation", "iata": "1I", "icao": "EJA"}, {"name": "Delta Air Lines", "iata": "DL", "icao": "DAL"}]}, {"destination": {"icao": "KMCO", "iata": "MCO", "name": "Orlando ", "shortName": "Orlando", "municipalityName": "Orlando", "location": {"lat": 28.4294, "lon": -81.309}, "countryCode": "US"}, "averageDailyFlights": 6.14, "operators": [{"name": "Delta Air Lines", "iata": "DL", "icao": "DAL"}, {"name": "United Airlines", "iata": "UA", "icao": "UAL"}, {"name": "UBT"}]}, {"destination": {"icao": "MSLP", "iata": "SAL", "name": "Santa Clara El Salvador", "shortName": "El Salvador", "municipalityName": "Santa Clara", "location": {"lat": 13.440899, "lon": -89.0557}, "countryCode": "SV"}, "averageDailyFlights": 6.14, "operators": [{"name": "Vuela El Salvador", "iata": "N3", "icao": "VOS"}, {"name": "Avianca", "iata": "AV", "icao": "AVA"}, {"name": "United Airlines", "iata": "UA", "icao": "UAL"}]}, {"destination": {"icao": "KDTW", "iata": "DTW", "name": "Detroit Metropolitan Wayne County", "shortName": "Metropolitan Wayne County", "municipalityName": "Detroit", "location": {"lat": 42.2124, "lon": -83.3534}, "countryCode": "US"}, "averageDailyFlights": 5.86, "operators": [{"name": "Delta Air Lines", "iata": "DL", "icao": "DAL"}, {"name": "United Airlines", "iata": "UA", "icao": "UAL"}]}, {"destination": {"icao": "KRDU", "iata": "RDU", "name": "Raleigh/Durham Raleigh Durham", "shortName": "Raleigh Durham", "municipalityName": "Raleigh/Durham", "location": {"lat": 35.8776, "lon": -78.7875}, "countryCode": "US"}, "averageDailyFlights": 5.86, "operators": [{"name": "JRE"}, {"name": "United Airlines", "iata": "UA", "icao": "UAL"}, {"name": "NetJets Aviation", "iata": "1I", "icao": "EJA"}, {"name": "CYC"}, {"name": "LXJ"}, {"name": "Delta Air Lines", "iata": "DL", "icao": "DAL"}]}, {"destination": {"icao": "EGLL", "iata": "LHR", "name": "London Heathrow", "shortName": "Heathrow", "municipalityName": "London", "location": {"lat": 51.4706, "lon": -0.461941}, "countryCode": "GB"}, "averageDailyFlights": 5.71, "operators": [{"name": "British Airways", "iata": "BA", "icao": "BAW"}, {"name": "Virgin Atlantic", "iata": "VS", "icao": "VIR"}, {"name": "United Airlines", "iata": "UA", "icao": "UAL"}]}, {"destination": {"icao": "KDFW", "iata": "DFW", "name": "Dallas-Fort Worth ", "shortName": "Dallas-Fort Worth", "municipalityName": "Dallas-Fort Worth", "location": {"lat": 32.8968, "lon": -97.038}, "countryCode": "US"}, "averageDailyFlights": 5.61, "operators": [{"name": "American Airlines", "iata": "AA", "icao": "AAL"}, {"name": "United Airlines", "iata": "UA", "icao": "UAL"}]}, {"destination": {"icao": "KCLE", "iata": "CLE", "name": "Cleveland Hopkins", "shortName": "Hopkins", "municipalityName": "Cleveland", "location": {"lat": 41.4117, "lon": -81.8498}, "countryCode": "US"}, "averageDailyFlights": 5.43, "operators": [{"name": "United Airlines", "iata": "UA", "icao": "UAL"}, {"name": "NetJets Aviation", "iata": "1I", "icao": "EJA"}, {"name": "LXJ"}, {"name": "Jet Linx Aviation", "iata": "JL", "icao": "JTL"}, {"name": "TEK"}]}, {"destination": {"icao": "KORD", "iata": "ORD", "name": "Chicago O'Hare", "shortName": "O'Hare", "municipalityName": "Chicago", "location": {"lat": 41.9786, "lon": -87.9048}, "countryCode": "US"}, "averageDailyFlights": 5.0, "operators": [{"name": "United Airlines", "iata": "UA", "icao": "UAL"}]}, {"destination": {"icao": "KCMH", "iata": "CMH", "name": "Columbus Port", "shortName": "Port", "municipalityName": "Columbus", "location": {"lat": 39.998, "lon": -82.8919}, "countryCode": "US"}, "averageDailyFlights": 5.0, "operators": [{"name": "United Airlines", "iata": "UA", "icao": "UAL"}, {"name": "NetJets Aviation", "iata": "1I", "icao": "EJA"}, {"name": "Sun Country Airlines", "iata": "SY", "icao": "SCX"}]}, {"destination": {"icao": "KLGA", "iata": "LGA", "name": "New York La Guardia", "shortName": "La Guardia", "municipalityName": "New York", "location": {"lat": 40.7772, "lon": -73.8726}, "countryCode": "US"}, "averageDailyFlights": 5.0, "operators": [{"name": "American Airlines", "iata": "AA", "icao": "AAL"}, {"name": "Delta Air Lines", "iata": "DL", "icao": "DAL"}, {"name": "United Airlines", "iata": "UA", "icao": "UAL"}]}, {"destination": {"icao": "KORF", "iata": "ORF", "name": "Norfolk ", "shortName": "Norfolk", "municipalityName": "Norfolk", "location": {"lat": 36.8946, "lon": -76.2012}, "countryCode": "US"}, "averageDailyFlights": 5.0, "operators": [{"name": "United Airlines", "iata": "UA", "icao": "UAL"}, {"name": "NetJets Aviation", "iata": "1I", "icao": "EJA"}]}, {"destination": {"icao": "KAUS", "iata": "AUS", "name": "Austin Bergstrom", "shortName": "Bergstrom", "municipalityName": "Austin", "location": {"lat": 30.194498, "lon": -97.6699}, "countryCode": "US"}, "averageDailyFlights": 4.86, "operators": [{"name": "TMP"}, {"name": "United Airlines", "iata": "UA", "icao": "UAL"}, {"name": "Allegiant Air", "iata": "G4", "icao": "AAY"}, {"name": "LXJ"}, {"name": "Jet Linx Aviation", "iata": "JL", "icao": "JTL"}, {"name": "NJM"}, {"name": "KPO"}]}, {"destination": {"icao": "KTPA", "iata": "TPA", "name": "Tampa ", "shortName": "Tampa", "municipalityName": "Tampa", "location": {"lat": 27.9755, "lon": -82.5332}, "countryCode": "US"}, "averageDailyFlights": 4.86, "operators": [{"name": "United Airlines", "iata": "UA", "icao": "UAL"}, {"name": "EJM"}, {"name": "NetJets Aviation", "iata": "1I", "icao": "EJA"}, {"name": "Libyan Airlines", "iata": "LN", "icao": "LAA"}, {"name": "WUP"}]}, {"destination": {"icao": "KBDL", "iata": "BDL", "name": "Hartford Bradley", "shortName": "Bradley", "municipalityName": "Hartford", "location": {"lat": 41.9389, "lon": -72.6832}, "countryCode": "US"}, "averageDailyFlights": 4.71, "operators": [{"name": "United Airlines", "iata": "UA", "icao": "UAL"}, {"name": "JTZ"}]}, {"destination": {"icao": "KIAH", "iata": "IAH", "name": "Houston George Bush", "shortName": "George Bush", "municipalityName": "Houston", "location": {"lat": 29.9844, "lon": -95.3414}, "countryCode": "US"}, "averageDailyFlights": 4.71, "operators": [{"name": "United Airlines", "iata": "UA", "icao": "UAL"}, {"name": "NetJets Aviation", "iata": "1I", "icao": "EJA"}]}, {"destination": {"icao": "KSEA", "iata": "SEA", "name": "Seattle Tacoma", "shortName": "Tacoma", "municipalityName": "Seattle", "location": {"lat": 47.449, "lon": -122.309}, "countryCode": "US"}, "averageDailyFlights": 4.71, "operators": [{"name": "Alaska Airlines", "iata": "AS", "icao": "ASA"}, {"name": "Delta Air Lines", "iata": "DL", "icao": "DAL"}, {"name": "United Airlines", "iata": "UA", "icao": "UAL"}]}, {"destination": {"icao": "KBNA", "iata": "BNA", "name": "Nashville ", "shortName": "Nashville", "municipalityName": "Nashville", "location": {"lat": 36.1245, "lon": -86.6782}, "countryCode": "US"}, "averageDailyFlights": 4.57, "operators": [{"name": "United Airlines", "iata": "UA", "icao": "UAL"}, {"name": "Allegiant Air", "iata": "G4", "icao": "AAY"}, {"name": "NetJets Aviation", "iata": "1I", "icao": "EJA"}, {"name": "LXJ"}, {"name": "FTH"}]}, {"destination": {"icao": "BIKF", "iata": "KEF", "name": "Reykjavik Keflavik", "shortName": "Keflavik", "municipalityName": "Reykjavik", "location": {"lat": 63.985, "lon": -22.6056}, "countryCode": "IS"}, "averageDailyFlights": 4.43, "operators": [{"name": "FPY"}, {"name": "Icelandair", "iata": "FI", "icao": "ICE"}, {"name": "Ghodawat Enterprises", "iata": "OG", "icao": "SDG"}]}, {"destination": {"icao": "KCHS", "iata": "CHS", "name": "Charleston Air Force Base-", "shortName": "Air Force Base-", "municipalityName": "Charleston", "location": {"lat": 32.8986, "lon": -80.0405}, "countryCode": "US"}, "averageDailyFlights": 4.29, "operators": [{"name": "United Airlines", "iata": "UA", "icao": "UAL"}, {"name": "NetJets Aviation", "iata": "1I", "icao": "EJA"}, {"name": "JRE"}, {"name": "Jet Linx Aviation", "iata": "JL", "icao": "JTL"}]}, {"destination": {"icao": "KMGW", "iata": "MGW", "name": "Morgantown Municipal Walter L. Bill Hart Field", "shortName": "Municipal Walter L. Bill Hart Field", "municipalityName": "Morgantown", "location": {"lat": 39.6429, "lon": -79.9163}, "countryCode": "US"}, "averageDailyFlights": 4.29, "operators": [{"name": "LJY"}, {"name": "Southern Airways Express", "iata": "9X", "icao": "FDY"}]}, {"destination": {"icao": "KBUF", "iata": "BUF", "name": "Buffalo Niagara", "shortName": "Niagara", "municipalityName": "Buffalo", "location": {"lat": 42.9405, "lon": -78.7322}, "countryCode": "US"}, "averageDailyFlights": 4.14, "operators": [{"name": "United Airlines", "iata": "UA", "icao": "UAL"}, {"name": "Republic Airways", "iata": "YX", "icao": "RPA"}]}, {"destination": {"icao": "KRIC", "iata": "RIC", "name": "Richmond ", "shortName": "Richmond", "municipalityName": "Richmond", "location": {"lat": 37.5052, "lon": -77.3197}, "countryCode": "US"}, "averageDailyFlights": 4.14, "operators": [{"name": "United Airlines", "iata": "UA", "icao": "UAL"}, {"name": "SKQ"}]}, {"destination": {"icao": "KPHX", "iata": "PHX", "name": "Phoenix Sky Harbor", "shortName": "Sky Harbor", "municipalityName": "Phoenix", "location": {"lat": 33.4343, "lon": -112.012}, "countryCode": "US"}, "averageDailyFlights": 3.87, "operators": [{"name": "United Airlines", "iata": "UA", "icao": "UAL"}, {"name": "LXJ"}, {"name": "Southwest Airlines", "iata": "WN", "icao": "SWA"}]}, {"destination": {"icao": "KCHO", "iata": "CHO", "name": "Charlottesville Albemarle", "shortName": "Albemarle", "municipalityName": "Charlottesville", "location": {"lat": 38.1386, "lon": -78.4529}, "countryCode": "US"}, "averageDailyFlights": 3.86, "operators": [{"name": "United Airlines", "iata": "UA", "icao": "UAL"}, {"name": "NetJets Aviation", "iata": "1I", "icao": "EJA"}, {"name": "CYC"}]}, {"destination": {"icao": "KFLL", "iata": "FLL", "name": "Fort Lauderdale Hollywood", "shortName": "Hollywood", "municipalityName": "Fort Lauderdale", "location": {"lat": 26.0726, "lon": -80.1527}, "countryCode": "US"}, "averageDailyFlights": 3.86, "operators": [{"name": "United Airlines", "iata": "UA", "icao": "UAL"}, {"name": "DCM"}, {"name": "Air Canada", "iata": "AC", "icao": "ACA"}]}, {"destination": {"icao": "KMSP", "iata": "MSP", "name": "Minneapolis Wold-Chamberlain", "shortName": "Wold-Chamberlain", "municipalityName": "Minneapolis", "location": {"lat": 44.882, "lon": -93.2218}, "countryCode": "US"}, "averageDailyFlights": 3.86, "operators": [{"name": "Delta Air Lines", "iata": "DL", "icao": "DAL"}, {"name": "United Airlines", "iata": "UA", "icao": "UAL"}, {"name": "Sun Country Airlines", "iata": "SY", "icao": "SCX"}]}, {"destination": {"icao": "CYUL", "iata": "YUL", "name": "Montreal Trudeau", "shortName": "Trudeau", "municipalityName": "Montreal", "location": {"lat": 45.4706, "lon": -73.7408}, "countryCode": "CA"}, "averageDailyFlights": 3.86, "operators": [{"name": "VJA"}, {"name": "United Airlines", "iata": "UA", "icao": "UAL"}, {"name": "Air Canada", "iata": "AC", "icao": "ACA"}, {"name": "MVP"}]}, {"destination": {"icao": "KLAS", "iata": "LAS", "name": "Las Vegas McCarran", "shortName": "McCarran", "municipalityName": "Las Vegas", "location": {"lat": 36.0801, "lon": -115.152}, "countryCode": "US"}, "averageDailyFlights": 3.71, "operators": [{"name": "United Airlines", "iata": "UA", "icao": "UAL"}, {"name": "GJI"}]}, {"destination": {"icao": "KIND", "iata": "IND", "name": "Indianapolis ", "shortName": "Indianapolis", "municipalityName": "Indianapolis", "location": {"lat": 39.7173, "lon": -86.2944}, "countryCode": "US"}, "averageDailyFlights": 3.57, "operators": [{"name": "United Airlines", "iata": "UA", "icao": "UAL"}, {"name": "LXJ"}, {"name": "JLG"}, {"name": "Omni Air International", "iata": "OY", "icao": "OAE"}]}, {"destination": {"icao": "KMSY", "iata": "MSY", "name": "New Orleans Louis Armstrong", "shortName": "Louis Armstrong", "municipalityName": "New Orleans", "location": {"lat": 29.9934, "lon": -90.258}, "countryCode": "US"}, "averageDailyFlights": 3.57, "operators": [{"name": "United Airlines", "iata": "UA", "icao": "UAL"}, {"name": "JAS"}]}, {"destination": {"icao": "MPTO", "iata": "PTY", "name": "Tocumen ", "shortName": "Tocumen", "municipalityName": "Tocumen", "location": {"lat": 9.071359, "lon": -79.3835}, "countryCode": "PA"}, "averageDailyFlights": 3.57, "operators": [{"name": "Copa Airlines", "iata": "CM", "icao": "CMP"}]}, {"destination": {"icao": "EDDF", "iata": "FRA", "name": "Frankfurt-am-Main ", "shortName": "Frankfurt-am-Main", "municipalityName": "Frankfurt-am-Main", "location": {"lat": 50.0264, "lon": 8.543129}, "countryCode": "DE"}, "averageDailyFlights": 3.43, "operators": [{"name": "United Airlines", "iata": "UA", "icao": "UAL"}, {"name": "Lufthansa", "iata": "LH", "icao": "DLH"}]}, {"destination": {"icao": "KHSV", "iata": "HSV", "name": "Huntsville Carl T Jones Field", "shortName": "Carl T Jones Field", "municipalityName": "Huntsville", "location": {"lat": 34.6372, "lon": -86.7751}, "countryCode": "US"}, "averageDailyFlights": 3.43, "operators": [{"name": "United Airlines", "iata": "UA", "icao": "UAL"}]}, {"destination": {"icao": "KPIT", "iata": "PIT", "name": "Pittsburgh ", "shortName": "Pittsburgh", "municipalityName": "Pittsburgh", "location": {"lat": 40.4915, "lon": -80.2329}, "countryCode": "US"}, "averageDailyFlights": 3.43, "operators": [{"name": "United Airlines", "iata": "UA", "icao": "UAL"}, {"name": "NetJets Aviation", "iata": "1I", "icao": "EJA"}, {"name": "iAero Airways", "iata": "WQ", "icao": "SWQ"}, {"name": "LXJ"}]}, {"destination": {"icao": "KSAV", "iata": "SAV", "name": "Savannah Hilton Head", "shortName": "Hilton Head", "municipalityName": "Savannah", "location": {"lat": 32.1276, "lon": -81.2021}, "countryCode": "US"}, "averageDailyFlights": 3.43, "operators": [{"name": "United Airlines", "iata": "UA", "icao": "UAL"}]}, {"destination": {"icao": "KSYR", "iata": "SYR", "name": "Syracuse Hancock", "shortName": "Hancock", "municipalityName": "Syracuse", "location": {"lat": 43.1112, "lon": -76.1063}, "countryCode": "US"}, "averageDailyFlights": 3.43, "operators": [{"name": "United Airlines", "iata": "UA", "icao": "UAL"}, {"name": "STY"}, {"name": "NetJets Aviation", "iata": "1I", "icao": "EJA"}]}, {"destination": {"icao": "KCVG", "iata": "CVG", "name": "Cincinnati Northern Kentucky", "shortName": "Northern Kentucky", "municipalityName": "Cincinnati", "location": {"lat": 39.0488, "lon": -84.6678}, "countryCode": "US"}, "averageDailyFlights": 3.29, "operators": [{"name": "United Airlines", "iata": "UA", "icao": "UAL"}]}, {"destination": {"icao": "KMIA", "iata": "MIA", "name": "Miami ", "shortName": "Miami", "municipalityName": "Miami", "location": {"lat": 25.7932, "lon": -80.2906}, "countryCode": "US"}, "averageDailyFlights": 3.29, "operators": [{"name": "NetJets Aviation", "iata": "1I", "icao": "EJA"}, {"name": "Delta Air Lines", "iata": "DL", "icao": "DAL"}, {"name": "LXJ"}, {"name": "United Airlines", "iata": "UA", "icao": "UAL"}, {"name": "LEX"}]}, {"destination": {"icao": "CYOW", "iata": "YOW", "name": "Ottawa Macdonald-Cartier", "shortName": "Macdonald-Cartier", "municipalityName": "Ottawa", "location": {"lat": 45.3225, "lon": -75.6692}, "countryCode": "CA"}, "averageDailyFlights": 3.29, "operators": [{"name": "United Airlines", "iata": "UA", "icao": "UAL"}, {"name": "HRT"}]}, {"destination": {"icao": "CYTZ", "iata": "YTZ", "name": "Toronto Billy Bishop  City Centre", "shortName": "Billy Bishop  City Centre", "municipalityName": "Toronto", "location": {"lat": 43.6275, "lon": -79.3962}, "countryCode": "CA"}, "averageDailyFlights": 3.29, "operators": [{"name": "PTR"}, {"name": "Porter Airlines", "iata": "PD", "icao": "POE"}]}, {"destination": {"icao": "KPBI", "iata": "PBI", "name": "West Palm Beach Palm Beach", "shortName": "Palm Beach", "municipalityName": "West Palm Beach", "location": {"lat": 26.6832, "lon": -80.0956}, "countryCode": "US"}, "averageDailyFlights": 3.29, "operators": [{"name": "Jet Linx Aviation", "iata": "JL", "icao": "JTL"}, {"name": "NetJets Aviation", "iata": "1I", "icao": "EJA"}, {"name": "United Airlines", "iata": "UA", "icao": "UAL"}, {"name": "LXJ"}]}, {"destination": {"icao": "EIDW", "iata": "DUB", "name": "Dublin ", "shortName": "Dublin", "municipalityName": "Dublin", "location": {"lat": 53.4213, "lon": -6.27007}, "countryCode": "IE"}, "averageDailyFlights": 3.14, "operators": [{"name": "Aer Lingus", "iata": "EI", "icao": "EIN"}, {"name": "United Airlines", "iata": "UA", "icao": "UAL"}]}, {"destination": {"icao": "KALB", "iata": "ALB", "name": "Albany ", "shortName": "Albany", "municipalityName": "Albany", "location": {"lat": 42.7483, "lon": -73.8017}, "countryCode": "US"}, "averageDailyFlights": 3.0, "operators": [{"name": "United Airlines", "iata": "UA", "icao": "UAL"}, {"name": "NetJets Aviation", "iata": "1I", "icao": "EJA"}]}, {"destination": {"icao": "KTYS", "iata": "TYS", "name": "Knoxville McGhee Tyson", "shortName": "McGhee Tyson", "municipalityName": "Knoxville", "location": {"lat": 35.811, "lon": -83.994}, "countryCode": "US"}, "averageDailyFlights": 3.0, "operators": [{"name": "GTX"}, {"name": "United Airlines", "iata": "UA", "icao": "UAL"}, {"name": "NetJets Aviation", "iata": "1I", "icao": "EJA"}, {"name": "RVJ"}]}, {"destination": {"icao": "KLNS", "iata": "LNS", "name": "Lancaster ", "shortName": "Lancaster", "municipalityName": "Lancaster", "location": {"lat": 40.1217, "lon": -76.2961}, "countryCode": "US"}, "averageDailyFlights": 3.0, "operators": [{"name": "Southern Airways Express", "iata": "9X", "icao": "FDY"}, {"name": "NetJets Aviation", "iata": "1I", "icao": "EJA"}]}, {"destination": {"icao": "LFPG", "iata": "CDG", "name": "Paris Charles de Gaulle", "shortName": "Charles de Gaulle", "municipalityName": "Paris", "location": {"lat": 49.0128, "lon": 2.549999}, "countryCode": "FR"}, "averageDailyFlights": 3.0, "operators": [{"name": "United Airlines", "iata": "UA", "icao": "UAL"}, {"name": "Air France", "iata": "AF", "icao": "AFR"}]}, {"destination": {"icao": "KROA", "iata": "ROA", "name": "Roanoke \u2013Blacksburg Regional", "shortName": "\u2013Blacksburg Regional", "municipalityName": "Roanoke", "location": {"lat": 37.3255, "lon": -79.9754}, "countryCode": "US"}, "averageDailyFlights": 2.86, "operators": [{"name": "United Airlines", "iata": "UA", "icao": "UAL"}, {"name": "PWA"}]}, {"destination": {"icao": "KDUJ", "iata": "DUJ", "name": "DuBois Regional", "shortName": "Regional", "municipalityName": "DuBois", "location": {"lat": 41.1783, "lon": -78.8987}, "countryCode": "US"}, "averageDailyFlights": 2.71, "operators": [{"name": "Southern Airways Express", "iata": "9X", "icao": "FDY"}]}, {"destination": {"icao": "KRSW", "iata": "RSW", "name": "Fort Myers Southwest Florida", "shortName": "Southwest Florida", "municipalityName": "Fort Myers", "location": {"lat": 26.5362, "lon": -81.7552}, "countryCode": "US"}, "averageDailyFlights": 2.71, "operators": [{"name": "RDN"}, {"name": "United Airlines", "iata": "UA", "icao": "UAL"}]}, {"destination": {"icao": "LTFM", "iata": "IST", "name": "Istanbul ", "shortName": "Istanbul", "municipalityName": "Istanbul", "location": {"lat": 41.275276, "lon": 28.751944}, "countryCode": "TR"}, "averageDailyFlights": 2.71, "operators": [{"name": "Turkish Airlines", "iata": "TK", "icao": "THY"}]}, {"destination": {"icao": "LPPT", "iata": "LIS", "name": "Lisbon Portela", "shortName": "Portela", "municipalityName": "Lisbon", "location": {"lat": 38.7813, "lon": -9.135919}, "countryCode": "PT"}, "averageDailyFlights": 2.71, "operators": [{"name": "TAP Air Portugal", "iata": "TP", "icao": "TAP"}, {"name": "United Airlines", "iata": "UA", "icao": "UAL"}]}, {"destination": {"icao": "KSTL", "iata": "STL", "name": "Saint Louis Lambert St Louis", "shortName": "Lambert St Louis", "municipalityName": "Saint Louis", "location": {"lat": 38.7487, "lon": -90.37}, "countryCode": "US"}, "averageDailyFlights": 2.71, "operators": [{"name": "United Airlines", "iata": "UA", "icao": "UAL"}, {"name": "NetJets Aviation", "iata": "1I", "icao": "EJA"}]}, {"destination": {"icao": "EHAM", "iata": "AMS", "name": "Amsterdam Schiphol", "shortName": "Schiphol", "municipalityName": "Amsterdam", "location": {"lat": 52.3086, "lon": 4.763889}, "countryCode": "NL"}, "averageDailyFlights": 2.57, "operators": [{"name": "United Airlines", "iata": "UA", "icao": "UAL"}, {"name": "KLM", "iata": "KL", "icao": "KLM"}]}, {"destination": {"icao": "KBTV", "iata": "BTV", "name": "Burlington ", "shortName": "Burlington", "municipalityName": "Burlington", "location": {"lat": 44.4719, "lon": -73.1533}, "countryCode": "US"}, "averageDailyFlights": 2.57, "operators": [{"name": "N2"}, {"name": "United Airlines", "iata": "UA", "icao": "UAL"}, {"name": "NetJets Aviation", "iata": "1I", "icao": "EJA"}]}, {"destination": {"icao": "EDDM", "iata": "MUC", "name": "Munich ", "shortName": "Munich", "municipalityName": "Munich", "location": {"lat": 48.3538, "lon": 11.7861}, "countryCode": "DE"}, "averageDailyFlights": 2.57, "operators": [{"name": "United Airlines", "iata": "UA", "icao": "UAL"}, {"name": "Lufthansa", "iata": "LH", "icao": "DLH"}]}, {"destination": {"icao": "KAPF", "iata": "APF", "name": "Naples Municipal", "shortName": "Municipal", "municipalityName": "Naples", "location": {"lat": 26.1526, "lon": -81.7753}, "countryCode": "US"}, "averageDailyFlights": 2.57, "operators": [{"name": "NetJets Aviation", "iata": "1I", "icao": "EJA"}, {"name": "WMN"}, {"name": "LXJ"}, {"name": "EJM"}, {"name": "VJA"}, {"name": "KPO"}]}, {"destination": {"icao": "KSAT", "iata": "SAT", "name": "San Antonio ", "shortName": "San Antonio", "municipalityName": "San Antonio", "location": {"lat": 29.5337, "lon": -98.4698}, "countryCode": "US"}, "averageDailyFlights": 2.57, "operators": [{"name": "United Airlines", "iata": "UA", "icao": "UAL"}, {"name": "LXJ"}, {"name": "CYO"}]}, {"destination": {"icao": "KHPN", "iata": "HPN", "name": "White Plains Westchester County", "shortName": "Westchester County", "municipalityName": "White Plains", "location": {"lat": 41.067, "lon": -73.7076}, "countryCode": "US"}, "averageDailyFlights": 2.57, "operators": [{"name": "LXJ"}, {"name": "VJA"}, {"name": "NetJets Aviation", "iata": "1I", "icao": "EJA"}, {"name": "TWY"}, {"name": "CNS"}, {"name": "Ultimate Air Shuttle", "iata": "UE", "icao": "UJC"}]}, {"destination": {"icao": "KBED", "iata": "BED", "name": "Bedford Laurence G Hanscom Field", "shortName": "Laurence G Hanscom Field", "municipalityName": "Bedford", "location": {"lat": 42.47, "lon": -71.289}, "countryCode": "US"}, "averageDailyFlights": 2.43, "operators": [{"name": "iAero Airways", "iata": "WQ", "icao": "SWQ"}, {"name": "N1"}, {"name": "VJA"}, {"name": "Jet Linx Aviation", "iata": "JL", "icao": "JTL"}, {"name": "NetJets Aviation", "iata": "1I", "icao": "EJA"}, {"name": "CNS"}, {"name": "RDN"}, {"name": "TWY"}]}, {"destination": {"icao": "KCAE", "iata": "CAE", "name": "Columbia Metropolitan", "shortName": "Metropolitan", "municipalityName": "Columbia", "location": {"lat": 33.9388, "lon": -81.1195}, "countryCode": "US"}, "averageDailyFlights": 2.43, "operators": [{"name": "United Airlines", "iata": "UA", "icao": "UAL"}, {"name": "GXA"}, {"name": "NetJets Aviation", "iata": "1I", "icao": "EJA"}]}, {"destination": {"icao": "KROC", "iata": "ROC", "name": "Rochester Greater", "shortName": "Greater", "municipalityName": "Rochester", "location": {"lat": 43.1189, "lon": -77.6724}, "countryCode": "US"}, "averageDailyFlights": 2.43, "operators": [{"name": "LXJ"}, {"name": "JRE"}, {"name": "United Airlines", "iata": "UA", "icao": "UAL"}]}, {"destination": {"icao": "LSZH", "iata": "ZRH", "name": "Zurich Kloten", "shortName": "Kloten", "municipalityName": "Zurich", "location": {"lat": 47.4647, "lon": 8.549169}, "countryCode": "CH"}, "averageDailyFlights": 2.43, "operators": [{"name": "United Airlines", "iata": "UA", "icao": "UAL"}, {"name": "SWISS", "iata": "LX", "icao": "SWR"}]}, {"destination": {"icao": "SKBO", "iata": "BOG", "name": "Bogot\u00e1 El Dorado", "shortName": "El Dorado", "municipalityName": "Bogot\u00e1", "location": {"lat": 4.70159, "lon": -74.1469}, "countryCode": "CO"}, "averageDailyFlights": 2.29, "operators": [{"name": "Avianca", "iata": "AV", "icao": "AVA"}]}, {"destination": {"icao": "MMUN", "iata": "CUN", "name": "Canc\u00fan ", "shortName": "Canc\u00fan", "municipalityName": "Canc\u00fan", "location": {"lat": 21.0365, "lon": -86.8771}, "countryCode": "MX"}, "averageDailyFlights": 2.29, "operators": [{"name": "United Airlines", "iata": "UA", "icao": "UAL"}]}, {"destination": {"icao": "KSDF", "iata": "SDF", "name": "Louisville Standiford Field", "shortName": "Standiford Field", "municipalityName": "Louisville", "location": {"lat": 38.1744, "lon": -85.736}, "countryCode": "US"}, "averageDailyFlights": 2.29, "operators": [{"name": "United Airlines", "iata": "UA", "icao": "UAL"}]}, {"destination": {"icao": "KPVD", "iata": "PVD", "name": "Providence Theodore Francis Green State", "shortName": "Theodore Francis Green State", "municipalityName": "Providence", "location": {"lat": 41.7326, "lon": -71.4204}, "countryCode": "US"}, "averageDailyFlights": 2.29, "operators": [{"name": "United Airlines", "iata": "UA", "icao": "UAL"}]}, {"destination": {"icao": "MDPC", "iata": "PUJ", "name": "Punta Cana ", "shortName": "Punta Cana", "municipalityName": "Punta Cana", "location": {"lat": 18.567398, "lon": -68.3634}, "countryCode": "DO"}, "averageDailyFlights": 2.29, "operators": [{"name": "United Airlines", "iata": "UA", "icao": "UAL"}]}, {"destination": {"icao": "RJTT", "iata": "HND", "name": "Tokyo ", "shortName": "Tokyo", "municipalityName": "Tokyo", "location": {"lat": 35.5523, "lon": 139.78}, "countryCode": "JP"}, "averageDailyFlights": 2.29, "operators": [{"name": "ANA", "iata": "NH", "icao": "ANA"}, {"name": "United Airlines", "iata": "UA", "icao": "UAL"}]}, {"destination": {"icao": "KSRQ", "iata": "SRQ", "name": "Sarasota/Bradenton Sarasota Bradenton", "shortName": "Sarasota Bradenton", "municipalityName": "Sarasota/Bradenton", "location": {"lat": 27.3954, "lon": -82.5544}, "countryCode": "US"}, "averageDailyFlights": 2.14, "operators": [{"name": "CYC"}, {"name": "United Airlines", "iata": "UA", "icao": "UAL"}, {"name": "Allegiant Air", "iata": "G4", "icao": "AAY"}, {"name": "VJA"}, {"name": "JRE"}]}, {"destination": {"icao": "KBFD", "iata": "BFD", "name": "Bradford Regional", "shortName": "Regional", "municipalityName": "Bradford", "location": {"lat": 41.8031, "lon": -78.6401}, "countryCode": "US"}, "averageDailyFlights": 2.0, "operators": [{"name": "Southern Airways Express", "iata": "9X", "icao": "FDY"}]}, {"destination": {"icao": "EBBR", "iata": "BRU", "name": "Brussels ", "shortName": "Brussels", "municipalityName": "Brussels", "location": {"lat": 50.9014, "lon": 4.484439}, "countryCode": "BE"}, "averageDailyFlights": 2.0, "operators": [{"name": "United Airlines", "iata": "UA", "icao": "UAL"}, {"name": "Brussels Airlines", "iata": "SN", "icao": "BEL"}, {"name": "ROJ"}]}, {"destination": {"icao": "KPHL", "iata": "PHL", "name": "Philadelphia ", "shortName": "Philadelphia", "municipalityName": "Philadelphia", "location": {"lat": 39.8719, "lon": -75.2411}, "countryCode": "US"}, "averageDailyFlights": 2.0, "operators": [{"name": "American Airlines", "iata": "AA", "icao": "AAL"}, {"name": "NetJets Aviation", "iata": "1I", "icao": "EJA"}, {"name": "Delta Air Lines", "iata": "DL", "icao": "DAL"}, {"name": "LXJ"}, {"name": "Libyan Airlines", "iata": "LN", "icao": "LAA"}, {"name": "WUP"}, {"name": "VJA"}, {"name": "VJT"}]}, {"destination": {"icao": "OTHH", "iata": "DOH", "name": "Doha Hamad", "shortName": "Hamad", "municipalityName": "Doha", "location": {"lat": 25.273056, "lon": 51.608055}, "countryCode": "QA"}, "averageDailyFlights": 1.86, "operators": [{"name": "Qatar Airways", "iata": "QR", "icao": "QTR"}]}, {"destination": {"icao": "LIRF", "iata": "FCO", "name": "Rome Leonardo da Vinci\u2013Fiumicino", "shortName": "Leonardo da Vinci\u2013Fiumicino", "municipalityName": "Rome", "location": {"lat": 41.8045, "lon": 12.2508}, "countryCode": "IT"}, "averageDailyFlights": 1.86, "operators": [{"name": "ITA Airways", "iata": "AZ", "icao": "ITY"}, {"name": "United Airlines", "iata": "UA", "icao": "UAL"}]}, {"destination": {"icao": "TJSJ", "iata": "SJU", "name": "San Juan Luis Munoz Marin", "shortName": "Luis Munoz Marin", "municipalityName": "San Juan", "location": {"lat": 18.4394, "lon": -66.0018}, "countryCode": "PR"}, "averageDailyFlights": 1.73, "operators": [{"name": "United Airlines", "iata": "UA", "icao": "UAL"}, {"name": "EJM"}]}, {"destination": {"icao": "MGGT", "iata": "GUA", "name": "Guatemala City La Aurora", "shortName": "La Aurora", "municipalityName": "Guatemala City", "location": {"lat": 14.583299, "lon": -90.5275}, "countryCode": "GT"}, "averageDailyFlights": 1.72, "operators": [{"name": "Avianca Costa Rica", "iata": "LR", "icao": "LRC"}, {"name": "United Airlines", "iata": "UA", "icao": "UAL"}, {"name": "Avianca", "iata": "AV", "icao": "AVA"}]}, {"destination": {"icao": "KSLC", "iata": "SLC", "name": "Salt Lake City ", "shortName": "Salt Lake City", "municipalityName": "Salt Lake City", "location": {"lat": 40.7884, "lon": -111.978}, "countryCode": "US"}, "averageDailyFlights": 1.57, "operators": [{"name": "RDN"}, {"name": "Delta Air Lines", "iata": "DL", "icao": "DAL"}, {"name": "EJM"}]}, {"destination": {"icao": "HAAB", "iata": "ADD", "name": "Addis Ababa Bole", "shortName": "Bole", "municipalityName": "Addis Ababa", "location": {"lat": 8.97789, "lon": 38.7993}, "countryCode": "ET"}, "averageDailyFlights": 1.43, "operators": [{"name": "Ethiopian Airlines", "iata": "ET", "icao": "ETH"}]}, {"destination": {"icao": "KMDW", "iata": "MDW", "name": "Chicago Midway", "shortName": "Midway", "municipalityName": "Chicago", "location": {"lat": 41.786, "lon": -87.7524}, "countryCode": "US"}, "averageDailyFlights": 1.43, "operators": [{"name": "LXJ"}, {"name": "NetJets Aviation", "iata": "1I", "icao": "EJA"}, {"name": "Libyan Airlines", "iata": "LN", "icao": "LAA"}, {"name": "Nordwind Airlines", "iata": "N4", "icao": "NWS"}, {"name": "VJA"}, {"name": "Kabo Air", "iata": "N9", "icao": "QNK"}, {"name": "LAK"}]}, {"destination": {"icao": "KILM", "iata": "ILM", "name": "Wilmington ", "shortName": "Wilmington", "municipalityName": "Wilmington", "location": {"lat": 34.2706, "lon": -77.9026}, "countryCode": "US"}, "averageDailyFlights": 1.43, "operators": [{"name": "TTT"}, {"name": "LXJ"}]}, {"destination": {"icao": "LEBL", "iata": "BCN", "name": "Barcelona ", "shortName": "Barcelona", "municipalityName": "Barcelona", "location": {"lat": 41.2971, "lon": 2.078459}, "countryCode": "ES"}, "averageDailyFlights": 1.29, "operators": [{"name": "United Airlines", "iata": "UA", "icao": "UAL"}]}, {"destination": {"icao": "KDAY", "iata": "DAY", "name": "Dayton James M Cox", "shortName": "James M Cox", "municipalityName": "Dayton", "location": {"lat": 39.9024, "lon": -84.2194}, "countryCode": "US"}, "averageDailyFlights": 1.29, "operators": [{"name": "United Airlines", "iata": "UA", "icao": "UAL"}, {"name": "NetJets Aviation", "iata": "1I", "icao": "EJA"}]}, {"destination": {"icao": "LSGG", "iata": "GVA", "name": "Geneva Cointrin", "shortName": "Cointrin", "municipalityName": "Geneva", "location": {"lat": 46.2381, "lon": 6.10895}, "countryCode": "CH"}, "averageDailyFlights": 1.29, "operators": [{"name": "United Airlines", "iata": "UA", "icao": "UAL"}]}, {"destination": {"icao": "PHNL", "iata": "HNL", "name": "Honolulu ", "shortName": "Honolulu", "municipalityName": "Honolulu", "location": {"lat": 21.3187, "lon": -157.922}, "countryCode": "US"}, "averageDailyFlights": 1.29, "operators": [{"name": "United Airlines", "iata": "UA", "icao": "UAL"}]}, {"destination": {"icao": "KOKC", "iata": "OKC", "name": "Oklahoma City Will Rogers World", "shortName": "Will Rogers World", "municipalityName": "Oklahoma City", "location": {"lat": 35.3931, "lon": -97.6007}, "countryCode": "US"}, "averageDailyFlights": 1.29, "operators": [{"name": "HOB"}]}, {"destination": {"icao": "MBPV", "iata": "PLS", "name": "Providenciales Island Providenciales", "shortName": "Providenciales", "municipalityName": "Providenciales Island", "location": {"lat": 21.7736, "lon": -72.2659}, "countryCode": "TC"}, "averageDailyFlights": 1.29, "operators": [{"name": "United Airlines", "iata": "UA", "icao": "UAL"}]}, {"destination": {"icao": "OMAA", "iata": "AUH", "name": "Abu Dhabi Island and Internal Islands City Abu Dhabi", "shortName": "Abu Dhabi", "municipalityName": "Abu Dhabi Island and Internal Islands City", "location": {"lat": 24.433, "lon": 54.6511}, "countryCode": "AE"}, "averageDailyFlights": 1.14, "operators": [{"name": "Etihad Airways", "iata": "EY", "icao": "ETD"}]}, {"destination": {"icao": "KBCT", "iata": "BCT", "name": "Boca Raton ", "shortName": "Boca Raton", "municipalityName": "Boca Raton", "location": {"lat": 26.378498, "lon": -80.1077}, "countryCode": "US"}, "averageDailyFlights": 1.14, "operators": [{"name": "NetJets Aviation", "iata": "1I", "icao": "EJA"}, {"name": "WUP"}, {"name": "MVP"}, {"name": "EJM"}, {"name": "LAK"}]}, {"destination": {"icao": "TIST", "iata": "STT", "name": "Charlotte Amalie, Harry S. Truman Airport Cyril E. King", "shortName": "Cyril E. King", "municipalityName": "Charlotte Amalie, Harry S. Truman Airport", "location": {"lat": 18.3373, "lon": -64.9734}, "countryCode": "VI"}, "averageDailyFlights": 1.14, "operators": [{"name": "United Airlines", "iata": "UA", "icao": "UAL"}]}, {"destination": {"icao": "OMDB", "iata": "DXB", "name": "Dubai ", "shortName": "Dubai", "municipalityName": "Dubai", "location": {"lat": 25.252798, "lon": 55.3644}, "countryCode": "AE"}, "averageDailyFlights": 1.14, "operators": [{"name": "Emirates", "iata": "EK", "icao": "UAE"}]}, {"destination": {"icao": "EGPH", "iata": "EDI", "name": "Edinburgh ", "shortName": "Edinburgh", "municipalityName": "Edinburgh", "location": {"lat": 55.95, "lon": -3.372499}, "countryCode": "GB"}, "averageDailyFlights": 1.14, "operators": [{"name": "United Airlines", "iata": "UA", "icao": "UAL"}]}, {"destination": {"icao": "KJST", "iata": "JST", "name": "Johnstown John Murtha  Cambria County", "shortName": "John Murtha  Cambria County", "municipalityName": "Johnstown", "location": {"lat": 40.3161, "lon": -78.8339}, "countryCode": "US"}, "averageDailyFlights": 1.14, "operators": [{"name": "United Airlines", "iata": "UA", "icao": "UAL"}]}, {"destination": {"icao": "MMMX", "iata": "MEX", "name": "Mexico City Licenciado Benito Juarez", "shortName": "Licenciado Benito Juarez", "municipalityName": "Mexico City", "location": {"lat": 19.4363, "lon": -99.0721}, "countryCode": "MX"}, "averageDailyFlights": 1.14, "operators": [{"name": "United Airlines", "iata": "UA", "icao": "UAL"}]}, {"destination": {"icao": "MKJS", "iata": "MBJ", "name": "Montego Bay Sangster", "shortName": "Sangster", "municipalityName": "Montego Bay", "location": {"lat": 18.5037, "lon": -77.9134}, "countryCode": "JM"}, "averageDailyFlights": 1.14, "operators": [{"name": "United Airlines", "iata": "UA", "icao": "UAL"}]}, {"destination": {"icao": "TNCA", "iata": "AUA", "name": "Oranjestad Queen Beatrix", "shortName": "Queen Beatrix", "municipalityName": "Oranjestad", "location": {"lat": 12.501399, "lon": -70.0152}, "countryCode": "AW"}, "averageDailyFlights": 1.14, "operators": [{"name": "United Airlines", "iata": "UA", "icao": "UAL"}]}, {"destination": {"icao": "KPDX", "iata": "PDX", "name": "Portland ", "shortName": "Portland", "municipalityName": "Portland", "location": {"lat": 45.5887, "lon": -122.598}, "countryCode": "US"}, "averageDailyFlights": 1.14, "operators": [{"name": "United Airlines", "iata": "UA", "icao": "UAL"}]}, {"destination": {"icao": "KSMF", "iata": "SMF", "name": "Sacramento ", "shortName": "Sacramento", "municipalityName": "Sacramento", "location": {"lat": 38.6954, "lon": -121.591}, "countryCode": "US"}, "averageDailyFlights": 1.14, "operators": [{"name": "United Airlines", "iata": "UA", "icao": "UAL"}]}, {"destination": {"icao": "SBGR", "iata": "GRU", "name": "S\u00e3o Paulo Guarulhos - Governador Andr\u00e9 Franco Montoro", "shortName": "Guarulhos - Governador Andr\u00e9 Franco Montoro", "municipalityName": "S\u00e3o Paulo", "location": {"lat": -23.435556, "lon": -46.473057}, "countryCode": "BR"}, "averageDailyFlights": 1.14, "operators": [{"name": "United Airlines", "iata": "UA", "icao": "UAL"}]}, {"destination": {"icao": "RKSI", "iata": "ICN", "name": "Seoul Incheon", "shortName": "Incheon", "municipalityName": "Seoul", "location": {"lat": 37.4691, "lon": 126.451}, "countryCode": "KR"}, "averageDailyFlights": 1.14, "operators": [{"name": "Korean Air", "iata": "KE", "icao": "KAL"}]}, {"destination": {"icao": "LOWW", "iata": "VIE", "name": "Vienna Schwechat", "shortName": "Schwechat", "municipalityName": "Vienna", "location": {"lat": 48.1103, "lon": 16.5697}, "countryCode": "AT"}, "averageDailyFlights": 1.14, "operators": [{"name": "Austrian", "iata": "OS", "icao": "AUA"}]}, {"destination": {"icao": "KBWI", "iata": "BWI", "name": "Baltimore Washington  Thurgood Marshall", "shortName": "Washington  Thurgood Marshall", "municipalityName": "Baltimore", "location": {"lat": 39.1754, "lon": -76.6683}, "countryCode": "US"}, "averageDailyFlights": 1.0, "operators": [{"name": "LBQ"}, {"name": "NetJets Aviation", "iata": "1I", "icao": "EJA"}, {"name": "United Airlines", "iata": "UA", "icao": "UAL"}, {"name": "Southwest Airlines", "iata": "WN", "icao": "SWA"}]}, {"destination": {"icao": "EKCH", "iata": "CPH", "name": "Copenhagen Kastrup", "shortName": "Kastrup", "municipalityName": "Copenhagen", "location": {"lat": 55.6179, "lon": 12.656}, "countryCode": "DK"}, "averageDailyFlights": 1.0, "operators": [{"name": "SAS", "iata": "SK", "icao": "SAS"}]}, {"destination": {"icao": "KDAL", "iata": "DAL", "name": "Dallas Love Field", "shortName": "Love Field", "municipalityName": "Dallas", "location": {"lat": 32.8471, "lon": -96.8518}, "countryCode": "US"}, "averageDailyFlights": 1.0, "operators": [{"name": "NetJets Aviation", "iata": "1I", "icao": "EJA"}, {"name": "PWA"}, {"name": "CHR"}, {"name": "PJC"}, {"name": "LXJ"}]}, {"destination": {"icao": "KFRG", "iata": "FRG", "name": "Farmingdale Republic", "shortName": "Republic", "municipalityName": "Farmingdale", "location": {"lat": 40.7288, "lon": -73.4134}, "countryCode": "US"}, "averageDailyFlights": 1.0, "operators": [{"name": "EJM"}, {"name": "LXJ"}, {"name": "GTX"}, {"name": "NetJets Aviation", "iata": "1I", "icao": "EJA"}]}, {"destination": {"icao": "KMCI", "iata": "MCI", "name": "Kansas City ", "shortName": "Kansas City", "municipalityName": "Kansas City", "location": {"lat": 39.2976, "lon": -94.7139}, "countryCode": "US"}, "averageDailyFlights": 1.0, "operators": [{"name": "United Airlines", "iata": "UA", "icao": "UAL"}]}, {"destination": {"icao": "MYNN", "iata": "NAS", "name": "Nassau Lynden Pindling", "shortName": "Lynden Pindling", "municipalityName": "Nassau", "location": {"lat": 25.039, "lon": -77.4662}, "countryCode": "BS"}, "averageDailyFlights": 1.0, "operators": [{"name": "JRE"}, {"name": "United Airlines", "iata": "UA", "icao": "UAL"}]}, {"destination": {"icao": "KVRB", "iata": "VRB", "name": "Vero Beach Municipal", "shortName": "Municipal", "municipalityName": "Vero Beach", "location": {"lat": 27.6556, "lon": -80.4179}, "countryCode": "US"}, "averageDailyFlights": 1.0, "operators": [{"name": "NetJets Aviation", "iata": "1I", "icao": "EJA"}, {"name": "LXJ"}, {"name": "WUP"}, {"name": "FTH"}, {"name": "TWY"}]}, {"destination": {"icao": "DGAA", "iata": "ACC", "name": "Accra Kotoka", "shortName": "Kotoka", "municipalityName": "Accra", "location": {"lat": 5.605189, "lon": -0.166786}, "countryCode": "GH"}, "averageDailyFlights": 0.86, "operators": [{"name": "United Airlines", "iata": "UA", "icao": "UAL"}]}, {"destination": {"icao": "KPDK", "iata": "PDK", "name": "Atlanta DeKalb Peachtree", "shortName": "DeKalb Peachtree", "municipalityName": "Atlanta", "location": {"lat": 33.8756, "lon": -84.302}, "countryCode": "US"}, "averageDailyFlights": 0.86, "operators": [{"name": "WUP"}, {"name": "FTH"}, {"name": "FFL"}, {"name": "NetJets Aviation", "iata": "1I", "icao": "EJA"}]}, {"destination": {"icao": "KMMU", "iata": "MMU", "name": "Morristown Municipal", "shortName": "Municipal", "municipalityName": "Morristown", "location": {"lat": 40.7994, "lon": -74.4149}, "countryCode": "US"}, "averageDailyFlights": 0.86, "operators": [{"name": "KPO"}, {"name": "GTX"}, {"name": "NetJets Aviation", "iata": "1I", "icao": "EJA"}]}, {"destination": {"icao": "VIDP", "iata": "DEL", "name": "New Delhi Indira Gandhi", "shortName": "Indira Gandhi", "municipalityName": "New Delhi", "location": {"lat": 28.5665, "lon": 77.1031}, "countryCode": "IN"}, "averageDailyFlights": 0.86, "operators": [{"name": "Air India", "iata": "AI", "icao": "AIC"}]}, {"destination": {"icao": "CYVR", "iata": "YVR", "name": "Vancouver ", "shortName": "Vancouver", "municipalityName": "Vancouver", "location": {"lat": 49.1939, "lon": -123.184}, "countryCode": "CA"}, "averageDailyFlights": 0.86, "operators": [{"name": "Air Canada", "iata": "AC", "icao": "ACA"}]}, {"destination": {"icao": "KBTP", "iata": "BTP", "name": "Butler County-K W Scholter Field", "shortName": "County-K W Scholter Field", "municipalityName": "Butler", "location": {"lat": 40.7769, "lon": -79.9497}, "countryCode": "US"}, "averageDailyFlights": 0.71, "operators": [{"name": "PJC"}]}, {"destination": {"icao": "OEJN", "iata": "JED", "name": "Jeddah King Abdulaziz", "shortName": "King Abdulaziz", "municipalityName": "Jeddah", "location": {"lat": 21.6796, "lon": 39.1565}, "countryCode": "SA"}, "averageDailyFlights": 0.71, "operators": [{"name": "Saudi Arabian Airlines", "iata": "SV", "icao": "SVA"}]}, {"destination": {"icao": "KEEN", "iata": "EEN", "name": "Keene Dillant Hopkins", "shortName": "Dillant Hopkins", "municipalityName": "Keene", "location": {"lat": 42.8984, "lon": -72.2708}, "countryCode": "US"}, "averageDailyFlights": 0.71, "operators": [{"name": "OKC"}, {"name": "TIV"}]}, {"destination": {"icao": "KPHF", "iata": "PHF", "name": "Newport News Williamsburg", "shortName": "Williamsburg", "municipalityName": "Newport News", "location": {"lat": 37.1319, "lon": -76.493}, "countryCode": "US"}, "averageDailyFlights": 0.71, "operators": [{"name": "NetJets Aviation", "iata": "1I", "icao": "EJA"}, {"name": "LAK"}, {"name": "TWY"}]}, {"destination": {"icao": "TNCM", "iata": "SXM", "name": "Saint Martin Princess Juliana", "shortName": "Princess Juliana", "municipalityName": "Saint Martin", "location": {"lat": 18.041, "lon": -63.1089}, "countryCode": "SX"}, "averageDailyFlights": 0.71, "operators": [{"name": "LXJ"}, {"name": "United Airlines", "iata": "UA", "icao": "UAL"}]}, {"destination": {"icao": "KSUA", "iata": "SUA", "name": "Stuart Witham Field", "shortName": "Witham Field", "municipalityName": "Stuart", "location": {"lat": 27.1817, "lon": -80.2211}, "countryCode": "US"}, "averageDailyFlights": 0.71, "operators": [{"name": "NetJets Aviation", "iata": "1I", "icao": "EJA"}, {"name": "LAK"}]}, {"destination": {"icao": "GMMN", "iata": "CMN", "name": "Casablanca Mohammed V", "shortName": "Mohammed V", "municipalityName": "Casablanca", "location": {"lat": 33.3675, "lon": -7.58997}, "countryCode": "MA"}, "averageDailyFlights": 0.57, "operators": [{"name": "Royal Air Maroc", "iata": "AT", "icao": "RAM"}]}, {"destination": {"icao": "KCMI", "iata": "CMI", "name": "Champaign/Urbana University of Illinois Willard", "shortName": "University of Illinois Willard", "municipalityName": "Champaign/Urbana", "location": {"lat": 40.0392, "lon": -88.2781}, "countryCode": "US"}, "averageDailyFlights": 0.57, "operators": [{"name": "RDN"}, {"name": "PJC"}]}, {"destination": {"icao": "KDCA", "iata": "DCA", "name": "District of Columbia Ronald Reagan Washington National", "shortName": "Ronald Reagan Washington National", "municipalityName": "District of Columbia", "location": {"lat": 38.8521, "lon": -77.0377}, "countryCode": "US"}, "averageDailyFlights": 0.57, "operators": [{"name": "JetBlue Airways", "iata": "B6", "icao": "JBU"}, {"name": "American Airlines", "iata": "AA", "icao": "AAL"}, {"name": "Delta Air Lines", "iata": "DL", "icao": "DAL"}, {"name": "NetJets Aviation", "iata": "1I", "icao": "EJA"}]}, {"destination": {"icao": "MWCR", "iata": "GCM", "name": "Georgetown Owen Roberts", "shortName": "Owen Roberts", "municipalityName": "Georgetown", "location": {"lat": 19.2928, "lon": -81.3577}, "countryCode": "KY"}, "averageDailyFlights": 0.57, "operators": [{"name": "United Airlines", "iata": "UA", "icao": "UAL"}]}, {"destination": {"icao": "KGSO", "iata": "GSO", "name": "Greensboro Piedmont Triad", "shortName": "Piedmont Triad", "municipalityName": "Greensboro", "location": {"lat": 36.0978, "lon": -79.9373}, "countryCode": "US"}, "averageDailyFlights": 0.57, "operators": [{"name": "TMB"}, {"name": "VJA"}, {"name": "NetJets Aviation", "iata": "1I", "icao": "EJA"}]}, {"destination": {"icao": "KHOT", "iata": "HOT", "name": "Hot Springs Memorial Field", "shortName": "Memorial Field", "municipalityName": "Hot Springs", "location": {"lat": 34.478, "lon": -93.0962}, "countryCode": "US"}, "averageDailyFlights": 0.57, "operators": [{"name": "TIV"}, {"name": "SVL"}]}, {"destination": {"icao": "KEYW", "iata": "EYW", "name": "Key West ", "shortName": "Key West", "municipalityName": "Key West", "location": {"lat": 24.5561, "lon": -81.7596}, "countryCode": "US"}, "averageDailyFlights": 0.57, "operators": [{"name": "WUP"}]}, {"destination": {"icao": "KLEX", "iata": "LEX", "name": "Lexington Blue Grass", "shortName": "Blue Grass", "municipalityName": "Lexington", "location": {"lat": 38.0365, "lon": -84.6059}, "countryCode": "US"}, "averageDailyFlights": 0.57, "operators": [{"name": "DCM"}, {"name": "NetJets Aviation", "iata": "1I", "icao": "EJA"}]}, {"destination": {"icao": "LEMD", "iata": "MAD", "name": "Madrid Adolfo Su\u00e1rez \u2013Barajas", "shortName": "Adolfo Su\u00e1rez \u2013Barajas", "municipalityName": "Madrid", "location": {"lat": 40.4936, "lon": -3.56676}, "countryCode": "ES"}, "averageDailyFlights": 0.57, "operators": [{"name": "Iberia", "iata": "IB", "icao": "IBE"}]}, {"destination": {"icao": "KJFK", "iata": "JFK", "name": "New York John F Kennedy", "shortName": "John F Kennedy", "municipalityName": "New York", "location": {"lat": 40.6398, "lon": -73.7789}, "countryCode": "US"}, "averageDailyFlights": 0.57, "operators": [{"name": "CYC"}, {"name": "Jet Linx Aviation", "iata": "JL", "icao": "JTL"}, {"name": "NetJets Aviation", "iata": "1I", "icao": "EJA"}]}, {"destination": {"icao": "KISM", "iata": "ISM", "name": "Orlando Kissimmee Gateway", "shortName": "Kissimmee Gateway", "municipalityName": "Orlando", "location": {"lat": 28.2898, "lon": -81.4371}, "countryCode": "US"}, "averageDailyFlights": 0.57, "operators": [{"name": "NetJets Aviation", "iata": "1I", "icao": "EJA"}, {"name": "LXJ"}]}, {"destination": {"icao": "KBFI", "iata": "BFI", "name": "Seattle Boeing Field King County", "shortName": "Boeing Field King County", "municipalityName": "Seattle", "location": {"lat": 47.53, "lon": -122.302}, "countryCode": "US"}, "averageDailyFlights": 0.57, "operators": [{"name": "RDN"}, {"name": "EJM"}, {"name": "LXJ"}]}, {"destination": {"icao": "KAIK", "iata": "AIK", "name": "Aiken Municipal", "shortName": "Municipal", "municipalityName": "Aiken", "location": {"lat": 33.6494, "lon": -81.685}, "countryCode": "US"}, "averageDailyFlights": 0.43, "operators": [{"name": "ASP"}, {"name": "TMB"}]}, {"destination": {"icao": "KCAK", "iata": "CAK", "name": "Akron Canton Regional", "shortName": "Canton Regional", "municipalityName": "Akron", "location": {"lat": 40.9161, "lon": -81.4422}, "countryCode": "US"}, "averageDailyFlights": 0.43, "operators": [{"name": "ELZ"}, {"name": "Ultimate Air Shuttle", "iata": "UE", "icao": "UJC"}]}, {"destination": {"icao": "OJAI", "iata": "AMM", "name": "Amman Queen Alia", "shortName": "Queen Alia", "municipalityName": "Amman", "location": {"lat": 31.7226, "lon": 35.9932}, "countryCode": "JO"}, "averageDailyFlights": 0.43, "operators": [{"name": "United Airlines", "iata": "UA", "icao": "UAL"}]}, {"destination": {"icao": "KBXM", "iata": "NHZ", "name": "Brunswick Executive", "shortName": "Executive", "municipalityName": "Brunswick", "location": {"lat": 43.8922, "lon": -69.9386}, "countryCode": "US"}, "averageDailyFlights": 0.43, "operators": [{"name": "JTZ"}]}, {"destination": {"icao": "HECA", "iata": "CAI", "name": "Cairo ", "shortName": "Cairo", "municipalityName": "Cairo", "location": {"lat": 30.1219, "lon": 31.4056}, "countryCode": "EG"}, "averageDailyFlights": 0.43, "operators": [{"name": "EgyptAir", "iata": "MS", "icao": "MSR"}]}, {"destination": {"icao": "FACT", "iata": "CPT", "name": "Cape Town ", "shortName": "Cape Town", "municipalityName": "Cape Town", "location": {"lat": -33.9648, "lon": 18.6017}, "countryCode": "ZA"}, "averageDailyFlights": 0.43, "operators": [{"name": "United Airlines", "iata": "UA", "icao": "UAL"}]}, {"destination": {"icao": "KAPA", "iata": "APA", "name": "Denver Centennial", "shortName": "Centennial", "municipalityName": "Denver", "location": {"lat": 39.5701, "lon": -104.849}, "countryCode": "US"}, "averageDailyFlights": 0.43, "operators": [{"name": "NetJets Aviation", "iata": "1I", "icao": "EJA"}, {"name": "FTH"}, {"name": "TWY"}]}, {"destination": {"icao": "KFAR", "iata": "FAR", "name": "Fargo Hector", "shortName": "Hector", "municipalityName": "Fargo", "location": {"lat": 46.9207, "lon": -96.8158}, "countryCode": "US"}, "averageDailyFlights": 0.43, "operators": [{"name": "Libyan Airlines", "iata": "LN", "icao": "LAA"}]}, {"destination": {"icao": "KJAX", "iata": "JAX", "name": "Jacksonville ", "shortName": "Jacksonville", "municipalityName": "Jacksonville", "location": {"lat": 30.4941, "lon": -81.6879}, "countryCode": "US"}, "averageDailyFlights": 0.43, "operators": [{"name": "EJM"}, {"name": "Allegiant Air", "iata": "G4", "icao": "AAY"}]}, {"destination": {"icao": "DNMM", "iata": "LOS", "name": "Lagos Murtala Muhammed", "shortName": "Murtala Muhammed", "municipalityName": "Lagos", "location": {"lat": 6.57737, "lon": 3.32116}, "countryCode": "NG"}, "averageDailyFlights": 0.43, "operators": [{"name": "United Airlines", "iata": "UA", "icao": "UAL"}]}, {"destination": {"icao": "DXXX", "iata": "LFW", "name": "Lom\u00e9 -Tokoin", "shortName": "-Tokoin", "municipalityName": "Lom\u00e9", "location": {"lat": 6.165609, "lon": 1.25451}, "countryCode": "TG"}, "averageDailyFlights": 0.43, "operators": [{"name": "Ethiopian Airlines", "iata": "ET", "icao": "ETH"}]}, {"destination": {"icao": "KMKY", "iata": "MRK", "name": "Marco Island ", "shortName": "Marco Island", "municipalityName": "Marco Island", "location": {"lat": 25.995, "lon": -81.6725}, "countryCode": "US"}, "averageDailyFlights": 0.43, "operators": [{"name": "NetJets Aviation", "iata": "1I", "icao": "EJA"}, {"name": "JRE"}]}, {"destination": {"icao": "KMKE", "iata": "MKE", "name": "Milwaukee General Mitchell", "shortName": "General Mitchell", "municipalityName": "Milwaukee", "location": {"lat": 42.9472, "lon": -87.8966}, "countryCode": "US"}, "averageDailyFlights": 0.43, "operators": [{"name": "NetJets Aviation", "iata": "1I", "icao": "EJA"}, {"name": "Delta Air Lines", "iata": "DL", "icao": "DAL"}, {"name": "LKF"}]}, {"destination": {"icao": "KHVN", "iata": "HVN", "name": "New Haven Tweed", "shortName": "Tweed", "municipalityName": "New Haven", "location": {"lat": 41.2637, "lon": -72.8868}, "countryCode": "US"}, "averageDailyFlights": 0.43, "operators": [{"name": "NetJets Aviation", "iata": "1I", "icao": "EJA"}]}, {"destination": {"icao": "KSOP", "iata": "SOP", "name": "Pinehurst/Southern Pines Moore County", "shortName": "Moore County", "municipalityName": "Pinehurst/Southern Pines", "location": {"lat": 35.2374, "lon": -79.3912}, "countryCode": "US"}, "averageDailyFlights": 0.43, "operators": [{"name": "NetJets Aviation", "iata": "1I", "icao": "EJA"}, {"name": "LXJ"}]}, {"destination": {"icao": "OERK", "iata": "RUH", "name": "Riyadh King Khaled", "shortName": "King Khaled", "municipalityName": "Riyadh", "location": {"lat": 24.9576, "lon": 46.6988}, "countryCode": "SA"}, "averageDailyFlights": 0.43, "operators": [{"name": "Saudi Arabian Airlines", "iata": "SV", "icao": "SVA"}]}, {"destination": {"icao": "MROC", "iata": "SJO", "name": "San Jos\u00e9 Juan Santamaria", "shortName": "Juan Santamaria", "municipalityName": "San Jos\u00e9", "location": {"lat": 9.99386, "lon": -84.2088}, "countryCode": "CR"}, "averageDailyFlights": 0.43, "operators": [{"name": "United Airlines", "iata": "UA", "icao": "UAL"}]}, {"destination": {"icao": "KILG", "iata": "ILG", "name": "Wilmington New Castle", "shortName": "New Castle", "municipalityName": "Wilmington", "location": {"lat": 39.6787, "lon": -75.6065}, "countryCode": "US"}, "averageDailyFlights": 0.43, "operators": [{"name": "PJC"}, {"name": "NetJets Aviation", "iata": "1I", "icao": "EJA"}, {"name": "FTH"}]}, {"destination": {"icao": "KINT", "iata": "INT", "name": "Winston-Salem Smith Reynolds", "shortName": "Smith Reynolds", "municipalityName": "Winston-Salem", "location": {"lat": 36.1337, "lon": -80.222}, "countryCode": "US"}, "averageDailyFlights": 0.43, "operators": [{"name": "Libyan Airlines", "iata": "LN", "icao": "LAA"}]}, {"destination": {"icao": "KCRG", "iata": "CRG", "name": "Jacksonville Executive at Craig", "shortName": "Executive at Craig", "municipalityName": "Jacksonville", "location": {"lat": 30.3363, "lon": -81.5144}, "countryCode": "US"}, "averageDailyFlights": 0.36, "operators": [{"name": "NetJets Aviation", "iata": "1I", "icao": "EJA"}, {"name": "United Airlines", "iata": "UA", "icao": "UAL"}]}, {"destination": {"icao": "TBPB", "iata": "BGI", "name": "Bridgetown Sir Grantley Adams", "shortName": "Sir Grantley Adams", "municipalityName": "Bridgetown", "location": {"lat": 13.0746, "lon": -59.4925}, "countryCode": "BB"}, "averageDailyFlights": 0.29, "operators": [{"name": "United Airlines", "iata": "UA", "icao": "UAL"}]}, {"destination": {"icao": "KLUK", "iata": "LUK", "name": "Cincinnati Municipal  Lunken Field", "shortName": "Municipal  Lunken Field", "municipalityName": "Cincinnati", "location": {"lat": 39.1033, "lon": -84.4186}, "countryCode": "US"}, "averageDailyFlights": 0.29, "operators": [{"name": "HER"}, {"name": "NetJets Aviation", "iata": "1I", "icao": "EJA"}]}, {"destination": {"icao": "KCEU", "iata": "CEU", "name": "Clemson Oconee County Regional", "shortName": "Oconee County Regional", "municipalityName": "Clemson", "location": {"lat": 34.6719, "lon": -82.8865}, "countryCode": "US"}, "averageDailyFlights": 0.29, "operators": [{"name": "NetJets Aviation", "iata": "1I", "icao": "EJA"}, {"name": "COL"}]}, {"destination": {"icao": "KDTS", "iata": "DSI", "name": "Destin Fort Walton Beach", "shortName": "Fort Walton Beach", "municipalityName": "Destin", "location": {"lat": 30.4001, "lon": -86.4715}, "countryCode": "US"}, "averageDailyFlights": 0.29, "operators": [{"name": "PRE"}]}, {"destination": {"icao": "KEGE", "iata": "EGE", "name": "Eagle County Regional", "shortName": "County Regional", "municipalityName": "Eagle", "location": {"lat": 39.6426, "lon": -106.918}, "countryCode": "US"}, "averageDailyFlights": 0.29, "operators": [{"name": "HER"}, {"name": "KOW"}]}, {"destination": {"icao": "KELM", "iata": "ELM", "name": "Elmira/Corning Elmira Corning Regional", "shortName": "Elmira Corning Regional", "municipalityName": "Elmira/Corning", "location": {"lat": 42.1599, "lon": -76.8916}, "countryCode": "US"}, "averageDailyFlights": 0.29, "operators": [{"name": "NetJets Aviation", "iata": "1I", "icao": "EJA"}]}, {"destination": {"icao": "KFXE", "iata": "FXE", "name": "Fort Lauderdale Executive", "shortName": "Executive", "municipalityName": "Fort Lauderdale", "location": {"lat": 26.197298, "lon": -80.1707}, "countryCode": "US"}, "averageDailyFlights": 0.29, "operators": [{"name": "NetJets Aviation", "iata": "1I", "icao": "EJA"}]}, {"destination": {"icao": "KFDK", "iata": "FDK", "name": "Frederick Municipal", "shortName": "Municipal", "municipalityName": "Frederick", "location": {"lat": 39.4176, "lon": -77.3743}, "countryCode": "US"}, "averageDailyFlights": 0.29, "operators": [{"name": "NetJets Aviation", "iata": "1I", "icao": "EJA"}, {"name": "Jet Linx Aviation", "iata": "JL", "icao": "JTL"}]}, {"destination": {"icao": "KHXD", "iata": "HHH", "name": "Hilton Head ", "shortName": "Hilton Head", "municipalityName": "Hilton Head", "location": {"lat": 32.2244, "lon": -80.6975}, "countryCode": "US"}, "averageDailyFlights": 0.29, "operators": [{"name": "NetJets Aviation", "iata": "1I", "icao": "EJA"}, {"name": "Jet Linx Aviation", "iata": "JL", "icao": "JTL"}]}, {"destination": {"icao": "07FA", "iata": "OCA", "name": "Key Largo Ocean Reef Club", "shortName": "Ocean Reef Club", "municipalityName": "Key Largo", "location": {"lat": 25.3254, "lon": -80.2748}, "countryCode": "US"}, "averageDailyFlights": 0.29, "operators": [{"name": "LXJ"}, {"name": "NetJets Aviation", "iata": "1I", "icao": "EJA"}]}, {"destination": {"icao": "KISO", "iata": "ISO", "name": "Kinston Regional Jetport At Stallings Field", "shortName": "Regional Jetport At Stallings Field", "municipalityName": "Kinston", "location": {"lat": 35.3314, "lon": -77.6088}, "countryCode": "US"}, "averageDailyFlights": 0.29, "operators": [{"name": "JRE"}]}, {"destination": {"icao": "KLEB", "iata": "LEB", "name": "Lebanon Municipal", "shortName": "Municipal", "municipalityName": "Lebanon", "location": {"lat": 43.6261, "lon": -72.3042}, "countryCode": "US"}, "averageDailyFlights": 0.29, "operators": [{"name": "PJC"}]}, {"destination": {"icao": "MYAM", "iata": "MHH", "name": "Marsh Harbour ", "shortName": "Marsh Harbour", "municipalityName": "Marsh Harbour", "location": {"lat": 26.5114, "lon": -77.0835}, "countryCode": "BS"}, "averageDailyFlights": 0.29, "operators": [{"name": "LXJ"}]}, {"destination": {"icao": "KAPC", "iata": "APC", "name": "Napa County", "shortName": "County", "municipalityName": "Napa", "location": {"lat": 38.2132, "lon": -122.281}, "countryCode": "US"}, "averageDailyFlights": 0.29, "operators": [{"name": "VJA"}]}, {"destination": {"icao": "KOAK", "iata": "OAK", "name": "Oakland Metropolitan", "shortName": "Metropolitan", "municipalityName": "Oakland", "location": {"lat": 37.7213, "lon": -122.221}, "countryCode": "US"}, "averageDailyFlights": 0.29, "operators": [{"name": "Southwest Airlines", "iata": "WN", "icao": "SWA"}]}, {"destination": {"icao": "KOMA", "iata": "OMA", "name": "Omaha Eppley Airfield", "shortName": "Eppley Airfield", "municipalityName": "Omaha", "location": {"lat": 41.3032, "lon": -95.8941}, "countryCode": "US"}, "averageDailyFlights": 0.29, "operators": [{"name": "NetJets Aviation", "iata": "1I", "icao": "EJA"}]}, {"destination": {"icao": "CYQB", "iata": "YQB", "name": "Quebec Jean Lesage", "shortName": "Jean Lesage", "municipalityName": "Quebec", "location": {"lat": 46.7911, "lon": -71.3933}, "countryCode": "CA"}, "averageDailyFlights": 0.29, "operators": [{"name": "United Airlines", "iata": "UA", "icao": "UAL"}, {"name": "FSY"}]}, {"destination": {"icao": "KSLN", "iata": "SLN", "name": "Salina Municipal", "shortName": "Municipal", "municipalityName": "Salina", "location": {"lat": 38.791, "lon": -97.6522}, "countryCode": "US"}, "averageDailyFlights": 0.29, "operators": [{"name": "NetJets Aviation", "iata": "1I", "icao": "EJA"}, {"name": "ASP"}]}, {"destination": {"icao": "KSAN", "iata": "SAN", "name": "San Diego ", "shortName": "San Diego", "municipalityName": "San Diego", "location": {"lat": 32.7336, "lon": -117.19}, "countryCode": "US"}, "averageDailyFlights": 0.29, "operators": [{"name": "VJA"}]}, {"destination": {"icao": "KNZY", "iata": "NZY", "name": "San Diego North Island Naval Air Station-Halsey Field", "shortName": "North Island Naval Air Station-Halsey Field", "municipalityName": "San Diego", "location": {"lat": 32.6992, "lon": -117.215}, "countryCode": "US"}, "averageDailyFlights": 0.29, "operators": [{"name": "United Airlines", "iata": "UA", "icao": "UAL"}, {"name": "Alaska Airlines", "iata": "AS", "icao": "ASA"}]}, {"destination": {"icao": "KSBN", "iata": "SBN", "name": "South Bend Regional", "shortName": "Regional", "municipalityName": "South Bend", "location": {"lat": 41.7087, "lon": -86.3173}, "countryCode": "US"}, "averageDailyFlights": 0.29, "operators": [{"name": "NetJets Aviation", "iata": "1I", "icao": "EJA"}, {"name": "LXJ"}]}, {"destination": {"icao": "KRBW", "iata": "RBW", "name": "Walterboro Lowcountry Regional", "shortName": "Lowcountry Regional", "municipalityName": "Walterboro", "location": {"lat": 32.921, "lon": -80.6406}, "countryCode": "US"}, "averageDailyFlights": 0.29, "operators": [{"name": "LAK"}]}, {"destination": {"name": "Gran-Kayman"}, "averageDailyFlights": 0.29, "operators": [{"name": "United Airlines", "iata": "UA", "icao": "UAL"}]}, {"destination": {"icao": "KATW", "iata": "ATW", "name": "Appleton ", "shortName": "Appleton", "municipalityName": "Appleton", "location": {"lat": 44.2581, "lon": -88.5191}, "countryCode": "US"}, "averageDailyFlights": 0.14, "operators": [{"name": "LXJ"}]}, {"destination": {"icao": "KBGR", "iata": "BGR", "name": "Bangor ", "shortName": "Bangor", "municipalityName": "Bangor", "location": {"lat": 44.8074, "lon": -68.8281}, "countryCode": "US"}, "averageDailyFlights": 0.14, "operators": [{"name": "NetJets Aviation", "iata": "1I", "icao": "EJA"}]}, {"destination": {"icao": "KBLM", "iata": "BLM", "name": "Belmar/Farmingdale Monmouth Executive", "shortName": "Monmouth Executive", "municipalityName": "Belmar/Farmingdale", "location": {"lat": 40.1869, "lon": -74.1249}, "countryCode": "US"}, "averageDailyFlights": 0.14, "operators": [{"name": "NetJets Aviation", "iata": "1I", "icao": "EJA"}]}, {"destination": {"icao": "KBGM", "iata": "BGM", "name": "Binghamton Edwin A Link field", "shortName": "Edwin A Link field", "municipalityName": "Binghamton", "location": {"lat": 42.2087, "lon": -75.9798}, "countryCode": "US"}, "averageDailyFlights": 0.14, "operators": [{"name": "EJM"}]}, {"destination": {"icao": "KBHM", "iata": "BHM", "name": "Birmingham -Shuttlesworth", "shortName": "-Shuttlesworth", "municipalityName": "Birmingham", "location": {"lat": 33.5629, "lon": -86.7535}, "countryCode": "US"}, "averageDailyFlights": 0.14, "operators": [{"name": "NetJets Aviation", "iata": "1I", "icao": "EJA"}]}, {"destination": {"icao": "KBCB", "iata": "BCB", "name": "Blacksburg Virginia Tech Montgomery Executive", "shortName": "Virginia Tech Montgomery Executive", "municipalityName": "Blacksburg", "location": {"lat": 37.2076, "lon": -80.4078}, "countryCode": "US"}, "averageDailyFlights": 0.14, "operators": [{"name": "LXJ"}]}, {"destination": {"icao": "KBDR", "iata": "BDR", "name": "Bridgeport Igor I Sikorsky Memorial", "shortName": "Igor I Sikorsky Memorial", "municipalityName": "Bridgeport", "location": {"lat": 41.1635, "lon": -73.1262}, "countryCode": "US"}, "averageDailyFlights": 0.14, "operators": [{"name": "NetJets Aviation", "iata": "1I", "icao": "EJA"}]}, {"destination": {"icao": "KCRQ", "iata": "CLD", "name": "Carlsbad Mc Clellan-Palomar", "shortName": "Mc Clellan-Palomar", "municipalityName": "Carlsbad", "location": {"lat": 33.1283, "lon": -117.28}, "countryCode": "US"}, "averageDailyFlights": 0.14, "operators": [{"name": "EJM"}]}, {"destination": {"icao": "KRFD", "iata": "RFD", "name": "Chicago/Rockford Chicago Rockford", "shortName": "Chicago Rockford", "municipalityName": "Chicago/Rockford", "location": {"lat": 42.1954, "lon": -89.0972}, "countryCode": "US"}, "averageDailyFlights": 0.14, "operators": [{"name": "NetJets Aviation", "iata": "1I", "icao": "EJA"}]}, {"destination": {"icao": "KCGF", "iata": "CGF", "name": "Cleveland Cuyahoga County", "shortName": "Cuyahoga County", "municipalityName": "Cleveland", "location": {"lat": 41.5651, "lon": -81.4864}, "countryCode": "US"}, "averageDailyFlights": 0.14, "operators": [{"name": "OPT"}]}, {"destination": {"icao": "KMQS", "iata": "CTH", "name": "Coatesville Chester County G O Carlson", "shortName": "Chester County G O Carlson", "municipalityName": "Coatesville", "location": {"lat": 39.979, "lon": -75.8655}, "countryCode": "US"}, "averageDailyFlights": 0.14, "operators": [{"name": "NetJets Aviation", "iata": "1I", "icao": "EJA"}]}, {"destination": {"icao": "KADS", "iata": "ADS", "name": "Dallas Addison", "shortName": "Addison", "municipalityName": "Dallas", "location": {"lat": 32.9686, "lon": -96.8364}, "countryCode": "US"}, "averageDailyFlights": 0.14, "operators": [{"name": "RDN"}]}, {"destination": {"icao": "KIAD", "iata": "IAD", "name": "District of Columbia Washington Dulles", "shortName": "Washington Dulles", "municipalityName": "District of Columbia", "location": {"lat": 38.9445, "lon": -77.4558}, "countryCode": "US"}, "averageDailyFlights": 0.14, "operators": [{"name": "CommutAir", "iata": "C5", "icao": "UCA"}]}, {"destination": {"icao": "KELP", "iata": "ELP", "name": "El Paso ", "shortName": "El Paso", "municipalityName": "El Paso", "location": {"lat": 31.8072, "lon": -106.378}, "countryCode": "US"}, "averageDailyFlights": 0.14, "operators": [{"name": "Omni Air International", "iata": "OY", "icao": "OAE"}]}, {"destination": {"icao": "KEDN", "iata": "ETS", "name": "Enterprise Municipal", "shortName": "Municipal", "municipalityName": "Enterprise", "location": {"lat": 31.2997, "lon": -85.8999}, "countryCode": "US"}, "averageDailyFlights": 0.14, "operators": [{"name": "NetJets Aviation", "iata": "1I", "icao": "EJA"}]}, {"destination": {"icao": "KPAE", "iata": "PAE", "name": "Everett Snohomish County (Paine Field)", "shortName": "Snohomish County (Paine Field)", "municipalityName": "Everett", "location": {"lat": 47.9063, "lon": -122.282}, "countryCode": "US"}, "averageDailyFlights": 0.14, "operators": [{"name": "JCY"}]}, {"destination": {"icao": "KFHB", "iata": "FHB", "name": "Fernandina Beach Municipal", "shortName": "Municipal", "municipalityName": "Fernandina Beach", "location": {"lat": 30.6118, "lon": -81.4612}, "countryCode": "US"}, "averageDailyFlights": 0.14, "operators": [{"name": "GGW"}]}, {"destination": {"icao": "KGAI", "iata": "GAI", "name": "Gaithersburg Montgomery County Airpark", "shortName": "Montgomery County Airpark", "municipalityName": "Gaithersburg", "location": {"lat": 39.1683, "lon": -77.166}, "countryCode": "US"}, "averageDailyFlights": 0.14, "operators": [{"name": "CNS"}]}, {"destination": {"icao": "KGYY", "iata": "GYY", "name": "Gary Chicago", "shortName": "Chicago", "municipalityName": "Gary", "location": {"lat": 41.6163, "lon": -87.4128}, "countryCode": "US"}, "averageDailyFlights": 0.14, "operators": [{"name": "RDN"}]}, {"destination": {"icao": "KGGE", "iata": "GGE", "name": "Georgetown County", "shortName": "County", "municipalityName": "Georgetown", "location": {"lat": 33.3117, "lon": -79.3196}, "countryCode": "US"}, "averageDailyFlights": 0.14, "operators": [{"name": "NetJets Aviation", "iata": "1I", "icao": "EJA"}]}, {"destination": {"icao": "KGRR", "iata": "GRR", "name": "Grand Rapids Gerald R. Ford", "shortName": "Gerald R. Ford", "municipalityName": "Grand Rapids", "location": {"lat": 42.8808, "lon": -85.5228}, "countryCode": "US"}, "averageDailyFlights": 0.14, "operators": [{"name": "NJM"}]}, {"destination": {"icao": "KPGV", "iata": "PGV", "name": "Greenville Pitt", "shortName": "Pitt", "municipalityName": "Greenville", "location": {"lat": 35.6352, "lon": -77.3853}, "countryCode": "US"}, "averageDailyFlights": 0.14, "operators": [{"name": "NetJets Aviation", "iata": "1I", "icao": "EJA"}]}, {"destination": {"icao": "KMDT", "iata": "MDT", "name": "Harrisburg ", "shortName": "Harrisburg", "municipalityName": "Harrisburg", "location": {"lat": 40.1935, "lon": -76.7634}, "countryCode": "US"}, "averageDailyFlights": 0.14, "operators": [{"name": "NetJets Aviation", "iata": "1I", "icao": "EJA"}]}, {"destination": {"icao": "KPIB", "iata": "PIB", "name": "Hattiesburg/Laurel Hattiesburg Laurel Regional", "shortName": "Hattiesburg Laurel Regional", "municipalityName": "Hattiesburg/Laurel", "location": {"lat": 31.4671, "lon": -89.3371}, "countryCode": "US"}, "averageDailyFlights": 0.14, "operators": [{"name": "NetJets Aviation", "iata": "1I", "icao": "EJA"}]}, {"destination": {"icao": "KHDN", "iata": "HDN", "name": "Hayden Yampa Valley", "shortName": "Yampa Valley", "municipalityName": "Hayden", "location": {"lat": 40.4812, "lon": -107.218}, "countryCode": "US"}, "averageDailyFlights": 0.14, "operators": [{"name": "JRE"}]}, {"destination": {"icao": "KHOU", "iata": "HOU", "name": "Houston William P Hobby", "shortName": "William P Hobby", "municipalityName": "Houston", "location": {"lat": 29.6454, "lon": -95.2789}, "countryCode": "US"}, "averageDailyFlights": 0.14, "operators": [{"name": "Southwest Airlines", "iata": "WN", "icao": "SWA"}]}, {"destination": {"icao": "KSGR", "iata": "SGR", "name": "Houston Sugar Land Regional", "shortName": "Sugar Land Regional", "municipalityName": "Houston", "location": {"lat": 29.6223, "lon": -95.6565}, "countryCode": "US"}, "averageDailyFlights": 0.14, "operators": [{"name": "EJM"}]}, {"destination": {"icao": "KHYA", "iata": "HYA", "name": "Hyannis Barnstable Municipal Boardman Polando Field", "shortName": "Barnstable Municipal Boardman Polando Field", "municipalityName": "Hyannis", "location": {"lat": 41.6693, "lon": -70.2804}, "countryCode": "US"}, "averageDailyFlights": 0.14, "operators": [{"name": "NetJets Aviation", "iata": "1I", "icao": "EJA"}]}, {"destination": {"icao": "KJEF", "iata": "JEF", "name": "Jefferson City Memorial", "shortName": "Memorial", "municipalityName": "Jefferson City", "location": {"lat": 38.5912, "lon": -92.1561}, "countryCode": "US"}, "averageDailyFlights": 0.14, "operators": [{"name": "NetJets Aviation", "iata": "1I", "icao": "EJA"}]}, {"destination": {"icao": "KLBE", "iata": "LBE", "name": "Latrobe Arnold Palmer Regional", "shortName": "Arnold Palmer Regional", "municipalityName": "Latrobe", "location": {"lat": 40.2759, "lon": -79.4048}, "countryCode": "US"}, "averageDailyFlights": 0.14, "operators": [{"name": "NetJets Aviation", "iata": "1I", "icao": "EJA"}]}, {"destination": {"icao": "KLWM", "iata": "LWM", "name": "Lawrence Municipal", "shortName": "Municipal", "municipalityName": "Lawrence", "location": {"lat": 42.7172, "lon": -71.1234}, "countryCode": "US"}, "averageDailyFlights": 0.14, "operators": [{"name": "WDY"}]}, {"destination": {"icao": "KLZU", "iata": "LZU", "name": "Lawrenceville Gwinnett County Briscoe Field", "shortName": "Gwinnett County Briscoe Field", "municipalityName": "Lawrenceville", "location": {"lat": 33.9781, "lon": -83.9624}, "countryCode": "US"}, "averageDailyFlights": 0.14, "operators": [{"name": "NetJets Aviation", "iata": "1I", "icao": "EJA"}]}, {"destination": {"icao": "KLIT", "iata": "LIT", "name": "Little Rock Adams Field", "shortName": "Adams Field", "municipalityName": "Little Rock", "location": {"lat": 34.7294, "lon": -92.2243}, "countryCode": "US"}, "averageDailyFlights": 0.14, "operators": [{"name": "LXJ"}]}, {"destination": {"icao": "KLYH", "iata": "LYH", "name": "Lynchburg Regional Preston Glenn Field", "shortName": "Regional Preston Glenn Field", "municipalityName": "Lynchburg", "location": {"lat": 37.3267, "lon": -79.2004}, "countryCode": "US"}, "averageDailyFlights": 0.14, "operators": [{"name": "EJM"}]}, {"destination": {"icao": "KMQI", "iata": "MEO", "name": "Manteo Dare County Regional", "shortName": "Dare County Regional", "municipalityName": "Manteo", "location": {"lat": 35.919, "lon": -75.6955}, "countryCode": "US"}, "averageDailyFlights": 0.14, "operators": [{"name": "CYC"}]}, {"destination": {"icao": "KMFV", "iata": "MFV", "name": "Melfa Accomack County", "shortName": "Accomack County", "municipalityName": "Melfa", "location": {"lat": 37.6469, "lon": -75.7611}, "countryCode": "US"}, "averageDailyFlights": 0.14, "operators": [{"name": "NetJets Aviation", "iata": "1I", "icao": "EJA"}]}, {"destination": {"icao": "KMOB", "iata": "MOB", "name": "Mobile Regional", "shortName": "Regional", "municipalityName": "Mobile", "location": {"lat": 30.6912, "lon": -88.2428}, "countryCode": "US"}, "averageDailyFlights": 0.14, "operators": [{"name": "Ultimate Air Shuttle", "iata": "UE", "icao": "UJC"}]}, {"destination": {"icao": "KMGM", "iata": "MGM", "name": "Montgomery Regional (Dannelly Field)", "shortName": "Regional (Dannelly Field)", "municipalityName": "Montgomery", "location": {"lat": 32.3006, "lon": -86.394}, "countryCode": "US"}, "averageDailyFlights": 0.14, "operators": [{"name": "WUP"}]}, {"destination": {"icao": "CYHU", "iata": "YHU", "name": "Montreal Saint-Hubert", "shortName": "Saint-Hubert", "municipalityName": "Montreal", "location": {"lat": 45.5175, "lon": -73.4169}, "countryCode": "CA"}, "averageDailyFlights": 0.14, "operators": [{"name": "Sun Country Airlines", "iata": "SY", "icao": "SCX"}]}, {"destination": {"icao": "KSWF", "iata": "SWF", "name": "Newburgh Stewart", "shortName": "Stewart", "municipalityName": "Newburgh", "location": {"lat": 41.5041, "lon": -74.1048}, "countryCode": "US"}, "averageDailyFlights": 0.14, "operators": [{"name": "NetJets Aviation", "iata": "1I", "icao": "EJA"}]}, {"destination": {"icao": "KOGS", "iata": "OGS", "name": "Ogdensburg ", "shortName": "Ogdensburg", "municipalityName": "Ogdensburg", "location": {"lat": 44.6819, "lon": -75.4655}, "countryCode": "US"}, "averageDailyFlights": 0.14, "operators": [{"name": "SDU"}]}, {"destination": {"icao": "KECP", "iata": "ECP", "name": "Panama City Beach Northwest Florida Beaches", "shortName": "Northwest Florida Beaches", "municipalityName": "Panama City Beach", "location": {"lat": 30.3417, "lon": -85.7973}, "countryCode": "US"}, "averageDailyFlights": 0.14, "operators": [{"name": "NetJets Aviation", "iata": "1I", "icao": "EJA"}]}, {"destination": {"icao": "KAGC", "iata": "AGC", "name": "Pittsburgh Allegheny County", "shortName": "Allegheny County", "municipalityName": "Pittsburgh", "location": {"lat": 40.3544, "lon": -79.9302}, "countryCode": "US"}, "averageDailyFlights": 0.14, "operators": [{"name": "MLN"}]}, {"destination": {"icao": "KPSM", "iata": "PSM", "name": "Portsmouth at Pease", "shortName": "at Pease", "municipalityName": "Portsmouth", "location": {"lat": 43.0779, "lon": -70.8233}, "countryCode": "US"}, "averageDailyFlights": 0.14, "operators": [{"name": "NetJets Aviation", "iata": "1I", "icao": "EJA"}]}, {"destination": {"icao": "KPOU", "iata": "POU", "name": "Poughkeepsie Dutchess County", "shortName": "Dutchess County", "municipalityName": "Poughkeepsie", "location": {"lat": 41.6266, "lon": -73.8842}, "countryCode": "US"}, "averageDailyFlights": 0.14, "operators": [{"name": "DLX"}]}, {"destination": {"icao": "KRST", "iata": "RST", "name": "Rochester ", "shortName": "Rochester", "municipalityName": "Rochester", "location": {"lat": 43.9083, "lon": -92.5}, "countryCode": "US"}, "averageDailyFlights": 0.14, "operators": [{"name": "NetJets Aviation", "iata": "1I", "icao": "EJA"}]}, {"destination": {"icao": "LIRA", "iata": "CIA", "name": "Roma Ciampino\u2013G. B. Pastine", "shortName": "Ciampino\u2013G. B. Pastine", "municipalityName": "Roma", "location": {"lat": 41.7994, "lon": 12.5949}, "countryCode": "IT"}, "averageDailyFlights": 0.14, "operators": [{"name": "EJM"}]}, {"destination": {"icao": "KSJC", "iata": "SJC", "name": "San Jose Norman Y. Mineta", "shortName": "Norman Y. Mineta", "municipalityName": "San Jose", "location": {"lat": 37.3626, "lon": -121.929}, "countryCode": "US"}, "averageDailyFlights": 0.14, "operators": [{"name": "EJM"}]}, {"destination": {"icao": "KSBA", "iata": "SBA", "name": "Santa Barbara Municipal", "shortName": "Municipal", "municipalityName": "Santa Barbara", "location": {"lat": 34.4262, "lon": -119.84}, "countryCode": "US"}, "averageDailyFlights": 0.14, "operators": [{"name": "EJM"}]}, {"destination": {"icao": "KSLK", "iata": "SLK", "name": "Saranac Lake Adirondack Regional", "shortName": "Adirondack Regional", "municipalityName": "Saranac Lake", "location": {"lat": 44.3853, "lon": -74.2062}, "countryCode": "US"}, "averageDailyFlights": 0.14, "operators": [{"name": "NetJets Aviation", "iata": "1I", "icao": "EJA"}]}, {"destination": {"icao": "KSDL", "iata": "SCF", "name": "Scottsdale ", "shortName": "Scottsdale", "municipalityName": "Scottsdale", "location": {"lat": 33.6229, "lon": -111.911}, "countryCode": "US"}, "averageDailyFlights": 0.14, "operators": [{"name": "VJA"}]}, {"destination": {"icao": "KSEZ", "iata": "SDX", "name": "Sedona ", "shortName": "Sedona", "municipalityName": "Sedona", "location": {"lat": 34.8486, "lon": -111.788}, "countryCode": "US"}, "averageDailyFlights": 0.14, "operators": [{"name": "NetJets Aviation", "iata": "1I", "icao": "EJA"}]}, {"destination": {"icao": "LBSF", "iata": "SOF", "name": "Sofia ", "shortName": "Sofia", "municipalityName": "Sofia", "location": {"lat": 42.696693, "lon": 23.411436}, "countryCode": "BG"}, "averageDailyFlights": 0.14, "operators": [{"name": "Omni Air International", "iata": "OY", "icao": "OAE"}]}, {"destination": {"icao": "KSPA", "iata": "SPA", "name": "Spartanburg Downtown Memorial", "shortName": "Downtown Memorial", "municipalityName": "Spartanburg", "location": {"lat": 34.9157, "lon": -81.9565}, "countryCode": "US"}, "averageDailyFlights": 0.14, "operators": [{"name": "LXJ"}]}, {"destination": {"icao": "KPIE", "iata": "PIE", "name": "St Petersburg-Clearwater St Petersburg Clearwater", "shortName": "St Petersburg Clearwater", "municipalityName": "St Petersburg-Clearwater", "location": {"lat": 27.9102, "lon": -82.6874}, "countryCode": "US"}, "averageDailyFlights": 0.14, "operators": [{"name": "NetJets Aviation", "iata": "1I", "icao": "EJA"}]}, {"destination": {"icao": "TAPA", "iata": "ANU", "name": "St. George V.C. Bird", "shortName": "V.C. Bird", "municipalityName": "St. George", "location": {"lat": 17.1367, "lon": -61.7927}, "countryCode": "AG"}, "averageDailyFlights": 0.14, "operators": [{"name": "VJT"}]}, {"destination": {"icao": "KUNV", "iata": "SCE", "name": "State College University Park", "shortName": "University Park", "municipalityName": "State College", "location": {"lat": 40.8493, "lon": -77.8487}, "countryCode": "US"}, "averageDailyFlights": 0.14, "operators": [{"name": "LXJ"}]}, {"destination": {"icao": "KSVH", "iata": "SVH", "name": "Statesville Regional", "shortName": "Regional", "municipalityName": "Statesville", "location": {"lat": 35.7653, "lon": -80.9539}, "countryCode": "US"}, "averageDailyFlights": 0.14, "operators": [{"name": "CNS"}]}, {"destination": {"icao": "KTLH", "iata": "TLH", "name": "Tallahassee Regional", "shortName": "Regional", "municipalityName": "Tallahassee", "location": {"lat": 30.3965, "lon": -84.3503}, "countryCode": "US"}, "averageDailyFlights": 0.14, "operators": [{"name": "STY"}]}, {"destination": {"icao": "KVNY", "iata": "VNY", "name": "Van Nuys ", "shortName": "Van Nuys", "municipalityName": "Van Nuys", "location": {"lat": 34.2098, "lon": -118.49}, "countryCode": "US"}, "averageDailyFlights": 0.14, "operators": [{"name": "LXJ"}]}, {"destination": {"icao": "EPWA", "iata": "WAW", "name": "Warsaw Chopin", "shortName": "Chopin", "municipalityName": "Warsaw", "location": {"lat": 52.1657, "lon": 20.9671}, "countryCode": "PL"}, "averageDailyFlights": 0.14, "operators": [{"name": "PLF"}]}, {"destination": {"icao": "KICT", "iata": "ICT", "name": "Wichita Mid Continent", "shortName": "Mid Continent", "municipalityName": "Wichita", "location": {"lat": 37.6499, "lon": -97.4331}, "countryCode": "US"}, "averageDailyFlights": 0.14, "operators": [{"name": "NetJets Aviation", "iata": "1I", "icao": "EJA"}]}, {"destination": {"icao": "KIPT", "iata": "IPT", "name": "Williamsport Regional", "shortName": "Regional", "municipalityName": "Williamsport", "location": {"lat": 41.2418, "lon": -76.9211}, "countryCode": "US"}, "averageDailyFlights": 0.14, "operators": [{"name": "Libyan Airlines", "iata": "LN", "icao": "LAA"}]}, {"destination": {"icao": "KYNG", "iata": "YNG", "name": "Youngstown/Warren Youngstown Warren Regional", "shortName": "Youngstown Warren Regional", "municipalityName": "Youngstown/Warren", "location": {"lat": 41.2607, "lon": -80.6791}, "countryCode": "US"}, "averageDailyFlights": 0.14, "operators": [{"name": "NetJets Aviation", "iata": "1I", "icao": "EJA"}]}]}