{"routes": [{"destination": {"icao": "KCLT", "iata": "CLT", "name": "Charlotte Douglas", "shortName": "Douglas", "municipalityName": "Charlotte", "location": {"lat": 35.214, "lon": -80.9431}, "countryCode": "US"}, "averageDailyFlights": 1.14, "operators": [{"name": "Contour Aviation", "iata": "LF", "icao": "VTE"}]}, {"destination": {"icao": "KABE", "iata": "ABE", "name": "Allentown Lehigh Valley", "shortName": "Lehigh Valley", "municipalityName": "Allentown", "location": {"lat": 40.6521, "lon": -75.4408}, "countryCode": "US"}, "averageDailyFlights": 0.14, "operators": [{"name": "HER"}]}, {"destination": {"icao": "KCOU", "iata": "COU", "name": "Columbia Regional", "shortName": "Regional", "municipalityName": "Columbia", "location": {"lat": 38.8181, "lon": -92.2196}, "countryCode": "US"}, "averageDailyFlights": 0.14, "operators": [{"name": "Meregrass Inc", "iata": "WC", "icao": "QHD"}]}, {"destination": {"icao": "KDAL", "iata": "DAL", "name": "Dallas Love Field", "shortName": "Love Field", "municipalityName": "Dallas", "location": {"lat": 32.8471, "lon": -96.8518}, "countryCode": "US"}, "averageDailyFlights": 0.14, "operators": [{"name": "Meregrass Inc", "iata": "WC", "icao": "QHD"}]}, {"destination": {"icao": "KFRG", "iata": "FRG", "name": "Farmingdale Republic", "shortName": "Republic", "municipalityName": "Farmingdale", "location": {"lat": 40.7288, "lon": -73.4134}, "countryCode": "US"}, "averageDailyFlights": 0.14, "operators": [{"name": "NetJets Aviation", "iata": "1I", "icao": "EJA"}]}, {"destination": {"icao": "KFTW", "iata": "FTW", "name": "Fort Worth Meacham", "shortName": "Meacham", "municipalityName": "Fort Worth", "location": {"lat": 32.8198, "lon": -97.3624}, "countryCode": "US"}, "averageDailyFlights": 0.14, "operators": [{"name": "LXJ"}]}, {"destination": {"icao": "KHXD", "iata": "HHH", "name": "Hilton Head ", "shortName": "Hilton Head", "municipalityName": "Hilton Head", "location": {"lat": 32.2244, "lon": -80.6975}, "countryCode": "US"}, "averageDailyFlights": 0.14, "operators": [{"name": "OLV"}]}, {"destination": {"icao": "KLAL", "iata": "LAL", "name": "Lakeland Linder Regional", "shortName": "Linder Regional", "municipalityName": "Lakeland", "location": {"lat": 27.9889, "lon": -82.0186}, "countryCode": "US"}, "averageDailyFlights": 0.14, "operators": [{"name": "NetJets Aviation", "iata": "1I", "icao": "EJA"}]}, {"destination": {"icao": "KLEX", "iata": "LEX", "name": "Lexington Blue Grass", "shortName": "Blue Grass", "municipalityName": "Lexington", "location": {"lat": 38.0365, "lon": -84.6059}, "countryCode": "US"}, "averageDailyFlights": 0.14, "operators": [{"name": "NetJets Aviation", "iata": "1I", "icao": "EJA"}]}, {"destination": {"icao": "KBNA", "iata": "BNA", "name": "Nashville ", "shortName": "Nashville", "municipalityName": "Nashville", "location": {"lat": 36.1245, "lon": -86.6782}, "countryCode": "US"}, "averageDailyFlights": 0.14, "operators": [{"name": "XOJ"}]}, {"destination": {"icao": "KRIC", "iata": "RIC", "name": "Richmond ", "shortName": "Richmond", "municipalityName": "Richmond", "location": {"lat": 37.5052, "lon": -77.3197}, "countryCode": "US"}, "averageDailyFlights": 0.14, "operators": [{"name": "NetJets Aviation", "iata": "1I", "icao": "EJA"}]}, {"destination": {"icao": "KTBR", "iata": "TBR", "name": "Statesboro Bulloch County", "shortName": "Bulloch County", "municipalityName": "Statesboro", "location": {"lat": 32.4827, "lon": -81.7369}, "countryCode": "US"}, "averageDailyFlights": 0.14, "operators": [{"name": "LAK"}]}, {"destination": {"icao": "KTEB", "iata": "TEB", "name": "Teterboro ", "shortName": "Teterboro", "municipalityName": "Teterboro", "location": {"lat": 40.8501, "lon": -74.0608}, "countryCode": "US"}, "averageDailyFlights": 0.14, "operators": [{"name": "NetJets Aviation", "iata": "1I", "icao": "EJA"}]}, {"destination": {"icao": "KHPN", "iata": "HPN", "name": "White Plains Westchester County", "shortName": "Westchester County", "municipalityName": "White Plains", "location": {"lat": 41.067, "lon": -73.7076}, "countryCode": "US"}, "averageDailyFlights": 0.14, "operators": [{"name": "LXJ"}]}]}