{"routes": [{"destination": {"icao": "KCRQ", "iata": "CLD", "name": "Carlsbad Mc Clellan-Palomar", "shortName": "Mc Clellan-Palomar", "municipalityName": "Carlsbad", "location": {"lat": 33.1283, "lon": -117.28}, "countryCode": "US"}, "averageDailyFlights": 0.86, "operators": [{"name": "Advanced Air", "iata": "AN", "icao": "WSN"}]}, {"destination": {"icao": "KSNA", "iata": "SNA", "name": "Santa Ana John Wayne -Orange County", "shortName": "John Wayne -Orange County", "municipalityName": "Santa Ana", "location": {"lat": 33.6757, "lon": -117.868}, "countryCode": "US"}, "averageDailyFlights": 0.71, "operators": [{"name": "WCC"}, {"name": "NetJets Aviation", "iata": "1I", "icao": "EJA"}, {"name": "WSP"}]}, {"destination": {"icao": "KSBA", "iata": "SBA", "name": "Santa Barbara Municipal", "shortName": "Municipal", "municipalityName": "Santa Barbara", "location": {"lat": 34.4262, "lon": -119.84}, "countryCode": "US"}, "averageDailyFlights": 0.29, "operators": [{"name": "NetJets Aviation", "iata": "1I", "icao": "EJA"}, {"name": "DLX"}]}, {"destination": {"icao": "KHND", "iata": "HSH", "name": "Las Vegas Henderson Executive", "shortName": "Henderson Executive", "municipalityName": "Las Vegas", "location": {"lat": 35.9728, "lon": -115.134}, "countryCode": "US"}, "averageDailyFlights": 0.14, "operators": [{"name": "NetJets Aviation", "iata": "1I", "icao": "EJA"}]}, {"destination": {"icao": "KLGB", "iata": "LGB", "name": "Long Beach Daugherty Field/", "shortName": "Daugherty Field/", "municipalityName": "Long Beach", "location": {"lat": 33.8177, "lon": -118.152}, "countryCode": "US"}, "averageDailyFlights": 0.14, "operators": [{"name": "WSP"}]}, {"destination": {"icao": "KPSP", "iata": "PSP", "name": "Palm Springs ", "shortName": "Palm Springs", "municipalityName": "Palm Springs", "location": {"lat": 33.8297, "lon": -116.507}, "countryCode": "US"}, "averageDailyFlights": 0.14, "operators": [{"name": "NetJets Aviation", "iata": "1I", "icao": "EJA"}]}, {"destination": {"icao": "KSJC", "iata": "SJC", "name": "San Jose Norman Y. Mineta", "shortName": "Norman Y. Mineta", "municipalityName": "San Jose", "location": {"lat": 37.3626, "lon": -121.929}, "countryCode": "US"}, "averageDailyFlights": 0.14, "operators": [{"name": "TCA", "iata": "N6", "icao": "TZS"}]}]}