{"routes": [{"destination": {"icao": "KMSP", "iata": "MSP", "name": "Minneapolis Wold-Chamberlain", "shortName": "Wold-Chamberlain", "municipalityName": "Minneapolis", "location": {"lat": 44.882, "lon": -93.2218}, "countryCode": "US"}, "averageDailyFlights": 2.43, "operators": [{"name": "Delta Air Lines", "iata": "DL", "icao": "DAL"}, {"name": "NetJets Aviation", "iata": "1I", "icao": "EJA"}]}, {"destination": {"icao": "KMKE", "iata": "MKE", "name": "Milwaukee General Mitchell", "shortName": "General Mitchell", "municipalityName": "Milwaukee", "location": {"lat": 42.9472, "lon": -87.8966}, "countryCode": "US"}, "averageDailyFlights": 1.71, "operators": [{"name": "IRO"}, {"name": "FRG"}]}, {"destination": {"icao": "KJVL", "iata": "JVL", "name": "Janesville Southern Wisconsin Regional", "shortName": "Southern Wisconsin Regional", "municipalityName": "Janesville", "location": {"lat": 42.6203, "lon": -89.0416}, "countryCode": "US"}, "averageDailyFlights": 0.29, "operators": [{"name": "COL"}]}, {"destination": {"icao": "KAUW", "iata": "AUW", "name": "Wausau Downtown", "shortName": "Downtown", "municipalityName": "Wausau", "location": {"lat": 44.9262, "lon": -89.6266}, "countryCode": "US"}, "averageDailyFlights": 0.29, "operators": [{"name": "Nordwind Airlines", "iata": "N4", "icao": "NWS"}]}, {"destination": {"icao": "SKBQ", "iata": "BAQ", "name": "Barranquilla Ernesto Cortissoz", "shortName": "Ernesto Cortissoz", "municipalityName": "Barranquilla", "location": {"lat": 10.8896, "lon": -74.7808}, "countryCode": "CO"}, "averageDailyFlights": 0.14, "operators": [{"name": "KOW"}]}, {"destination": {"icao": "KSAW", "iata": "MQT", "name": "Marquette Sawyer", "shortName": "Sawyer", "municipalityName": "Marquette", "location": {"lat": 46.3536, "lon": -87.3954}, "countryCode": "US"}, "averageDailyFlights": 0.14, "operators": [{"name": "IRO"}]}, {"destination": {"icao": "KMEM", "iata": "MEM", "name": "Memphis ", "shortName": "Memphis", "municipalityName": "Memphis", "location": {"lat": 35.0424, "lon": -89.9767}, "countryCode": "US"}, "averageDailyFlights": 0.14, "operators": [{"name": "NetJets Aviation", "iata": "1I", "icao": "EJA"}]}, {"destination": {"icao": "KSTP", "iata": "STP", "name": "St Paul Downtown Holman Field", "shortName": "Downtown Holman Field", "municipalityName": "St Paul", "location": {"lat": 44.9345, "lon": -93.06}, "countryCode": "US"}, "averageDailyFlights": 0.14, "operators": [{"name": "Nordwind Airlines", "iata": "N4", "icao": "NWS"}]}]}