{"routes": [{"destination": {"icao": "KLAX", "iata": "LAX", "name": "Los Angeles ", "shortName": "Los Angeles", "municipalityName": "Los Angeles", "location": {"lat": 33.9425, "lon": -118.408}, "countryCode": "US"}, "averageDailyFlights": 36.71, "operators": [{"name": "Alaska Airlines", "iata": "AS", "icao": "ASA"}, {"name": "United Airlines", "iata": "UA", "icao": "UAL"}, {"name": "American Airlines", "iata": "AA", "icao": "AAL"}, {"name": "LXJ"}, {"name": "NetJets Aviation", "iata": "1I", "icao": "EJA"}, {"name": "Delta Air Lines", "iata": "DL", "icao": "DAL"}, {"name": "Southwest Airlines", "iata": "WN", "icao": "SWA"}, {"name": "SkyWest Airlines", "iata": "OO", "icao": "SKW"}, {"name": "JetBlue Airways", "iata": "B6", "icao": "JBU"}, {"name": "TWY"}]}, {"destination": {"icao": "KSAN", "iata": "SAN", "name": "San Diego ", "shortName": "San Diego", "municipalityName": "San Diego", "location": {"lat": 32.7336, "lon": -117.19}, "countryCode": "US"}, "averageDailyFlights": 20.57, "operators": [{"name": "United Airlines", "iata": "UA", "icao": "UAL"}, {"name": "Alaska Airlines", "iata": "AS", "icao": "ASA"}, {"name": "Southwest Airlines", "iata": "WN", "icao": "SWA"}, {"name": "NetJets Aviation", "iata": "1I", "icao": "EJA"}, {"name": "Delta Air Lines", "iata": "DL", "icao": "DAL"}]}, {"destination": {"icao": "KLAS", "iata": "LAS", "name": "Las Vegas McCarran", "shortName": "McCarran", "municipalityName": "Las Vegas", "location": {"lat": 36.0801, "lon": -115.152}, "countryCode": "US"}, "averageDailyFlights": 19.14, "operators": [{"name": "United Airlines", "iata": "UA", "icao": "UAL"}, {"name": "Southwest Airlines", "iata": "WN", "icao": "SWA"}, {"name": "Alaska Airlines", "iata": "AS", "icao": "ASA"}, {"name": "Frontier Airlines", "iata": "F9", "icao": "FFT"}, {"name": "NetJets Aviation", "iata": "1I", "icao": "EJA"}, {"name": "VJA"}]}, {"destination": {"icao": "KJFK", "iata": "JFK", "name": "New York John F Kennedy", "shortName": "John F Kennedy", "municipalityName": "New York", "location": {"lat": 40.6398, "lon": -73.7789}, "countryCode": "US"}, "averageDailyFlights": 18.29, "operators": [{"name": "JetBlue Airways", "iata": "B6", "icao": "JBU"}, {"name": "American Airlines", "iata": "AA", "icao": "AAL"}, {"name": "Delta Air Lines", "iata": "DL", "icao": "DAL"}, {"name": "Alaska Airlines", "iata": "AS", "icao": "ASA"}]}, {"destination": {"icao": "KPHX", "iata": "PHX", "name": "Phoenix Sky Harbor", "shortName": "Sky Harbor", "municipalityName": "Phoenix", "location": {"lat": 33.4343, "lon": -112.012}, "countryCode": "US"}, "averageDailyFlights": 17.43, "operators": [{"name": "American Airlines", "iata": "AA", "icao": "AAL"}, {"name": "NJZ"}, {"name": "Southwest Airlines", "iata": "WN", "icao": "SWA"}, {"name": "Frontier Airlines", "iata": "F9", "icao": "FFT"}, {"name": "United Airlines", "iata": "UA", "icao": "UAL"}, {"name": "Alaska Airlines", "iata": "AS", "icao": "ASA"}, {"name": "Envoy Air", "iata": "MQ", "icao": "ENY"}, {"name": "Delta Air Lines", "iata": "DL", "icao": "DAL"}]}, {"destination": {"icao": "KDEN", "iata": "DEN", "name": "Denver ", "shortName": "Denver", "municipalityName": "Denver", "location": {"lat": 39.8617, "lon": -104.673}, "countryCode": "US"}, "averageDailyFlights": 17.14, "operators": [{"name": "Southwest Airlines", "iata": "WN", "icao": "SWA"}, {"name": "Delta Air Lines", "iata": "DL", "icao": "DAL"}, {"name": "Frontier Airlines", "iata": "F9", "icao": "FFT"}, {"name": "United Airlines", "iata": "UA", "icao": "UAL"}]}, {"destination": {"icao": "KORD", "iata": "ORD", "name": "Chicago O'Hare", "shortName": "O'Hare", "municipalityName": "Chicago", "location": {"lat": 41.9786, "lon": -87.9048}, "countryCode": "US"}, "averageDailyFlights": 15.14, "operators": [{"name": "United Airlines", "iata": "UA", "icao": "UAL"}, {"name": "American Airlines", "iata": "AA", "icao": "AAL"}, {"name": "Alaska Airlines", "iata": "AS", "icao": "ASA"}]}, {"destination": {"icao": "KEWR", "iata": "EWR", "name": "Newark Liberty", "shortName": "Liberty", "municipalityName": "Newark", "location": {"lat": 40.6925, "lon": -74.1687}, "countryCode": "US"}, "averageDailyFlights": 12.86, "operators": [{"name": "United Airlines", "iata": "UA", "icao": "UAL"}, {"name": "Alaska Airlines", "iata": "AS", "icao": "ASA"}]}, {"destination": {"icao": "KSNA", "iata": "SNA", "name": "Santa Ana John Wayne -Orange County", "shortName": "John Wayne -Orange County", "municipalityName": "Santa Ana", "location": {"lat": 33.6757, "lon": -117.868}, "countryCode": "US"}, "averageDailyFlights": 12.86, "operators": [{"name": "Alaska Airlines", "iata": "AS", "icao": "ASA"}, {"name": "United Airlines", "iata": "UA", "icao": "UAL"}, {"name": "NetJets Aviation", "iata": "1I", "icao": "EJA"}, {"name": "PFT"}]}, {"destination": {"icao": "KBOS", "iata": "BOS", "name": "Boston General Edward Lawrence Logan", "shortName": "General Edward Lawrence Logan", "municipalityName": "Boston", "location": {"lat": 42.3643, "lon": -71.0052}, "countryCode": "US"}, "averageDailyFlights": 12.29, "operators": [{"name": "United Airlines", "iata": "UA", "icao": "UAL"}, {"name": "JetBlue Airways", "iata": "B6", "icao": "JBU"}, {"name": "Alaska Airlines", "iata": "AS", "icao": "ASA"}, {"name": "Delta Air Lines", "iata": "DL", "icao": "DAL"}]}, {"destination": {"icao": "KDFW", "iata": "DFW", "name": "Dallas-Fort Worth ", "shortName": "Dallas-Fort Worth", "municipalityName": "Dallas-Fort Worth", "location": {"lat": 32.8968, "lon": -97.038}, "countryCode": "US"}, "averageDailyFlights": 12.14, "operators": [{"name": "American Airlines", "iata": "AA", "icao": "AAL"}, {"name": "United Airlines", "iata": "UA", "icao": "UAL"}, {"name": "Frontier Airlines", "iata": "F9", "icao": "FFT"}]}, {"destination": {"icao": "KSEA", "iata": "SEA", "name": "Seattle Tacoma", "shortName": "Tacoma", "municipalityName": "Seattle", "location": {"lat": 47.449, "lon": -122.309}, "countryCode": "US"}, "averageDailyFlights": 11.71, "operators": [{"name": "Delta Air Lines", "iata": "DL", "icao": "DAL"}, {"name": "United Airlines", "iata": "UA", "icao": "UAL"}, {"name": "NetJets Aviation", "iata": "1I", "icao": "EJA"}]}, {"destination": {"icao": "KPDX", "iata": "PDX", "name": "Portland ", "shortName": "Portland", "municipalityName": "Portland", "location": {"lat": 45.5887, "lon": -122.598}, "countryCode": "US"}, "averageDailyFlights": 11.14, "operators": [{"name": "Alaska Airlines", "iata": "AS", "icao": "ASA"}, {"name": "United Airlines", "iata": "UA", "icao": "UAL"}, {"name": "Southwest Airlines", "iata": "WN", "icao": "SWA"}]}, {"destination": {"icao": "KATL", "iata": "ATL", "name": "Atlanta Hartsfield Jackson", "shortName": "Hartsfield Jackson", "municipalityName": "Atlanta", "location": {"lat": 33.6367, "lon": -84.4281}, "countryCode": "US"}, "averageDailyFlights": 10.0, "operators": [{"name": "Delta Air Lines", "iata": "DL", "icao": "DAL"}, {"name": "Frontier Airlines", "iata": "F9", "icao": "FFT"}, {"name": "United Airlines", "iata": "UA", "icao": "UAL"}, {"name": "China Airlines", "iata": "CI", "icao": "CAL"}]}, {"destination": {"icao": "KSLC", "iata": "SLC", "name": "Salt Lake City ", "shortName": "Salt Lake City", "municipalityName": "Salt Lake City", "location": {"lat": 40.7884, "lon": -111.978}, "countryCode": "US"}, "averageDailyFlights": 9.71, "operators": [{"name": "United Airlines", "iata": "UA", "icao": "UAL"}, {"name": "Delta Air Lines", "iata": "DL", "icao": "DAL"}, {"name": "LXJ"}, {"name": "Alaska Airlines", "iata": "AS", "icao": "ASA"}]}, {"destination": {"icao": "CYVR", "iata": "YVR", "name": "Vancouver ", "shortName": "Vancouver", "municipalityName": "Vancouver", "location": {"lat": 49.1939, "lon": -123.184}, "countryCode": "CA"}, "averageDailyFlights": 9.57, "operators": [{"name": "Air Canada", "iata": "AC", "icao": "ACA"}, {"name": "United Airlines", "iata": "UA", "icao": "UAL"}, {"name": "Flair Airlines", "iata": "F8", "icao": "FLE"}]}, {"destination": {"icao": "KIAH", "iata": "IAH", "name": "Houston George Bush", "shortName": "George Bush", "municipalityName": "Houston", "location": {"lat": 29.9844, "lon": -95.3414}, "countryCode": "US"}, "averageDailyFlights": 9.29, "operators": [{"name": "United Airlines", "iata": "UA", "icao": "UAL"}]}, {"destination": {"icao": "KBUR", "iata": "BUR", "name": "Burbank Bob Hope", "shortName": "Bob Hope", "municipalityName": "Burbank", "location": {"lat": 34.2007, "lon": -118.359}, "countryCode": "US"}, "averageDailyFlights": 8.86, "operators": [{"name": "NetJets Aviation", "iata": "1I", "icao": "EJA"}, {"name": "United Airlines", "iata": "UA", "icao": "UAL"}, {"name": "Alaska Airlines", "iata": "AS", "icao": "ASA"}, {"name": "MVJ"}]}, {"destination": {"icao": "RCTP", "iata": "TPE", "name": "Taipei Taiwan Taoyuan", "shortName": "Taiwan Taoyuan", "municipalityName": "Taipei", "location": {"lat": 25.0777, "lon": 121.233}, "countryCode": "TW"}, "averageDailyFlights": 8.43, "operators": [{"name": "China Airlines", "iata": "CI", "icao": "CAL"}, {"name": "EVA Air", "iata": "BR", "icao": "EVA"}, {"name": "Starlux Airlines", "iata": "JX", "icao": "SJX"}, {"name": "United Airlines", "iata": "UA", "icao": "UAL"}]}, {"destination": {"icao": "KPSP", "iata": "PSP", "name": "Palm Springs ", "shortName": "Palm Springs", "municipalityName": "Palm Springs", "location": {"lat": 33.8297, "lon": -116.507}, "countryCode": "US"}, "averageDailyFlights": 8.29, "operators": [{"name": "NetJets Aviation", "iata": "1I", "icao": "EJA"}, {"name": "United Airlines", "iata": "UA", "icao": "UAL"}, {"name": "Alaska Airlines", "iata": "AS", "icao": "ASA"}, {"name": "XSR"}]}, {"destination": {"icao": "PHNL", "iata": "HNL", "name": "Honolulu ", "shortName": "Honolulu", "municipalityName": "Honolulu", "location": {"lat": 21.3187, "lon": -157.922}, "countryCode": "US"}, "averageDailyFlights": 8.14, "operators": [{"name": "Hawaiian Airlines", "iata": "HA", "icao": "HAL"}, {"name": "United Airlines", "iata": "UA", "icao": "UAL"}, {"name": "Alaska Airlines", "iata": "AS", "icao": "ASA"}]}, {"destination": {"icao": "EGLL", "iata": "LHR", "name": "London Heathrow", "shortName": "Heathrow", "municipalityName": "London", "location": {"lat": 51.4706, "lon": -0.461941}, "countryCode": "GB"}, "averageDailyFlights": 7.86, "operators": [{"name": "United Airlines", "iata": "UA", "icao": "UAL"}, {"name": "British Airways", "iata": "BA", "icao": "BAW"}, {"name": "Virgin Atlantic", "iata": "VS", "icao": "VIR"}]}, {"destination": {"icao": "RKSI", "iata": "ICN", "name": "Seoul Incheon", "shortName": "Incheon", "municipalityName": "Seoul", "location": {"lat": 37.4691, "lon": 126.451}, "countryCode": "KR"}, "averageDailyFlights": 7.43, "operators": [{"name": "Asiana Airlines", "iata": "OZ", "icao": "AAR"}, {"name": "Korean Air", "iata": "KE", "icao": "KAL"}, {"name": "United Airlines", "iata": "UA", "icao": "UAL"}]}, {"destination": {"icao": "KIAD", "iata": "IAD", "name": "District of Columbia Washington Dulles", "shortName": "Washington Dulles", "municipalityName": "District of Columbia", "location": {"lat": 38.9445, "lon": -77.4558}, "countryCode": "US"}, "averageDailyFlights": 7.14, "operators": [{"name": "United Airlines", "iata": "UA", "icao": "UAL"}, {"name": "NetJets Aviation", "iata": "1I", "icao": "EJA"}]}, {"destination": {"icao": "CYYZ", "iata": "YYZ", "name": "Toronto Pearson", "shortName": "Pearson", "municipalityName": "Toronto", "location": {"lat": 43.6772, "lon": -79.6306}, "countryCode": "CA"}, "averageDailyFlights": 7.14, "operators": [{"name": "United Airlines", "iata": "UA", "icao": "UAL"}, {"name": "Air Canada", "iata": "AC", "icao": "ACA"}, {"name": "Porter Airlines", "iata": "PD", "icao": "POE"}]}, {"destination": {"icao": "MMMX", "iata": "MEX", "name": "Mexico City Licenciado Benito Juarez", "shortName": "Licenciado Benito Juarez", "municipalityName": "Mexico City", "location": {"lat": 19.4363, "lon": -99.0721}, "countryCode": "MX"}, "averageDailyFlights": 6.29, "operators": [{"name": "Aeromexico", "iata": "AM", "icao": "AMX"}, {"name": "United Airlines", "iata": "UA", "icao": "UAL"}]}, {"destination": {"icao": "KAUS", "iata": "AUS", "name": "Austin Bergstrom", "shortName": "Bergstrom", "municipalityName": "Austin", "location": {"lat": 30.194498, "lon": -97.6699}, "countryCode": "US"}, "averageDailyFlights": 5.86, "operators": [{"name": "Alaska Airlines", "iata": "AS", "icao": "ASA"}, {"name": "United Airlines", "iata": "UA", "icao": "UAL"}, {"name": "XLJ"}, {"name": "NetJets Aviation", "iata": "1I", "icao": "EJA"}]}, {"destination": {"icao": "KMSP", "iata": "MSP", "name": "Minneapolis Wold-Chamberlain", "shortName": "Wold-Chamberlain", "municipalityName": "Minneapolis", "location": {"lat": 44.882, "lon": -93.2218}, "countryCode": "US"}, "averageDailyFlights": 5.86, "operators": [{"name": "Delta Air Lines", "iata": "DL", "icao": "DAL"}, {"name": "Sun Country Airlines", "iata": "SY", "icao": "SCX"}, {"name": "United Airlines", "iata": "UA", "icao": "UAL"}]}, {"destination": {"icao": "KFLL", "iata": "FLL", "name": "Fort Lauderdale Hollywood", "shortName": "Hollywood", "municipalityName": "Fort Lauderdale", "location": {"lat": 26.0726, "lon": -80.1527}, "countryCode": "US"}, "averageDailyFlights": 5.71, "operators": [{"name": "United Airlines", "iata": "UA", "icao": "UAL"}, {"name": "JetBlue Airways", "iata": "B6", "icao": "JBU"}]}, {"destination": {"icao": "KMIA", "iata": "MIA", "name": "Miami ", "shortName": "Miami", "municipalityName": "Miami", "location": {"lat": 25.7932, "lon": -80.2906}, "countryCode": "US"}, "averageDailyFlights": 4.71, "operators": [{"name": "United Airlines", "iata": "UA", "icao": "UAL"}, {"name": "FTH"}, {"name": "American Airlines", "iata": "AA", "icao": "AAL"}]}, {"destination": {"icao": "WSSS", "iata": "SIN", "name": "Singapore Changi", "shortName": "Changi", "municipalityName": "Singapore", "location": {"lat": 1.35019, "lon": 103.994}, "countryCode": "SG"}, "averageDailyFlights": 4.71, "operators": [{"name": "United Airlines", "iata": "UA", "icao": "UAL"}, {"name": "Singapore Airlines", "iata": "SQ", "icao": "SIA"}]}, {"destination": {"icao": "KBOI", "iata": "BOI", "name": "Boise Gowen field", "shortName": "Gowen field", "municipalityName": "Boise", "location": {"lat": 43.5644, "lon": -116.223}, "countryCode": "US"}, "averageDailyFlights": 4.57, "operators": [{"name": "United Airlines", "iata": "UA", "icao": "UAL"}, {"name": "Alaska Airlines", "iata": "AS", "icao": "ASA"}]}, {"destination": {"icao": "KCLT", "iata": "CLT", "name": "Charlotte Douglas", "shortName": "Douglas", "municipalityName": "Charlotte", "location": {"lat": 35.214, "lon": -80.9431}, "countryCode": "US"}, "averageDailyFlights": 4.57, "operators": [{"name": "American Airlines", "iata": "AA", "icao": "AAL"}]}, {"destination": {"icao": "KRNO", "iata": "RNO", "name": "Reno Tahoe", "shortName": "Tahoe", "municipalityName": "Reno", "location": {"lat": 39.4991, "lon": -119.768}, "countryCode": "US"}, "averageDailyFlights": 4.57, "operators": [{"name": "United Airlines", "iata": "UA", "icao": "UAL"}]}, {"destination": {"icao": "RJAA", "iata": "NRT", "name": "Tokyo Narita", "shortName": "Narita", "municipalityName": "Tokyo", "location": {"lat": 35.7647, "lon": 140.386}, "countryCode": "JP"}, "averageDailyFlights": 4.57, "operators": [{"name": "United Airlines", "iata": "UA", "icao": "UAL"}, {"name": "ANA", "iata": "NH", "icao": "ANA"}, {"name": "JAL", "iata": "JL", "icao": "JAL"}, {"name": "ZIPAIR Tokyo", "iata": "ZG", "icao": "TZP"}]}, {"destination": {"icao": "PHOG", "iata": "OGG", "name": "Kahului ", "shortName": "Kahului", "municipalityName": "Kahului", "location": {"lat": 20.8986, "lon": -156.43}, "countryCode": "US"}, "averageDailyFlights": 4.43, "operators": [{"name": "Alaska Airlines", "iata": "AS", "icao": "ASA"}, {"name": "Hawaiian Airlines", "iata": "HA", "icao": "HAL"}, {"name": "United Airlines", "iata": "UA", "icao": "UAL"}, {"name": "LXJ"}]}, {"destination": {"icao": "KDTW", "iata": "DTW", "name": "Detroit Metropolitan Wayne County", "shortName": "Metropolitan Wayne County", "municipalityName": "Detroit", "location": {"lat": 42.2124, "lon": -83.3534}, "countryCode": "US"}, "averageDailyFlights": 4.14, "operators": [{"name": "Delta Air Lines", "iata": "DL", "icao": "DAL"}]}, {"destination": {"icao": "KFAT", "iata": "FAT", "name": "Fresno Yosemite", "shortName": "Yosemite", "municipalityName": "Fresno", "location": {"lat": 36.7762, "lon": -119.718}, "countryCode": "US"}, "averageDailyFlights": 4.14, "operators": [{"name": "SCW"}, {"name": "JPL"}, {"name": "TOG"}, {"name": "United Airlines", "iata": "UA", "icao": "UAL"}]}, {"destination": {"icao": "KPHL", "iata": "PHL", "name": "Philadelphia ", "shortName": "Philadelphia", "municipalityName": "Philadelphia", "location": {"lat": 39.8719, "lon": -75.2411}, "countryCode": "US"}, "averageDailyFlights": 4.0, "operators": [{"name": "American Airlines", "iata": "AA", "icao": "AAL"}, {"name": "United Airlines", "iata": "UA", "icao": "UAL"}, {"name": "NetJets Aviation", "iata": "1I", "icao": "EJA"}]}, {"destination": {"icao": "MMPR", "iata": "PVR", "name": "Puerto Vallarta Licenciado Gustavo D\u00edaz Ordaz", "shortName": "Licenciado Gustavo D\u00edaz Ordaz", "municipalityName": "Puerto Vallarta", "location": {"lat": 20.6801, "lon": -105.254}, "countryCode": "MX"}, "averageDailyFlights": 4.0, "operators": [{"name": "Alaska Airlines", "iata": "AS", "icao": "ASA"}, {"name": "United Airlines", "iata": "UA", "icao": "UAL"}, {"name": "BFY"}, {"name": "VJT"}]}, {"destination": {"icao": "VHHH", "iata": "HKG", "name": "Hong Kong Chek Lap Kok", "shortName": "Chek Lap Kok", "municipalityName": "Hong Kong", "location": {"lat": 22.3089, "lon": 113.915}, "countryCode": "HK"}, "averageDailyFlights": 3.71, "operators": [{"name": "Cathay Pacific", "iata": "CX", "icao": "CPA"}, {"name": "United Airlines", "iata": "UA", "icao": "UAL"}]}, {"destination": {"icao": "KONT", "iata": "ONT", "name": "Ontario ", "shortName": "Ontario", "municipalityName": "Ontario", "location": {"lat": 34.056, "lon": -117.601}, "countryCode": "US"}, "averageDailyFlights": 3.71, "operators": [{"name": "United Airlines", "iata": "UA", "icao": "UAL"}, {"name": "Frontier Airlines", "iata": "F9", "icao": "FFT"}, {"name": "TOG"}]}, {"destination": {"icao": "MMSD", "iata": "SJD", "name": "San Jos\u00e9 del Cabo Los Cabos", "shortName": "Los Cabos", "municipalityName": "San Jos\u00e9 del Cabo", "location": {"lat": 23.1518, "lon": -109.721}, "countryCode": "MX"}, "averageDailyFlights": 3.71, "operators": [{"name": "United Airlines", "iata": "UA", "icao": "UAL"}, {"name": "PKW"}, {"name": "Alaska Airlines", "iata": "AS", "icao": "ASA"}, {"name": "LXJ"}]}, {"destination": {"icao": "KRDD", "iata": "RDD", "name": "Redding Municipal", "shortName": "Municipal", "municipalityName": "Redding", "location": {"lat": 40.509, "lon": -122.293}, "countryCode": "US"}, "averageDailyFlights": 3.57, "operators": [{"name": "SkyWest Airlines", "iata": "OO", "icao": "SKW"}, {"name": "REH"}, {"name": "United Airlines", "iata": "UA", "icao": "UAL"}]}, {"destination": {"icao": "MMUN", "iata": "CUN", "name": "Canc\u00fan ", "shortName": "Canc\u00fan", "municipalityName": "Canc\u00fan", "location": {"lat": 21.0365, "lon": -86.8771}, "countryCode": "MX"}, "averageDailyFlights": 3.43, "operators": [{"name": "United Airlines", "iata": "UA", "icao": "UAL"}, {"name": "Alaska Airlines", "iata": "AS", "icao": "ASA"}]}, {"destination": {"icao": "EDDF", "iata": "FRA", "name": "Frankfurt-am-Main ", "shortName": "Frankfurt-am-Main", "municipalityName": "Frankfurt-am-Main", "location": {"lat": 50.0264, "lon": 8.543129}, "countryCode": "DE"}, "averageDailyFlights": 3.43, "operators": [{"name": "United Airlines", "iata": "UA", "icao": "UAL"}, {"name": "Lufthansa", "iata": "LH", "icao": "DLH"}]}, {"destination": {"icao": "KMCO", "iata": "MCO", "name": "Orlando ", "shortName": "Orlando", "municipalityName": "Orlando", "location": {"lat": 28.4294, "lon": -81.309}, "countryCode": "US"}, "averageDailyFlights": 3.43, "operators": [{"name": "United Airlines", "iata": "UA", "icao": "UAL"}, {"name": "Alaska Airlines", "iata": "AS", "icao": "ASA"}]}, {"destination": {"icao": "KRDM", "iata": "RDM", "name": "Redmond Roberts Field", "shortName": "Roberts Field", "municipalityName": "Redmond", "location": {"lat": 44.2541, "lon": -121.15}, "countryCode": "US"}, "averageDailyFlights": 3.43, "operators": [{"name": "United Airlines", "iata": "UA", "icao": "UAL"}, {"name": "Alaska Airlines", "iata": "AS", "icao": "ASA"}]}, {"destination": {"icao": "KSBA", "iata": "SBA", "name": "Santa Barbara Municipal", "shortName": "Municipal", "municipalityName": "Santa Barbara", "location": {"lat": 34.4262, "lon": -119.84}, "countryCode": "US"}, "averageDailyFlights": 3.43, "operators": [{"name": "United Airlines", "iata": "UA", "icao": "UAL"}, {"name": "LXJ"}, {"name": "EJM"}, {"name": "VJA"}]}, {"destination": {"icao": "KTUS", "iata": "TUS", "name": "Tucson ", "shortName": "Tucson", "municipalityName": "Tucson", "location": {"lat": 32.1161, "lon": -110.941}, "countryCode": "US"}, "averageDailyFlights": 3.29, "operators": [{"name": "United Airlines", "iata": "UA", "icao": "UAL"}]}, {"destination": {"icao": "KMSY", "iata": "MSY", "name": "New Orleans Louis Armstrong", "shortName": "Louis Armstrong", "municipalityName": "New Orleans", "location": {"lat": 29.9934, "lon": -90.258}, "countryCode": "US"}, "averageDailyFlights": 3.14, "operators": [{"name": "KPO"}, {"name": "United Airlines", "iata": "UA", "icao": "UAL"}, {"name": "Delta Air Lines", "iata": "DL", "icao": "DAL"}]}, {"destination": {"icao": "KEUG", "iata": "EUG", "name": "Eugene Mahlon Sweet Field", "shortName": "Mahlon Sweet Field", "municipalityName": "Eugene", "location": {"lat": 44.1246, "lon": -123.212}, "countryCode": "US"}, "averageDailyFlights": 2.43, "operators": [{"name": "United Airlines", "iata": "UA", "icao": "UAL"}]}, {"destination": {"icao": "PHKO", "iata": "KOA", "name": "Kailua/Kona Kona  At Keahole", "shortName": "Kona  At Keahole", "municipalityName": "Kailua/Kona", "location": {"lat": 19.7388, "lon": -156.046}, "countryCode": "US"}, "averageDailyFlights": 2.43, "operators": [{"name": "United Airlines", "iata": "UA", "icao": "UAL"}, {"name": "LXJ"}]}, {"destination": {"icao": "EDDM", "iata": "MUC", "name": "Munich ", "shortName": "Munich", "municipalityName": "Munich", "location": {"lat": 48.3538, "lon": 11.7861}, "countryCode": "DE"}, "averageDailyFlights": 2.43, "operators": [{"name": "United Airlines", "iata": "UA", "icao": "UAL"}, {"name": "Lufthansa", "iata": "LH", "icao": "DLH"}]}, {"destination": {"icao": "KBNA", "iata": "BNA", "name": "Nashville ", "shortName": "Nashville", "municipalityName": "Nashville", "location": {"lat": 36.1245, "lon": -86.6782}, "countryCode": "US"}, "averageDailyFlights": 2.43, "operators": [{"name": "United Airlines", "iata": "UA", "icao": "UAL"}, {"name": "NetJets Aviation", "iata": "1I", "icao": "EJA"}]}, {"destination": {"icao": "KTPA", "iata": "TPA", "name": "Tampa ", "shortName": "Tampa", "municipalityName": "Tampa", "location": {"lat": 27.9755, "lon": -82.5332}, "countryCode": "US"}, "averageDailyFlights": 2.43, "operators": [{"name": "United Airlines", "iata": "UA", "icao": "UAL"}, {"name": "Alaska Airlines", "iata": "AS", "icao": "ASA"}]}, {"destination": {"icao": "EHAM", "iata": "AMS", "name": "Amsterdam Schiphol", "shortName": "Schiphol", "municipalityName": "Amsterdam", "location": {"lat": 52.3086, "lon": 4.763889}, "countryCode": "NL"}, "averageDailyFlights": 2.29, "operators": [{"name": "KLM", "iata": "KL", "icao": "KLM"}, {"name": "United Airlines", "iata": "UA", "icao": "UAL"}]}, {"destination": {"icao": "KASE", "iata": "ASE", "name": "Aspen Sardy Field", "shortName": "Sardy Field", "municipalityName": "Aspen", "location": {"lat": 39.2232, "lon": -106.869}, "countryCode": "US"}, "averageDailyFlights": 2.29, "operators": [{"name": "United Airlines", "iata": "UA", "icao": "UAL"}, {"name": "Delta Air Lines", "iata": "DL", "icao": "DAL"}, {"name": "CNS"}]}, {"destination": {"icao": "PHLI", "iata": "LIH", "name": "Lihue ", "shortName": "Lihue", "municipalityName": "Lihue", "location": {"lat": 21.976, "lon": -159.339}, "countryCode": "US"}, "averageDailyFlights": 2.29, "operators": [{"name": "United Airlines", "iata": "UA", "icao": "UAL"}]}, {"destination": {"icao": "KMFR", "iata": "MFR", "name": "Medford Rogue Valley", "shortName": "Rogue Valley", "municipalityName": "Medford", "location": {"lat": 42.3742, "lon": -122.873}, "countryCode": "US"}, "averageDailyFlights": 2.29, "operators": [{"name": "United Airlines", "iata": "UA", "icao": "UAL"}]}, {"destination": {"icao": "LFPG", "iata": "CDG", "name": "Paris Charles de Gaulle", "shortName": "Charles de Gaulle", "municipalityName": "Paris", "location": {"lat": 49.0128, "lon": 2.549999}, "countryCode": "FR"}, "averageDailyFlights": 2.29, "operators": [{"name": "Air France", "iata": "AF", "icao": "AFR"}, {"name": "United Airlines", "iata": "UA", "icao": "UAL"}]}, {"destination": {"icao": "KPIT", "iata": "PIT", "name": "Pittsburgh ", "shortName": "Pittsburgh", "municipalityName": "Pittsburgh", "location": {"lat": 40.4915, "lon": -80.2329}, "countryCode": "US"}, "averageDailyFlights": 2.29, "operators": [{"name": "United Airlines", "iata": "UA", "icao": "UAL"}]}, {"destination": {"icao": "KRDU", "iata": "RDU", "name": "Raleigh/Durham Raleigh Durham", "shortName": "Raleigh Durham", "municipalityName": "Raleigh/Durham", "location": {"lat": 35.8776, "lon": -78.7875}, "countryCode": "US"}, "averageDailyFlights": 2.29, "operators": [{"name": "United Airlines", "iata": "UA", "icao": "UAL"}]}, {"destination": {"icao": "KSMF", "iata": "SMF", "name": "Sacramento ", "shortName": "Sacramento", "municipalityName": "Sacramento", "location": {"lat": 38.6954, "lon": -121.591}, "countryCode": "US"}, "averageDailyFlights": 2.29, "operators": [{"name": "United Airlines", "iata": "UA", "icao": "UAL"}]}, {"destination": {"icao": "MSLP", "iata": "SAL", "name": "Santa Clara El Salvador", "shortName": "El Salvador", "municipalityName": "Santa Clara", "location": {"lat": 13.440899, "lon": -89.0557}, "countryCode": "SV"}, "averageDailyFlights": 2.29, "operators": [{"name": "Avianca", "iata": "AV", "icao": "AVA"}]}, {"destination": {"icao": "KABQ", "iata": "ABQ", "name": "The Duke City Albuquerque  Sunport", "shortName": "Albuquerque  Sunport", "municipalityName": "The Duke City", "location": {"lat": 35.0402, "lon": -106.609}, "countryCode": "US"}, "averageDailyFlights": 2.29, "operators": [{"name": "United Airlines", "iata": "UA", "icao": "UAL"}]}, {"destination": {"icao": "KACV", "iata": "ACV", "name": "Arcata/Eureka Arcata", "shortName": "Arcata", "municipalityName": "Arcata/Eureka", "location": {"lat": 40.9781, "lon": -124.109}, "countryCode": "US"}, "averageDailyFlights": 2.14, "operators": [{"name": "United Airlines", "iata": "UA", "icao": "UAL"}]}, {"destination": {"icao": "RPLL", "iata": "MNL", "name": "Manila Ninoy Aquino", "shortName": "Ninoy Aquino", "municipalityName": "Manila", "location": {"lat": 14.5086, "lon": 121.02}, "countryCode": "PH"}, "averageDailyFlights": 2.14, "operators": [{"name": "United Airlines", "iata": "UA", "icao": "UAL"}, {"name": "Philippine Airlines", "iata": "PR", "icao": "PAL"}]}, {"destination": {"icao": "KSBP", "iata": "SBP", "name": "San Luis Obispo San Luis County Regional", "shortName": "San Luis County Regional", "municipalityName": "San Luis Obispo", "location": {"lat": 35.2368, "lon": -120.642}, "countryCode": "US"}, "averageDailyFlights": 2.14, "operators": [{"name": "United Airlines", "iata": "UA", "icao": "UAL"}]}, {"destination": {"icao": "KVNY", "iata": "VNY", "name": "Van Nuys ", "shortName": "Van Nuys", "municipalityName": "Van Nuys", "location": {"lat": 34.2098, "lon": -118.49}, "countryCode": "US"}, "averageDailyFlights": 2.14, "operators": [{"name": "NetJets Aviation", "iata": "1I", "icao": "EJA"}, {"name": "N1"}, {"name": "DOW"}, {"name": "LXJ"}, {"name": "VJA"}, {"name": "Libyan Airlines", "iata": "LN", "icao": "LAA"}, {"name": "SJE"}, {"name": "TOG"}, {"name": "FFL"}]}, {"destination": {"icao": "LTFM", "iata": "IST", "name": "Istanbul ", "shortName": "Istanbul", "municipalityName": "Istanbul", "location": {"lat": 41.275276, "lon": 28.751944}, "countryCode": "TR"}, "averageDailyFlights": 2.0, "operators": [{"name": "Turkish Airlines", "iata": "TK", "icao": "THY"}]}, {"destination": {"icao": "KGEG", "iata": "GEG", "name": "Spokane ", "shortName": "Spokane", "municipalityName": "Spokane", "location": {"lat": 47.6199, "lon": -117.534}, "countryCode": "US"}, "averageDailyFlights": 2.0, "operators": [{"name": "Alaska Airlines", "iata": "AS", "icao": "ASA"}, {"name": "United Airlines", "iata": "UA", "icao": "UAL"}]}, {"destination": {"icao": "VIDP", "iata": "DEL", "name": "New Delhi Indira Gandhi", "shortName": "Indira Gandhi", "municipalityName": "New Delhi", "location": {"lat": 28.5665, "lon": 77.1031}, "countryCode": "IN"}, "averageDailyFlights": 1.86, "operators": [{"name": "Air India", "iata": "AI", "icao": "AIC"}]}, {"destination": {"icao": "NTAA", "iata": "PPT", "name": "Papeete Faa'a", "shortName": "Faa'a", "municipalityName": "Papeete", "location": {"lat": -17.5537, "lon": -149.607}, "countryCode": "PF"}, "averageDailyFlights": 1.86, "operators": [{"name": "French Bee", "iata": "BF", "icao": "FBU"}, {"name": "United Airlines", "iata": "UA", "icao": "UAL"}, {"name": "VJT"}]}, {"destination": {"icao": "KBFL", "iata": "BFL", "name": "Bakersfield Meadows Field", "shortName": "Meadows Field", "municipalityName": "Bakersfield", "location": {"lat": 35.4336, "lon": -119.057}, "countryCode": "US"}, "averageDailyFlights": 1.71, "operators": [{"name": "SkyWest Airlines", "iata": "OO", "icao": "SKW"}, {"name": "United Airlines", "iata": "UA", "icao": "UAL"}]}, {"destination": {"icao": "KBZN", "iata": "BZN", "name": "Bozeman Gallatin Field", "shortName": "Gallatin Field", "municipalityName": "Bozeman", "location": {"lat": 45.7775, "lon": -111.153}, "countryCode": "US"}, "averageDailyFlights": 1.71, "operators": [{"name": "United Airlines", "iata": "UA", "icao": "UAL"}, {"name": "VJA"}, {"name": "NetJets Aviation", "iata": "1I", "icao": "EJA"}]}, {"destination": {"icao": "CYYC", "iata": "YYC", "name": "Calgary ", "shortName": "Calgary", "municipalityName": "Calgary", "location": {"lat": 51.1139, "lon": -114.02}, "countryCode": "CA"}, "averageDailyFlights": 1.71, "operators": [{"name": "WestJet", "iata": "WS", "icao": "WJA"}, {"name": "United Airlines", "iata": "UA", "icao": "UAL"}]}, {"destination": {"icao": "LIRF", "iata": "FCO", "name": "Rome Leonardo da Vinci\u2013Fiumicino", "shortName": "Leonardo da Vinci\u2013Fiumicino", "municipalityName": "Rome", "location": {"lat": 41.8045, "lon": 12.2508}, "countryCode": "IT"}, "averageDailyFlights": 1.71, "operators": [{"name": "ITA Airways", "iata": "AZ", "icao": "ITY"}, {"name": "United Airlines", "iata": "UA", "icao": "UAL"}]}, {"destination": {"icao": "ZSPD", "iata": "PVG", "name": "Shanghai Pudong", "shortName": "Pudong", "municipalityName": "Shanghai", "location": {"lat": 31.1434, "lon": 121.805}, "countryCode": "CN"}, "averageDailyFlights": 1.71, "operators": [{"name": "United Airlines", "iata": "UA", "icao": "UAL"}, {"name": "China Eastern Airlines", "iata": "MU", "icao": "CES"}]}, {"destination": {"icao": "MPTO", "iata": "PTY", "name": "Tocumen ", "shortName": "Tocumen", "municipalityName": "Tocumen", "location": {"lat": 9.071359, "lon": -79.3835}, "countryCode": "PA"}, "averageDailyFlights": 1.71, "operators": [{"name": "Copa Airlines", "iata": "CM", "icao": "CMP"}]}, {"destination": {"icao": "KMRY", "iata": "MRY", "name": "Monterey Peninsula", "shortName": "Peninsula", "municipalityName": "Monterey", "location": {"lat": 36.587, "lon": -121.843}, "countryCode": "US"}, "averageDailyFlights": 1.57, "operators": [{"name": "NetJets Aviation", "iata": "1I", "icao": "EJA"}, {"name": "United Airlines", "iata": "UA", "icao": "UAL"}, {"name": "SCN"}]}, {"destination": {"icao": "YSSY", "iata": "SYD", "name": "Sydney City Sydney Kingsford Smith", "shortName": "Sydney Kingsford Smith", "municipalityName": "Sydney City", "location": {"lat": -33.9461, "lon": 151.177}, "countryCode": "AU"}, "averageDailyFlights": 1.57, "operators": [{"name": "United Airlines", "iata": "UA", "icao": "UAL"}, {"name": "Qantas", "iata": "QF", "icao": "QFA"}]}, {"destination": {"icao": "KCVG", "iata": "CVG", "name": "Cincinnati Northern Kentucky", "shortName": "Northern Kentucky", "municipalityName": "Cincinnati", "location": {"lat": 39.0488, "lon": -84.6678}, "countryCode": "US"}, "averageDailyFlights": 1.29, "operators": [{"name": "Breeze Airways", "iata": "MX", "icao": "MXY"}, {"name": "21 Air", "iata": "2I", "icao": "CSB"}]}, {"destination": {"icao": "KCLE", "iata": "CLE", "name": "Cleveland Hopkins", "shortName": "Hopkins", "municipalityName": "Cleveland", "location": {"lat": 41.4117, "lon": -81.8498}, "countryCode": "US"}, "averageDailyFlights": 1.29, "operators": [{"name": "United Airlines", "iata": "UA", "icao": "UAL"}, {"name": "VJA"}]}, {"destination": {"icao": "OTHH", "iata": "DOH", "name": "Doha Hamad", "shortName": "Hamad", "municipalityName": "Doha", "location": {"lat": 25.273056, "lon": 51.608055}, "countryCode": "QA"}, "averageDailyFlights": 1.29, "operators": [{"name": "Qatar Airways", "iata": "QR", "icao": "QTR"}]}, {"destination": {"icao": "EIDW", "iata": "DUB", "name": "Dublin ", "shortName": "Dublin", "municipalityName": "Dublin", "location": {"lat": 53.4213, "lon": -6.27007}, "countryCode": "IE"}, "averageDailyFlights": 1.29, "operators": [{"name": "Aer Lingus", "iata": "EI", "icao": "EIN"}]}, {"destination": {"icao": "KPAE", "iata": "PAE", "name": "Everett Snohomish County (Paine Field)", "shortName": "Snohomish County (Paine Field)", "municipalityName": "Everett", "location": {"lat": 47.9063, "lon": -122.282}, "countryCode": "US"}, "averageDailyFlights": 1.29, "operators": [{"name": "Alaska Airlines", "iata": "AS", "icao": "ASA"}, {"name": "FTH"}]}, {"destination": {"icao": "CYUL", "iata": "YUL", "name": "Montreal Trudeau", "shortName": "Trudeau", "municipalityName": "Montreal", "location": {"lat": 45.4706, "lon": -73.7408}, "countryCode": "CA"}, "averageDailyFlights": 1.29, "operators": [{"name": "Air Canada", "iata": "AC", "icao": "ACA"}]}, {"destination": {"icao": "KOTH", "iata": "OTH", "name": "North Bend Southwest Oregon Regional", "shortName": "Southwest Oregon Regional", "municipalityName": "North Bend", "location": {"lat": 43.4171, "lon": -124.246}, "countryCode": "US"}, "averageDailyFlights": 1.29, "operators": [{"name": "United Airlines", "iata": "UA", "icao": "UAL"}, {"name": "NetJets Aviation", "iata": "1I", "icao": "EJA"}]}, {"destination": {"icao": "NZAA", "iata": "AKL", "name": "Auckland ", "shortName": "Auckland", "municipalityName": "Auckland", "location": {"lat": -37.0081, "lon": 174.792}, "countryCode": "NZ"}, "averageDailyFlights": 1.14, "operators": [{"name": "Air New Zealand", "iata": "NZ", "icao": "ANZ"}, {"name": "United Airlines", "iata": "UA", "icao": "UAL"}]}, {"destination": {"icao": "KBWI", "iata": "BWI", "name": "Baltimore Washington  Thurgood Marshall", "shortName": "Washington  Thurgood Marshall", "municipalityName": "Baltimore", "location": {"lat": 39.1754, "lon": -76.6683}, "countryCode": "US"}, "averageDailyFlights": 1.14, "operators": [{"name": "United Airlines", "iata": "UA", "icao": "UAL"}]}, {"destination": {"icao": "ZBAA", "iata": "PEK", "name": "Beijing Capital", "shortName": "Capital", "municipalityName": "Beijing", "location": {"lat": 40.0801, "lon": 116.585}, "countryCode": "CN"}, "averageDailyFlights": 1.14, "operators": [{"name": "United Airlines", "iata": "UA", "icao": "UAL"}]}, {"destination": {"icao": "KCMH", "iata": "CMH", "name": "Columbus Port", "shortName": "Port", "municipalityName": "Columbus", "location": {"lat": 39.998, "lon": -82.8919}, "countryCode": "US"}, "averageDailyFlights": 1.14, "operators": [{"name": "FFL"}, {"name": "United Airlines", "iata": "UA", "icao": "UAL"}]}, {"destination": {"icao": "EKCH", "iata": "CPH", "name": "Copenhagen Kastrup", "shortName": "Kastrup", "municipalityName": "Copenhagen", "location": {"lat": 55.6179, "lon": 12.656}, "countryCode": "DK"}, "averageDailyFlights": 1.14, "operators": [{"name": "SAS", "iata": "SK", "icao": "SAS"}]}, {"destination": {"icao": "KDCA", "iata": "DCA", "name": "District of Columbia Ronald Reagan Washington National", "shortName": "Ronald Reagan Washington National", "municipalityName": "District of Columbia", "location": {"lat": 38.8521, "lon": -77.0377}, "countryCode": "US"}, "averageDailyFlights": 1.14, "operators": [{"name": "Alaska Airlines", "iata": "AS", "icao": "ASA"}]}, {"destination": {"icao": "OMDB", "iata": "DXB", "name": "Dubai ", "shortName": "Dubai", "municipalityName": "Dubai", "location": {"lat": 25.252798, "lon": 55.3644}, "countryCode": "AE"}, "averageDailyFlights": 1.14, "operators": [{"name": "Emirates", "iata": "EK", "icao": "UAE"}]}, {"destination": {"icao": "CYEG", "iata": "YEG", "name": "Edmonton ", "shortName": "Edmonton", "municipalityName": "Edmonton", "location": {"lat": 53.3097, "lon": -113.58}, "countryCode": "CA"}, "averageDailyFlights": 1.14, "operators": [{"name": "Air Canada", "iata": "AC", "icao": "ACA"}]}, {"destination": {"icao": "KAFW", "iata": "AFW", "name": "Fort Worth Alliance", "shortName": "Alliance", "municipalityName": "Fort Worth", "location": {"lat": 32.9876, "lon": -97.3188}, "countryCode": "US"}, "averageDailyFlights": 1.14, "operators": [{"name": "ATI", "iata": "8C", "icao": "ATN"}]}, {"destination": {"icao": "KIND", "iata": "IND", "name": "Indianapolis ", "shortName": "Indianapolis", "municipalityName": "Indianapolis", "location": {"lat": 39.7173, "lon": -86.2944}, "countryCode": "US"}, "averageDailyFlights": 1.14, "operators": [{"name": "United Airlines", "iata": "UA", "icao": "UAL"}]}, {"destination": {"icao": "KMCI", "iata": "MCI", "name": "Kansas City ", "shortName": "Kansas City", "municipalityName": "Kansas City", "location": {"lat": 39.2976, "lon": -94.7139}, "countryCode": "US"}, "averageDailyFlights": 1.14, "operators": [{"name": "United Airlines", "iata": "UA", "icao": "UAL"}]}, {"destination": {"icao": "YMML", "iata": "MEL", "name": "Melbourne City Melbourne", "shortName": "Melbourne", "municipalityName": "Melbourne City", "location": {"lat": -37.6733, "lon": 144.843}, "countryCode": "AU"}, "averageDailyFlights": 1.14, "operators": [{"name": "United Airlines", "iata": "UA", "icao": "UAL"}]}, {"destination": {"icao": "RJBB", "iata": "KIX", "name": "Osaka Kansai", "shortName": "Kansai", "municipalityName": "Osaka", "location": {"lat": 34.4273, "lon": 135.244}, "countryCode": "JP"}, "averageDailyFlights": 1.14, "operators": [{"name": "United Airlines", "iata": "UA", "icao": "UAL"}]}, {"destination": {"icao": "KPSC", "iata": "PSC", "name": "Pasco Tri Cities", "shortName": "Tri Cities", "municipalityName": "Pasco", "location": {"lat": 46.2647, "lon": -119.119}, "countryCode": "US"}, "averageDailyFlights": 1.14, "operators": [{"name": "United Airlines", "iata": "UA", "icao": "UAL"}]}, {"destination": {"icao": "KSAT", "iata": "SAT", "name": "San Antonio ", "shortName": "San Antonio", "municipalityName": "San Antonio", "location": {"lat": 29.5337, "lon": -98.4698}, "countryCode": "US"}, "averageDailyFlights": 1.14, "operators": [{"name": "United Airlines", "iata": "UA", "icao": "UAL"}]}, {"destination": {"icao": "KILN", "iata": "ILN", "name": "Wilmington Airpark", "shortName": "Airpark", "municipalityName": "Wilmington", "location": {"lat": 39.4279, "lon": -83.7921}, "countryCode": "US"}, "averageDailyFlights": 1.14, "operators": [{"name": "ATI", "iata": "8C", "icao": "ATN"}]}, {"destination": {"icao": "LSZH", "iata": "ZRH", "name": "Zurich Kloten", "shortName": "Kloten", "municipalityName": "Zurich", "location": {"lat": 47.4647, "lon": 8.549169}, "countryCode": "CH"}, "averageDailyFlights": 1.14, "operators": [{"name": "SWISS", "iata": "LX", "icao": "SWR"}]}, {"destination": {"icao": "KSTL", "iata": "STL", "name": "Saint Louis Lambert St Louis", "shortName": "Lambert St Louis", "municipalityName": "Saint Louis", "location": {"lat": 38.7487, "lon": -90.37}, "countryCode": "US"}, "averageDailyFlights": 1.0, "operators": [{"name": "Southwest Airlines", "iata": "WN", "icao": "SWA"}, {"name": "NetJets Aviation", "iata": "1I", "icao": "EJA"}]}, {"destination": {"icao": "KSJC", "iata": "SJC", "name": "San Jose Norman Y. Mineta", "shortName": "Norman Y. Mineta", "municipalityName": "San Jose", "location": {"lat": 37.3626, "lon": -121.929}, "countryCode": "US"}, "averageDailyFlights": 1.0, "operators": [{"name": "LXJ"}, {"name": "VJA"}, {"name": "NetJets Aviation", "iata": "1I", "icao": "EJA"}, {"name": "TIV"}]}, {"destination": {"icao": "KTEB", "iata": "TEB", "name": "Teterboro ", "shortName": "Teterboro", "municipalityName": "Teterboro", "location": {"lat": 40.8501, "lon": -74.0608}, "countryCode": "US"}, "averageDailyFlights": 1.0, "operators": [{"name": "NetJets Aviation", "iata": "1I", "icao": "EJA"}, {"name": "VJA"}, {"name": "KFB"}]}, {"destination": {"icao": "KDAL", "iata": "DAL", "name": "Dallas Love Field", "shortName": "Love Field", "municipalityName": "Dallas", "location": {"lat": 32.8471, "lon": -96.8518}, "countryCode": "US"}, "averageDailyFlights": 0.86, "operators": [{"name": "TOG"}, {"name": "Alaska Airlines", "iata": "AS", "icao": "ASA"}, {"name": "NJZ"}]}, {"destination": {"icao": "MMGL", "iata": "GDL", "name": "Guadalajara Don Miguel Hidalgo Y Costilla", "shortName": "Don Miguel Hidalgo Y Costilla", "municipalityName": "Guadalajara", "location": {"lat": 20.5218, "lon": -103.311}, "countryCode": "MX"}, "averageDailyFlights": 0.86, "operators": [{"name": "Aeromexico", "iata": "AM", "icao": "AMX"}]}, {"destination": {"icao": "KOAK", "iata": "OAK", "name": "Oakland Metropolitan", "shortName": "Metropolitan", "municipalityName": "Oakland", "location": {"lat": 37.7213, "lon": -122.221}, "countryCode": "US"}, "averageDailyFlights": 0.86, "operators": [{"name": "PXT"}, {"name": "United Airlines", "iata": "UA", "icao": "UAL"}, {"name": "RGY"}, {"name": "Delta Air Lines", "iata": "DL", "icao": "DAL"}, {"name": "NetJets Aviation", "iata": "1I", "icao": "EJA"}]}, {"destination": {"icao": "KSDL", "iata": "SCF", "name": "Scottsdale ", "shortName": "Scottsdale", "municipalityName": "Scottsdale", "location": {"lat": 33.6229, "lon": -111.911}, "countryCode": "US"}, "averageDailyFlights": 0.86, "operators": [{"name": "NetJets Aviation", "iata": "1I", "icao": "EJA"}, {"name": "VJA"}, {"name": "National Airlines", "iata": "N8", "icao": "NCR"}, {"name": "LXJ"}, {"name": "CNK"}]}, {"destination": {"icao": "VVTS", "iata": "SGN", "name": "Ho Chi Minh City Tan Son Nhat", "shortName": "Tan Son Nhat", "municipalityName": "Ho Chi Minh City", "location": {"lat": 10.818799, "lon": 106.652}, "countryCode": "VN"}, "averageDailyFlights": 0.71, "operators": [{"name": "Vietnam Airlines", "iata": "VN", "icao": "HVN"}]}, {"destination": {"icao": "LPPT", "iata": "LIS", "name": "Lisbon Portela", "shortName": "Portela", "municipalityName": "Lisbon", "location": {"lat": 38.7813, "lon": -9.135919}, "countryCode": "PT"}, "averageDailyFlights": 0.71, "operators": [{"name": "TAP Air Portugal", "iata": "TP", "icao": "TAP"}]}, {"destination": {"icao": "VABB", "iata": "BOM", "name": "Mumbai Chhatrapati Shivaji", "shortName": "Chhatrapati Shivaji", "municipalityName": "Mumbai", "location": {"lat": 19.0887, "lon": 72.8679}, "countryCode": "IN"}, "averageDailyFlights": 0.71, "operators": [{"name": "Air India", "iata": "AI", "icao": "AIC"}]}, {"destination": {"icao": "LFPO", "iata": "ORY", "name": "Paris -Orly", "shortName": "-Orly", "municipalityName": "Paris", "location": {"lat": 48.7253, "lon": 2.35944}, "countryCode": "FR"}, "averageDailyFlights": 0.71, "operators": [{"name": "French Bee", "iata": "BF", "icao": "FBU"}]}, {"destination": {"icao": "KSBD", "iata": "SBD", "name": "San Bernardino ", "shortName": "San Bernardino", "municipalityName": "San Bernardino", "location": {"lat": 34.0954, "lon": -117.235}, "countryCode": "US"}, "averageDailyFlights": 0.71, "operators": [{"name": "Breeze Airways", "iata": "MX", "icao": "MXY"}]}, {"destination": {"name": "Provo"}, "averageDailyFlights": 0.71, "operators": [{"name": "Breeze Airways", "iata": "MX", "icao": "MXY"}]}, {"destination": {"icao": "KBIH", "iata": "BIH", "name": "Bishop Eastern Sierra Regional", "shortName": "Eastern Sierra Regional", "municipalityName": "Bishop", "location": {"lat": 37.3731, "lon": -118.364}, "countryCode": "US"}, "averageDailyFlights": 0.57, "operators": [{"name": "United Airlines", "iata": "UA", "icao": "UAL"}]}, {"destination": {"icao": "YBBN", "iata": "BNE", "name": "Brisbane City Brisbane", "shortName": "Brisbane", "municipalityName": "Brisbane City", "location": {"lat": -27.3842, "lon": 153.117}, "countryCode": "AU"}, "averageDailyFlights": 0.57, "operators": [{"name": "United Airlines", "iata": "UA", "icao": "UAL"}]}, {"destination": {"icao": "NFFN", "iata": "NAN", "name": "Nadi ", "shortName": "Nadi", "municipalityName": "Nadi", "location": {"lat": -17.7554, "lon": 177.443}, "countryCode": "FJ"}, "averageDailyFlights": 0.57, "operators": [{"name": "Fiji Airways", "iata": "FJ", "icao": "FJI"}]}, {"destination": {"icao": "KTRM", "iata": "TRM", "name": "Palm Springs Jacqueline Cochran Regional", "shortName": "Jacqueline Cochran Regional", "municipalityName": "Palm Springs", "location": {"lat": 33.6267, "lon": -116.16}, "countryCode": "US"}, "averageDailyFlights": 0.57, "operators": [{"name": "LXJ"}, {"name": "SCN"}]}, {"destination": {"icao": "VOBL", "iata": "BLR", "name": "Bangalore Bengaluru", "shortName": "Bengaluru", "municipalityName": "Bangalore", "location": {"lat": 13.197899, "lon": 77.7063}, "countryCode": "IN"}, "averageDailyFlights": 0.43, "operators": [{"name": "Air India", "iata": "AI", "icao": "AIC"}]}, {"destination": {"icao": "LEBL", "iata": "BCN", "name": "Barcelona ", "shortName": "Barcelona", "municipalityName": "Barcelona", "location": {"lat": 41.2971, "lon": 2.078459}, "countryCode": "ES"}, "averageDailyFlights": 0.43, "operators": [{"name": "Iberia", "iata": "IB", "icao": "IBE"}]}, {"destination": {"icao": "KHOU", "iata": "HOU", "name": "Houston William P Hobby", "shortName": "William P Hobby", "municipalityName": "Houston", "location": {"lat": 29.6454, "lon": -95.2789}, "countryCode": "US"}, "averageDailyFlights": 0.43, "operators": [{"name": "VJA"}, {"name": "Delta Air Lines", "iata": "DL", "icao": "DAL"}]}, {"destination": {"icao": "LEMD", "iata": "MAD", "name": "Madrid Adolfo Su\u00e1rez \u2013Barajas", "shortName": "Adolfo Su\u00e1rez \u2013Barajas", "municipalityName": "Madrid", "location": {"lat": 40.4936, "lon": -3.56676}, "countryCode": "ES"}, "averageDailyFlights": 0.43, "operators": [{"name": "Iberia", "iata": "IB", "icao": "IBE"}]}, {"destination": {"icao": "KMMH", "iata": "MMH", "name": "Mammoth Lakes Mammoth Yosemite", "shortName": "Mammoth Yosemite", "municipalityName": "Mammoth Lakes", "location": {"lat": 37.6241, "lon": -118.838}, "countryCode": "US"}, "averageDailyFlights": 0.43, "operators": [{"name": "NetJets Aviation", "iata": "1I", "icao": "EJA"}]}, {"destination": {"icao": "KMCC", "iata": "MCC", "name": "Sacramento Mc Clellan Airfield", "shortName": "Mc Clellan Airfield", "municipalityName": "Sacramento", "location": {"lat": 38.6676, "lon": -121.401}, "countryCode": "US"}, "averageDailyFlights": 0.43, "operators": [{"name": "TWY"}, {"name": "CMD"}]}, {"destination": {"icao": "RJGG", "iata": "NGO", "name": "Tokoname Chubu Centrair", "shortName": "Chubu Centrair", "municipalityName": "Tokoname", "location": {"lat": 34.8584, "lon": 136.805}, "countryCode": "JP"}, "averageDailyFlights": 0.43, "operators": [{"name": "VJT"}, {"name": "China Airlines", "iata": "CI", "icao": "CAL"}]}, {"destination": {"icao": "KPDK", "iata": "PDK", "name": "Atlanta DeKalb Peachtree", "shortName": "DeKalb Peachtree", "municipalityName": "Atlanta", "location": {"lat": 33.8756, "lon": -84.302}, "countryCode": "US"}, "averageDailyFlights": 0.29, "operators": [{"name": "LXJ"}, {"name": "EJM"}]}, {"destination": {"icao": "KMDW", "iata": "MDW", "name": "Chicago Midway", "shortName": "Midway", "municipalityName": "Chicago", "location": {"lat": 41.786, "lon": -87.7524}, "countryCode": "US"}, "averageDailyFlights": 0.29, "operators": [{"name": "VJA"}]}, {"destination": {"icao": "KEGE", "iata": "EGE", "name": "Eagle County Regional", "shortName": "County Regional", "municipalityName": "Eagle", "location": {"lat": 39.6426, "lon": -106.918}, "countryCode": "US"}, "averageDailyFlights": 0.29, "operators": [{"name": "LXJ"}, {"name": "Ultimate Air Shuttle", "iata": "UE", "icao": "UJC"}]}, {"destination": {"icao": "MMZH", "iata": "ZIH", "name": "Ixtapa Zihuatanejo", "shortName": "Zihuatanejo", "municipalityName": "Ixtapa", "location": {"lat": 17.6016, "lon": -101.461}, "countryCode": "MX"}, "averageDailyFlights": 0.29, "operators": [{"name": "Alaska Airlines", "iata": "AS", "icao": "ASA"}]}, {"destination": {"icao": "KJAC", "iata": "JAC", "name": "Jackson Hole", "shortName": "Hole", "municipalityName": "Jackson", "location": {"lat": 43.6073, "lon": -110.738}, "countryCode": "US"}, "averageDailyFlights": 0.29, "operators": [{"name": "VJA"}, {"name": "NetJets Aviation", "iata": "1I", "icao": "EJA"}]}, {"destination": {"icao": "KSDF", "iata": "SDF", "name": "Louisville Standiford Field", "shortName": "Standiford Field", "municipalityName": "Louisville", "location": {"lat": 38.1744, "lon": -85.736}, "countryCode": "US"}, "averageDailyFlights": 0.29, "operators": [{"name": "Breeze Airways", "iata": "MX", "icao": "MXY"}]}, {"destination": {"icao": "KRIC", "iata": "RIC", "name": "Richmond ", "shortName": "Richmond", "municipalityName": "Richmond", "location": {"lat": 37.5052, "lon": -77.3197}, "countryCode": "US"}, "averageDailyFlights": 0.29, "operators": [{"name": "Breeze Airways", "iata": "MX", "icao": "MXY"}]}, {"destination": {"icao": "MROC", "iata": "SJO", "name": "San Jos\u00e9 Juan Santamaria", "shortName": "Juan Santamaria", "municipalityName": "San Jos\u00e9", "location": {"lat": 9.99386, "lon": -84.2088}, "countryCode": "CR"}, "averageDailyFlights": 0.29, "operators": [{"name": "TWY"}]}, {"destination": {"icao": "KBFI", "iata": "BFI", "name": "Seattle Boeing Field King County", "shortName": "Boeing Field King County", "municipalityName": "Seattle", "location": {"lat": 47.53, "lon": -122.302}, "countryCode": "US"}, "averageDailyFlights": 0.29, "operators": [{"name": "Alaska Airlines", "iata": "AS", "icao": "ASA"}, {"name": "EJM"}]}, {"destination": {"icao": "ZHHH", "iata": "WUH", "name": "Wuhan Tianhe", "shortName": "Tianhe", "municipalityName": "Wuhan", "location": {"lat": 30.7838, "lon": 114.208}, "countryCode": "CN"}, "averageDailyFlights": 0.29, "operators": [{"name": "China Southern Airlines", "iata": "CZ", "icao": "CSN"}]}, {"destination": {"icao": "KESF", "iata": "ESF", "name": "Alexandria Esler Regional", "shortName": "Esler Regional", "municipalityName": "Alexandria", "location": {"lat": 31.3949, "lon": -92.2958}, "countryCode": "US"}, "averageDailyFlights": 0.14, "operators": [{"name": "DCM"}]}, {"destination": {"icao": "KBED", "iata": "BED", "name": "Bedford Laurence G Hanscom Field", "shortName": "Laurence G Hanscom Field", "municipalityName": "Bedford", "location": {"lat": 42.47, "lon": -71.289}, "countryCode": "US"}, "averageDailyFlights": 0.14, "operators": [{"name": "LXJ"}]}, {"destination": {"icao": "KCRQ", "iata": "CLD", "name": "Carlsbad Mc Clellan-Palomar", "shortName": "Mc Clellan-Palomar", "municipalityName": "Carlsbad", "location": {"lat": 33.1283, "lon": -117.28}, "countryCode": "US"}, "averageDailyFlights": 0.14, "operators": [{"name": "LXJ"}]}, {"destination": {"icao": "KCID", "iata": "CID", "name": "Cedar Rapids The Eastern Iowa", "shortName": "The Eastern Iowa", "municipalityName": "Cedar Rapids", "location": {"lat": 41.8847, "lon": -91.7108}, "countryCode": "US"}, "averageDailyFlights": 0.14, "operators": [{"name": "NetJets Aviation", "iata": "1I", "icao": "EJA"}]}, {"destination": {"icao": "KCHS", "iata": "CHS", "name": "Charleston Air Force Base-", "shortName": "Air Force Base-", "municipalityName": "Charleston", "location": {"lat": 32.8986, "lon": -80.0405}, "countryCode": "US"}, "averageDailyFlights": 0.14, "operators": [{"name": "VJA"}]}, {"destination": {"icao": "KCAE", "iata": "CAE", "name": "Columbia Metropolitan", "shortName": "Metropolitan", "municipalityName": "Columbia", "location": {"lat": 33.9388, "lon": -81.1195}, "countryCode": "US"}, "averageDailyFlights": 0.14, "operators": [{"name": "NetJets Aviation", "iata": "1I", "icao": "EJA"}]}, {"destination": {"icao": "KCSG", "iata": "CSG", "name": "Columbus Metropolitan", "shortName": "Metropolitan", "municipalityName": "Columbus", "location": {"lat": 32.5163, "lon": -84.9389}, "countryCode": "US"}, "averageDailyFlights": 0.14, "operators": [{"name": "LXJ"}]}, {"destination": {"icao": "KBJC", "iata": "BJC", "name": "Denver Rocky Mountain Metropolitan", "shortName": "Rocky Mountain Metropolitan", "municipalityName": "Denver", "location": {"lat": 39.9088, "lon": -105.117}, "countryCode": "US"}, "averageDailyFlights": 0.14, "operators": [{"name": "NetJets Aviation", "iata": "1I", "icao": "EJA"}]}, {"destination": {"icao": "ZGGG", "iata": "CAN", "name": "Guangzhou Baiyun", "shortName": "Baiyun", "municipalityName": "Guangzhou", "location": {"lat": 23.3924, "lon": 113.299}, "countryCode": "CN"}, "averageDailyFlights": 0.14, "operators": [{"name": "China Southern Airlines", "iata": "CZ", "icao": "CSN"}]}, {"destination": {"icao": "KCXY", "iata": "HAR", "name": "Harrisburg Capital City", "shortName": "Capital City", "municipalityName": "Harrisburg", "location": {"lat": 40.2171, "lon": -76.8515}, "countryCode": "US"}, "averageDailyFlights": 0.14, "operators": [{"name": "KFB"}]}, {"destination": {"icao": "KHWD", "iata": "HWD", "name": "Hayward Executive", "shortName": "Executive", "municipalityName": "Hayward", "location": {"lat": 37.6592, "lon": -122.122}, "countryCode": "US"}, "averageDailyFlights": 0.14, "operators": [{"name": "NJZ"}]}, {"destination": {"icao": "PHNY", "iata": "LNY", "name": "Lanai City Lanai", "shortName": "Lanai", "municipalityName": "Lanai City", "location": {"lat": 20.7856, "lon": -156.951}, "countryCode": "US"}, "averageDailyFlights": 0.14, "operators": [{"name": "LXJ"}]}, {"destination": {"icao": "KLRD", "iata": "LRD", "name": "Laredo ", "shortName": "Laredo", "municipalityName": "Laredo", "location": {"lat": 27.5438, "lon": -99.4616}, "countryCode": "US"}, "averageDailyFlights": 0.14, "operators": [{"name": "IFL"}]}, {"destination": {"icao": "KHND", "iata": "HSH", "name": "Las Vegas Henderson Executive", "shortName": "Henderson Executive", "municipalityName": "Las Vegas", "location": {"lat": 35.9728, "lon": -115.134}, "countryCode": "US"}, "averageDailyFlights": 0.14, "operators": [{"name": "PGR"}]}, {"destination": {"icao": "KLEB", "iata": "LEB", "name": "Lebanon Municipal", "shortName": "Municipal", "municipalityName": "Lebanon", "location": {"lat": 43.6261, "lon": -72.3042}, "countryCode": "US"}, "averageDailyFlights": 0.14, "operators": [{"name": "NetJets Aviation", "iata": "1I", "icao": "EJA"}]}, {"destination": {"icao": "MRLB", "iata": "LIR", "name": "Liberia Daniel Oduber Quiros", "shortName": "Daniel Oduber Quiros", "municipalityName": "Liberia", "location": {"lat": 10.593299, "lon": -85.5444}, "countryCode": "CR"}, "averageDailyFlights": 0.14, "operators": [{"name": "United Airlines", "iata": "UA", "icao": "UAL"}]}, {"destination": {"icao": "KLVK", "iata": "LVK", "name": "Livermore Municipal", "shortName": "Municipal", "municipalityName": "Livermore", "location": {"lat": 37.6934, "lon": -121.82}, "countryCode": "US"}, "averageDailyFlights": 0.14, "operators": [{"name": "LXJ"}]}, {"destination": {"icao": "KLVM", "iata": "LVM", "name": "Livingston Mission Field", "shortName": "Mission Field", "municipalityName": "Livingston", "location": {"lat": 45.6994, "lon": -110.448}, "countryCode": "US"}, "averageDailyFlights": 0.14, "operators": [{"name": "NetJets Aviation", "iata": "1I", "icao": "EJA"}]}, {"destination": {"icao": "MMLT", "iata": "LTO", "name": "Loreto ", "shortName": "Loreto", "municipalityName": "Loreto", "location": {"lat": 25.9892, "lon": -111.348}, "countryCode": "MX"}, "averageDailyFlights": 0.14, "operators": [{"name": "Alaska Airlines", "iata": "AS", "icao": "ASA"}]}, {"destination": {"icao": "KMAE", "iata": "MAE", "name": "Madera Municipal", "shortName": "Municipal", "municipalityName": "Madera", "location": {"lat": 36.9886, "lon": -120.112}, "countryCode": "US"}, "averageDailyFlights": 0.14, "operators": [{"name": "TOG"}]}, {"destination": {"icao": "MMMZ", "iata": "MZT", "name": "Mazatl\u00e1n General Rafael Buelna", "shortName": "General Rafael Buelna", "municipalityName": "Mazatl\u00e1n", "location": {"lat": 23.1614, "lon": -106.266}, "countryCode": "MX"}, "averageDailyFlights": 0.14, "operators": [{"name": "Alaska Airlines", "iata": "AS", "icao": "ASA"}]}, {"destination": {"icao": "KMDD", "iata": "MDD", "name": "Midland Airpark", "shortName": "Airpark", "municipalityName": "Midland", "location": {"lat": 32.0365, "lon": -102.101}, "countryCode": "US"}, "averageDailyFlights": 0.14, "operators": [{"name": "JTZ"}]}, {"destination": {"icao": "KAPC", "iata": "APC", "name": "Napa County", "shortName": "County", "municipalityName": "Napa", "location": {"lat": 38.2132, "lon": -122.281}, "countryCode": "US"}, "averageDailyFlights": 0.14, "operators": [{"name": "NetJets Aviation", "iata": "1I", "icao": "EJA"}]}, {"destination": {"icao": "MYNN", "iata": "NAS", "name": "Nassau Lynden Pindling", "shortName": "Lynden Pindling", "municipalityName": "Nassau", "location": {"lat": 25.039, "lon": -77.4662}, "countryCode": "BS"}, "averageDailyFlights": 0.14, "operators": [{"name": "VJT"}]}, {"destination": {"icao": "KPSM", "iata": "PSM", "name": "Portsmouth at Pease", "shortName": "at Pease", "municipalityName": "Portsmouth", "location": {"lat": 43.0779, "lon": -70.8233}, "countryCode": "US"}, "averageDailyFlights": 0.14, "operators": [{"name": "NetJets Aviation", "iata": "1I", "icao": "EJA"}]}, {"destination": {"icao": "KSUS", "iata": "SUS", "name": "Saint Louis Spirit of St Louis", "shortName": "Spirit of St Louis", "municipalityName": "Saint Louis", "location": {"lat": 38.6621, "lon": -90.652}, "countryCode": "US"}, "averageDailyFlights": 0.14, "operators": [{"name": "JTZ"}]}, {"destination": {"icao": "KSTS", "iata": "STS", "name": "Santa Rosa Charles M. Schulz Sonoma County", "shortName": "Charles M. Schulz Sonoma County", "municipalityName": "Santa Rosa", "location": {"lat": 38.509, "lon": -122.813}, "countryCode": "US"}, "averageDailyFlights": 0.14, "operators": [{"name": "NetJets Aviation", "iata": "1I", "icao": "EJA"}]}, {"destination": {"icao": "KSHV", "iata": "SHV", "name": "Shreveport Regional", "shortName": "Regional", "municipalityName": "Shreveport", "location": {"lat": 32.4466, "lon": -93.8256}, "countryCode": "US"}, "averageDailyFlights": 0.14, "operators": [{"name": "Jet Linx Aviation", "iata": "JL", "icao": "JTL"}]}, {"destination": {"icao": "KSKX", "iata": "TSM", "name": "Taos Regional", "shortName": "Regional", "municipalityName": "Taos", "location": {"lat": 36.4582, "lon": -105.672}, "countryCode": "US"}, "averageDailyFlights": 0.14, "operators": [{"name": "NJZ"}]}, {"destination": {"icao": "KDLS", "iata": "DLS", "name": "The Dalles Columbia Gorge Regional  Municipal", "shortName": "Columbia Gorge Regional  Municipal", "municipalityName": "The Dalles", "location": {"lat": 45.6185, "lon": -121.167}, "countryCode": "US"}, "averageDailyFlights": 0.14, "operators": [{"name": "NetJets Aviation", "iata": "1I", "icao": "EJA"}]}, {"destination": {"icao": "KTRK", "iata": "TKF", "name": "Truckee Tahoe", "shortName": "Tahoe", "municipalityName": "Truckee", "location": {"lat": 39.32, "lon": -120.14}, "countryCode": "US"}, "averageDailyFlights": 0.14, "operators": [{"name": "TWY"}]}, {"destination": {"icao": "KAVQ", "iata": "AVW", "name": "Tucson Marana Regional", "shortName": "Marana Regional", "municipalityName": "Tucson", "location": {"lat": 32.4096, "lon": -111.218}, "countryCode": "US"}, "averageDailyFlights": 0.14, "operators": [{"name": "NetJets Aviation", "iata": "1I", "icao": "EJA"}]}, {"destination": {"icao": "KVRB", "iata": "VRB", "name": "Vero Beach Municipal", "shortName": "Municipal", "municipalityName": "Vero Beach", "location": {"lat": 27.6556, "lon": -80.4179}, "countryCode": "US"}, "averageDailyFlights": 0.14, "operators": [{"name": "NetJets Aviation", "iata": "1I", "icao": "EJA"}]}, {"destination": {"icao": "KACT", "iata": "ACT", "name": "Waco Regional", "shortName": "Regional", "municipalityName": "Waco", "location": {"lat": 31.6113, "lon": -97.2305}, "countryCode": "US"}, "averageDailyFlights": 0.14, "operators": [{"name": "NetJets Aviation", "iata": "1I", "icao": "EJA"}]}, {"destination": {"icao": "KPBI", "iata": "PBI", "name": "West Palm Beach Palm Beach", "shortName": "Palm Beach", "municipalityName": "West Palm Beach", "location": {"lat": 26.6832, "lon": -80.0956}, "countryCode": "US"}, "averageDailyFlights": 0.14, "operators": [{"name": "NetJets Aviation", "iata": "1I", "icao": "EJA"}]}, {"destination": {"icao": "KHPN", "iata": "HPN", "name": "White Plains Westchester County", "shortName": "Westchester County", "municipalityName": "White Plains", "location": {"lat": 41.067, "lon": -73.7076}, "countryCode": "US"}, "averageDailyFlights": 0.14, "operators": [{"name": "NetJets Aviation", "iata": "1I", "icao": "EJA"}]}, {"destination": {"icao": "KLNN", "iata": "LNN", "name": "Willoughby Lost Nation Municipal", "shortName": "Lost Nation Municipal", "municipalityName": "Willoughby", "location": {"lat": 41.684, "lon": -81.3897}, "countryCode": "US"}, "averageDailyFlights": 0.14, "operators": [{"name": "NetJets Aviation", "iata": "1I", "icao": "EJA"}]}]}