{"routes": [{"destination": {"icao": "LDZA", "iata": "ZAG", "name": "Zagreb ", "shortName": "Zagreb", "municipalityName": "Zagreb", "location": {"lat": 45.7429, "lon": 16.068798}, "countryCode": "HR"}, "averageDailyFlights": 1.29, "operators": [{"name": "Croatia Airlines", "iata": "OU", "icao": "CTN"}]}, {"destination": {"icao": "LDPL", "iata": "PUY", "name": "Pula ", "shortName": "Pula", "municipalityName": "Pula", "location": {"lat": 44.8935, "lon": 13.9222}, "countryCode": "HR"}, "averageDailyFlights": 1.14, "operators": [{"name": "Croatia Airlines", "iata": "OU", "icao": "CTN"}]}, {"destination": {"icao": "EDDK", "iata": "CGN", "name": "Cologne Bonn", "shortName": "Bonn", "municipalityName": "Cologne", "location": {"lat": 50.8659, "lon": 7.142739}, "countryCode": "DE"}, "averageDailyFlights": 1.0, "operators": [{"name": "Ryanair", "iata": "FR", "icao": "RYR"}]}, {"destination": {"icao": "EDLV", "iata": "NRN", "name": "Weeze Niederrhein", "shortName": "Niederrhein", "municipalityName": "Weeze", "location": {"lat": 51.6024, "lon": 6.142169}, "countryCode": "DE"}, "averageDailyFlights": 1.0, "operators": [{"name": "Ryanair", "iata": "FR", "icao": "RYR"}]}, {"destination": {"icao": "EGSS", "iata": "STN", "name": "London Stansted", "shortName": "Stansted", "municipalityName": "London", "location": {"lat": 51.885, "lon": 0.234999}, "countryCode": "GB"}, "averageDailyFlights": 0.86, "operators": [{"name": "Ryanair", "iata": "FR", "icao": "RYR"}]}, {"destination": {"icao": "EBCI", "iata": "CRL", "name": "Brussels South Charleroi", "shortName": "South Charleroi", "municipalityName": "Brussels", "location": {"lat": 50.4592, "lon": 4.45382}, "countryCode": "BE"}, "averageDailyFlights": 0.71, "operators": [{"name": "Ryanair", "iata": "FR", "icao": "RYR"}]}, {"destination": {"icao": "EDJA", "iata": "FMM", "name": "Memmingen Allgau", "shortName": "Allgau", "municipalityName": "Memmingen", "location": {"lat": 47.9888, "lon": 10.2395}, "countryCode": "DE"}, "averageDailyFlights": 0.71, "operators": [{"name": "Ryanair", "iata": "FR", "icao": "RYR"}]}, {"destination": {"icao": "EPPO", "iata": "POZ", "name": "Pozna\u0144 -\u0141awica", "shortName": "-\u0141awica", "municipalityName": "Pozna\u0144", "location": {"lat": 52.421, "lon": 16.8263}, "countryCode": "PL"}, "averageDailyFlights": 0.71, "operators": [{"name": "Ryanair", "iata": "FR", "icao": "RYR"}]}, {"destination": {"icao": "LOWW", "iata": "VIE", "name": "Vienna Schwechat", "shortName": "Schwechat", "municipalityName": "Vienna", "location": {"lat": 48.1103, "lon": 16.5697}, "countryCode": "AT"}, "averageDailyFlights": 0.71, "operators": [{"name": "Ryanair", "iata": "FR", "icao": "RYR"}]}, {"destination": {"icao": "EPWR", "iata": "WRO", "name": "Wroc\u0142aw Copernicus", "shortName": "Copernicus", "municipalityName": "Wroc\u0142aw", "location": {"lat": 51.1027, "lon": 16.8858}, "countryCode": "PL"}, "averageDailyFlights": 0.71, "operators": [{"name": "Ryanair", "iata": "FR", "icao": "RYR"}]}, {"destination": {"icao": "EDDH", "iata": "HAM", "name": "Hamburg ", "shortName": "Hamburg", "municipalityName": "Hamburg", "location": {"lat": 53.6304, "lon": 9.988229}, "countryCode": "DE"}, "averageDailyFlights": 0.57, "operators": [{"name": "Ryanair", "iata": "FR", "icao": "RYR"}]}, {"destination": {"icao": "EPKK", "iata": "KRK", "name": "Krak\u00f3w John Paul II   -Balice", "shortName": "John Paul II   -Balice", "municipalityName": "Krak\u00f3w", "location": {"lat": 50.0777, "lon": 19.7848}, "countryCode": "PL"}, "averageDailyFlights": 0.57, "operators": [{"name": "Ryanair", "iata": "FR", "icao": "RYR"}]}, {"destination": {"icao": "LKPR", "iata": "PRG", "name": "Prague Ruzyn\u011b", "shortName": "Ruzyn\u011b", "municipalityName": "Prague", "location": {"lat": 50.1008, "lon": 14.26}, "countryCode": "CZ"}, "averageDailyFlights": 0.57, "operators": [{"name": "Ryanair", "iata": "FR", "icao": "RYR"}]}, {"destination": {"icao": "EDSB", "iata": "FKB", "name": "Baden-Baden Karlsruhe", "shortName": "Karlsruhe", "municipalityName": "Baden-Baden", "location": {"lat": 48.7794, "lon": 8.080499}, "countryCode": "DE"}, "averageDailyFlights": 0.43, "operators": [{"name": "Ryanair", "iata": "FR", "icao": "RYR"}]}, {"destination": {"icao": "EGBB", "iata": "BHX", "name": "Birmingham ", "shortName": "Birmingham", "municipalityName": "Birmingham", "location": {"lat": 52.4539, "lon": -1.748029}, "countryCode": "GB"}, "averageDailyFlights": 0.43, "operators": [{"name": "Ryanair", "iata": "FR", "icao": "RYR"}]}, {"destination": {"icao": "EDDW", "iata": "BRE", "name": "Bremen ", "shortName": "Bremen", "municipalityName": "Bremen", "location": {"lat": 53.0475, "lon": 8.786669}, "countryCode": "DE"}, "averageDailyFlights": 0.43, "operators": [{"name": "Ryanair", "iata": "FR", "icao": "RYR"}]}, {"destination": {"icao": "LHBP", "iata": "BUD", "name": "Budapest Ferenc Liszt", "shortName": "Ferenc Liszt", "municipalityName": "Budapest", "location": {"lat": 47.4369, "lon": 19.255598}, "countryCode": "HU"}, "averageDailyFlights": 0.43, "operators": [{"name": "Ryanair", "iata": "FR", "icao": "RYR"}]}, {"destination": {"icao": "EFHK", "iata": "HEL", "name": "Helsinki Vantaa", "shortName": "Vantaa", "municipalityName": "Helsinki", "location": {"lat": 60.3172, "lon": 24.9633}, "countryCode": "FI"}, "averageDailyFlights": 0.43, "operators": [{"name": "Ryanair", "iata": "FR", "icao": "RYR"}]}, {"destination": {"icao": "EKAH", "iata": "AAR", "name": "Aarhus ", "shortName": "Aarhus", "municipalityName": "Aarhus", "location": {"lat": 56.3, "lon": 10.619}, "countryCode": "DK"}, "averageDailyFlights": 0.29, "operators": [{"name": "Ryanair", "iata": "FR", "icao": "RYR"}]}, {"destination": {"icao": "LEBL", "iata": "BCN", "name": "Barcelona ", "shortName": "Barcelona", "municipalityName": "Barcelona", "location": {"lat": 41.2971, "lon": 2.078459}, "countryCode": "ES"}, "averageDailyFlights": 0.29, "operators": [{"name": "Ryanair", "iata": "FR", "icao": "RYR"}]}, {"destination": {"icao": "LFOB", "iata": "BVA", "name": "Beauvais/Till\u00e9 Paris Beauvais Till\u00e9", "shortName": "Paris Beauvais Till\u00e9", "municipalityName": "Beauvais/Till\u00e9", "location": {"lat": 49.4544, "lon": 2.11278}, "countryCode": "FR"}, "averageDailyFlights": 0.29, "operators": [{"name": "Ryanair", "iata": "FR", "icao": "RYR"}]}, {"destination": {"icao": "LIME", "iata": "BGY", "name": "Bergamo Orio al Serio", "shortName": "Orio al Serio", "municipalityName": "Bergamo", "location": {"lat": 45.6739, "lon": 9.70417}, "countryCode": "IT"}, "averageDailyFlights": 0.29, "operators": [{"name": "Ryanair", "iata": "FR", "icao": "RYR"}]}, {"destination": {"icao": "EHEH", "iata": "EIN", "name": "Eindhoven ", "shortName": "Eindhoven", "municipalityName": "Eindhoven", "location": {"lat": 51.4501, "lon": 5.374529}, "countryCode": "NL"}, "averageDailyFlights": 0.29, "operators": [{"name": "Ryanair", "iata": "FR", "icao": "RYR"}]}, {"destination": {"icao": "EPGD", "iata": "GDN", "name": "Gda\u0144sk Lech Wa\u0142\u0119sa", "shortName": "Lech Wa\u0142\u0119sa", "municipalityName": "Gda\u0144sk", "location": {"lat": 54.3776, "lon": 18.4662}, "countryCode": "PL"}, "averageDailyFlights": 0.29, "operators": [{"name": "Ryanair", "iata": "FR", "icao": "RYR"}]}, {"destination": {"icao": "ESGG", "iata": "GOT", "name": "Goteborg Gothenburg-Landvetter", "shortName": "Gothenburg-Landvetter", "municipalityName": "Goteborg", "location": {"lat": 57.6628, "lon": 12.2798}, "countryCode": "SE"}, "averageDailyFlights": 0.29, "operators": [{"name": "Ryanair", "iata": "FR", "icao": "RYR"}]}, {"destination": {"icao": "EDFH", "iata": "HHN", "name": "Hahn Frankfurt-", "shortName": "Frankfurt-", "municipalityName": "Hahn", "location": {"lat": 49.9487, "lon": 7.263889}, "countryCode": "DE"}, "averageDailyFlights": 0.29, "operators": [{"name": "Ryanair", "iata": "FR", "icao": "RYR"}]}, {"destination": {"icao": "EGCC", "iata": "MAN", "name": "Manchester ", "shortName": "Manchester", "municipalityName": "Manchester", "location": {"lat": 53.3537, "lon": -2.27495}, "countryCode": "GB"}, "averageDailyFlights": 0.29, "operators": [{"name": "Ryanair", "iata": "FR", "icao": "RYR"}]}, {"destination": {"icao": "LFML", "iata": "MRS", "name": "Marseille Provence", "shortName": "Provence", "municipalityName": "Marseille", "location": {"lat": 43.43927, "lon": 5.221424}, "countryCode": "FR"}, "averageDailyFlights": 0.29, "operators": [{"name": "Ryanair", "iata": "FR", "icao": "RYR"}]}, {"destination": {"icao": "EDDG", "iata": "FMO", "name": "M\u00fcnster Osnabr\u00fcck", "shortName": "Osnabr\u00fcck", "municipalityName": "M\u00fcnster", "location": {"lat": 52.1346, "lon": 7.68483}, "countryCode": "DE"}, "averageDailyFlights": 0.29, "operators": [{"name": "Ryanair", "iata": "FR", "icao": "RYR"}]}, {"destination": {"icao": "EDDN", "iata": "NUE", "name": "Nuremberg ", "shortName": "Nuremberg", "municipalityName": "Nuremberg", "location": {"lat": 49.4987, "lon": 11.0669}, "countryCode": "DE"}, "averageDailyFlights": 0.29, "operators": [{"name": "Ryanair", "iata": "FR", "icao": "RYR"}]}, {"destination": {"icao": "LDOS", "iata": "OSI", "name": "Osijek ", "shortName": "Osijek", "municipalityName": "Osijek", "location": {"lat": 45.4627, "lon": 18.8102}, "countryCode": "HR"}, "averageDailyFlights": 0.29, "operators": [{"name": "Trade Air", "iata": "C3", "icao": "TDR"}]}, {"destination": {"icao": "LDRI", "iata": "RJK", "name": "Rijeka ", "shortName": "Rijeka", "municipalityName": "Rijeka", "location": {"lat": 45.2169, "lon": 14.5703}, "countryCode": "HR"}, "averageDailyFlights": 0.29, "operators": [{"name": "Trade Air", "iata": "C3", "icao": "TDR"}]}, {"destination": {"icao": "EPRZ", "iata": "RZE", "name": "Rzesz\u00f3w -Jasionka", "shortName": "-Jasionka", "municipalityName": "Rzesz\u00f3w", "location": {"lat": 50.11, "lon": 22.019}, "countryCode": "PL"}, "averageDailyFlights": 0.29, "operators": [{"name": "Ryanair", "iata": "FR", "icao": "RYR"}]}, {"destination": {"icao": "ESMX", "iata": "VXO", "name": "V\u00e4xj\u00f6 Kronoberg", "shortName": "Kronoberg", "municipalityName": "V\u00e4xj\u00f6", "location": {"lat": 56.9291, "lon": 14.727999}, "countryCode": "SE"}, "averageDailyFlights": 0.29, "operators": [{"name": "Ryanair", "iata": "FR", "icao": "RYR"}]}, {"destination": {"icao": "EDDF", "iata": "FRA", "name": "Frankfurt-am-Main ", "shortName": "Frankfurt-am-Main", "municipalityName": "Frankfurt-am-Main", "location": {"lat": 50.0264, "lon": 8.543129}, "countryCode": "DE"}, "averageDailyFlights": 0.14, "operators": [{"name": "Flight Alaska"}]}, {"destination": {"icao": "LIMC", "iata": "MXP", "name": "Milan Malpensa", "shortName": "Malpensa", "municipalityName": "Milan", "location": {"lat": 45.6306, "lon": 8.72811}, "countryCode": "IT"}, "averageDailyFlights": 0.14, "operators": [{"name": "Ryanair", "iata": "FR", "icao": "RYR"}]}]}