{"routes": [{"destination": {"icao": "EDDM", "iata": "MUC", "name": "Munich ", "shortName": "Munich", "municipalityName": "Munich", "location": {"lat": 48.3538, "lon": 11.7861}, "countryCode": "DE"}, "averageDailyFlights": 0.71, "operators": [{"name": "Lufthansa", "iata": "LH", "icao": "DLH"}]}, {"destination": {"name": "London"}, "averageDailyFlights": 0.71, "operators": [{"name": "Wizz Air", "iata": "W6", "icao": "WZZ"}]}, {"destination": {"icao": "EHEH", "iata": "EIN", "name": "Eindhoven ", "shortName": "Eindhoven", "municipalityName": "Eindhoven", "location": {"lat": 51.4501, "lon": 5.374529}, "countryCode": "NL"}, "averageDailyFlights": 0.43, "operators": [{"name": "Wizz Air", "iata": "W6", "icao": "WZZ"}]}, {"destination": {"icao": "LCLK", "iata": "LCA", "name": "Larnarca Larnaca", "shortName": "Larnaca", "municipalityName": "Larnarca", "location": {"lat": 34.8751, "lon": 33.6249}, "countryCode": "CY"}, "averageDailyFlights": 0.43, "operators": [{"name": "Wizz Air", "iata": "W6", "icao": "WZZ"}]}, {"destination": {"icao": "LTAI", "iata": "AYT", "name": "Antalya ", "shortName": "Antalya", "municipalityName": "Antalya", "location": {"lat": 36.8987, "lon": 30.8005}, "countryCode": "TR"}, "averageDailyFlights": 0.29, "operators": [{"name": "Wizz Air", "iata": "W6", "icao": "WZZ"}]}, {"destination": {"icao": "LIRF", "iata": "FCO", "name": "Rome Leonardo da Vinci\u2013Fiumicino", "shortName": "Leonardo da Vinci\u2013Fiumicino", "municipalityName": "Rome", "location": {"lat": 41.8045, "lon": 12.2508}, "countryCode": "IT"}, "averageDailyFlights": 0.29, "operators": [{"name": "Wizz Air", "iata": "W6", "icao": "WZZ"}]}]}