{"routes": [{"destination": {"icao": "OMDB", "iata": "DXB", "name": "Dubai ", "shortName": "Dubai", "municipalityName": "Dubai", "location": {"lat": 25.252798, "lon": 55.3644}, "countryCode": "AE"}, "averageDailyFlights": 13.0, "operators": [{"name": "flydubai", "iata": "FZ", "icao": "FDB"}, {"name": "Gulf Air", "iata": "GF", "icao": "GFA"}, {"name": "Emirates", "iata": "EK", "icao": "UAE"}]}, {"destination": {"icao": "OERK", "iata": "RUH", "name": "Riyadh King Khaled", "shortName": "King Khaled", "municipalityName": "Riyadh", "location": {"lat": 24.9576, "lon": 46.6988}, "countryCode": "SA"}, "averageDailyFlights": 7.86, "operators": [{"name": "Gulf Air", "iata": "GF", "icao": "GFA"}, {"name": "Saudi Arabian Airlines", "iata": "SV", "icao": "SVA"}, {"name": "Lufthansa", "iata": "LH", "icao": "DLH"}, {"name": "flynas", "iata": "XY", "icao": "KNE"}]}, {"destination": {"icao": "OTHH", "iata": "DOH", "name": "Doha Hamad", "shortName": "Hamad", "municipalityName": "Doha", "location": {"lat": 25.273056, "lon": 51.608055}, "countryCode": "QA"}, "averageDailyFlights": 7.14, "operators": [{"name": "Qatar Airways", "iata": "QR", "icao": "QTR"}, {"name": "Gulf Air", "iata": "GF", "icao": "GFA"}]}, {"destination": {"icao": "OMAA", "iata": "AUH", "name": "Abu Dhabi Island and Internal Islands City Abu Dhabi", "shortName": "Abu Dhabi", "municipalityName": "Abu Dhabi Island and Internal Islands City", "location": {"lat": 24.433, "lon": 54.6511}, "countryCode": "AE"}, "averageDailyFlights": 6.71, "operators": [{"name": "Etihad Airways", "iata": "EY", "icao": "ETD"}, {"name": "Gulf Air", "iata": "GF", "icao": "GFA"}, {"name": "Air Arabia Abu Dhabi", "iata": "3L", "icao": "ADY"}]}, {"destination": {"icao": "OEJN", "iata": "JED", "name": "Jeddah King Abdulaziz", "shortName": "King Abdulaziz", "municipalityName": "Jeddah", "location": {"lat": 21.6796, "lon": 39.1565}, "countryCode": "SA"}, "averageDailyFlights": 5.57, "operators": [{"name": "Gulf Air", "iata": "GF", "icao": "GFA"}, {"name": "Saudi Arabian Airlines", "iata": "SV", "icao": "SVA"}, {"name": "flynas", "iata": "XY", "icao": "KNE"}]}, {"destination": {"icao": "OKBK", "iata": "KWI", "name": "Kuwait City Kuwait", "shortName": "Kuwait", "municipalityName": "Kuwait City", "location": {"lat": 29.2266, "lon": 47.9689}, "countryCode": "KW"}, "averageDailyFlights": 5.57, "operators": [{"name": "Gulf Air", "iata": "GF", "icao": "GFA"}, {"name": "Kuwait Airways", "iata": "KU", "icao": "KAC"}, {"name": "Jazeera Airways", "iata": "J9", "icao": "JZR"}]}, {"destination": {"icao": "OEDF", "iata": "DMM", "name": "Ad Dammam King Fahd", "shortName": "King Fahd", "municipalityName": "Ad Dammam", "location": {"lat": 26.4712, "lon": 49.7979}, "countryCode": "SA"}, "averageDailyFlights": 4.57, "operators": [{"name": "Gulf Air", "iata": "GF", "icao": "GFA"}]}, {"destination": {"icao": "OMSJ", "iata": "SHJ", "name": "Sharjah ", "shortName": "Sharjah", "municipalityName": "Sharjah", "location": {"lat": 25.3286, "lon": 55.5172}, "countryCode": "AE"}, "averageDailyFlights": 3.43, "operators": [{"name": "Air Arabia", "iata": "G9", "icao": "ABY"}]}, {"destination": {"icao": "EGLL", "iata": "LHR", "name": "London Heathrow", "shortName": "Heathrow", "municipalityName": "London", "location": {"lat": 51.4706, "lon": -0.461941}, "countryCode": "GB"}, "averageDailyFlights": 3.14, "operators": [{"name": "Gulf Air", "iata": "GF", "icao": "GFA"}, {"name": "British Airways", "iata": "BA", "icao": "BAW"}]}, {"destination": {"icao": "VABB", "iata": "BOM", "name": "Mumbai Chhatrapati Shivaji", "shortName": "Chhatrapati Shivaji", "municipalityName": "Mumbai", "location": {"lat": 19.0887, "lon": 72.8679}, "countryCode": "IN"}, "averageDailyFlights": 3.14, "operators": [{"name": "Gulf Air", "iata": "GF", "icao": "GFA"}, {"name": "IndiGo", "iata": "6E", "icao": "IGO"}]}, {"destination": {"icao": "OOMS", "iata": "MCT", "name": "Muscat ", "shortName": "Muscat", "municipalityName": "Muscat", "location": {"lat": 23.5933, "lon": 58.2844}, "countryCode": "OM"}, "averageDailyFlights": 3.0, "operators": [{"name": "Gulf Air", "iata": "GF", "icao": "GFA"}, {"name": "Oman Air", "iata": "WY", "icao": "OMA"}, {"name": "SalamAir", "iata": "OV", "icao": "OMS"}]}, {"destination": {"icao": "VIDP", "iata": "DEL", "name": "New Delhi Indira Gandhi", "shortName": "Indira Gandhi", "municipalityName": "New Delhi", "location": {"lat": 28.5665, "lon": 77.1031}, "countryCode": "IN"}, "averageDailyFlights": 2.89, "operators": [{"name": "Gulf Air", "iata": "GF", "icao": "GFA"}, {"name": "Air India", "iata": "AI", "icao": "AIC"}]}, {"destination": {"icao": "HECA", "iata": "CAI", "name": "Cairo ", "shortName": "Cairo", "municipalityName": "Cairo", "location": {"lat": 30.1219, "lon": 31.4056}, "countryCode": "EG"}, "averageDailyFlights": 2.86, "operators": [{"name": "Gulf Air", "iata": "GF", "icao": "GFA"}, {"name": "EgyptAir", "iata": "MS", "icao": "MSR"}, {"name": "Air Arabia Egypt", "iata": "E5", "icao": "RBG"}]}, {"destination": {"icao": "OJAI", "iata": "AMM", "name": "Amman Queen Alia", "shortName": "Queen Alia", "municipalityName": "Amman", "location": {"lat": 31.7226, "lon": 35.9932}, "countryCode": "JO"}, "averageDailyFlights": 1.57, "operators": [{"name": "Gulf Air", "iata": "GF", "icao": "GFA"}, {"name": "Royal Jordanian", "iata": "RJ", "icao": "RJA"}]}, {"destination": {"icao": "VOCL", "iata": "CCJ", "name": "Calicut ", "shortName": "Calicut", "municipalityName": "Calicut", "location": {"lat": 11.136799, "lon": 75.9553}, "countryCode": "IN"}, "averageDailyFlights": 1.57, "operators": [{"name": "Gulf Air", "iata": "GF", "icao": "GFA"}, {"name": "Air India Express", "iata": "IX", "icao": "AXB"}]}, {"destination": {"icao": "VOMM", "iata": "MAA", "name": "Chennai ", "shortName": "Chennai", "municipalityName": "Chennai", "location": {"lat": 12.990005, "lon": 80.1693}, "countryCode": "IN"}, "averageDailyFlights": 1.57, "operators": [{"name": "Gulf Air", "iata": "GF", "icao": "GFA"}]}, {"destination": {"icao": "LTFM", "iata": "IST", "name": "Istanbul ", "shortName": "Istanbul", "municipalityName": "Istanbul", "location": {"lat": 41.275276, "lon": 28.751944}, "countryCode": "TR"}, "averageDailyFlights": 1.57, "operators": [{"name": "Gulf Air", "iata": "GF", "icao": "GFA"}]}, {"destination": {"icao": "OPKC", "iata": "KHI", "name": "Karanchi Jinnah", "shortName": "Jinnah", "municipalityName": "Karanchi", "location": {"lat": 24.9065, "lon": 67.1608}, "countryCode": "PK"}, "averageDailyFlights": 1.57, "operators": [{"name": "Gulf Air", "iata": "GF", "icao": "GFA"}]}, {"destination": {"icao": "VOCI", "iata": "COK", "name": "Kochi Cochin", "shortName": "Cochin", "municipalityName": "Kochi", "location": {"lat": 10.152, "lon": 76.4019}, "countryCode": "IN"}, "averageDailyFlights": 1.57, "operators": [{"name": "Air India Express", "iata": "IX", "icao": "AXB"}, {"name": "Gulf Air", "iata": "GF", "icao": "GFA"}]}, {"destination": {"icao": "VGHS", "iata": "DAC", "name": "Dhaka Hazrat Shahjalal", "shortName": "Hazrat Shahjalal", "municipalityName": "Dhaka", "location": {"lat": 23.843348, "lon": 90.39778}, "countryCode": "BD"}, "averageDailyFlights": 1.43, "operators": [{"name": "Gulf Air", "iata": "GF", "icao": "GFA"}]}, {"destination": {"icao": "LGAV", "iata": "ATH", "name": "Athens Eleftherios Venizelos", "shortName": "Eleftherios Venizelos", "municipalityName": "Athens", "location": {"lat": 37.9364, "lon": 23.944498}, "countryCode": "GR"}, "averageDailyFlights": 1.29, "operators": [{"name": "Gulf Air", "iata": "GF", "icao": "GFA"}]}, {"destination": {"icao": "VOHS", "iata": "HYD", "name": "Hyderabad Rajiv Gandhi", "shortName": "Rajiv Gandhi", "municipalityName": "Hyderabad", "location": {"lat": 17.231318, "lon": 78.429855}, "countryCode": "IN"}, "averageDailyFlights": 1.29, "operators": [{"name": "Gulf Air", "iata": "GF", "icao": "GFA"}]}, {"destination": {"icao": "LTFJ", "iata": "SAW", "name": "Istanbul Sabiha G\u00f6k\u00e7en", "shortName": "Sabiha G\u00f6k\u00e7en", "municipalityName": "Istanbul", "location": {"lat": 40.8986, "lon": 29.3092}, "countryCode": "TR"}, "averageDailyFlights": 1.29, "operators": [{"name": "Pegasus", "iata": "PC", "icao": "PGT"}, {"name": "Turkish Airlines", "iata": "TK", "icao": "THY"}]}, {"destination": {"icao": "RPLL", "iata": "MNL", "name": "Manila Ninoy Aquino", "shortName": "Ninoy Aquino", "municipalityName": "Manila", "location": {"lat": 14.5086, "lon": 121.02}, "countryCode": "PH"}, "averageDailyFlights": 1.29, "operators": [{"name": "Gulf Air", "iata": "GF", "icao": "GFA"}]}, {"destination": {"icao": "VOTV", "iata": "TRV", "name": "Trivandrum ", "shortName": "Trivandrum", "municipalityName": "Trivandrum", "location": {"lat": 8.482119, "lon": 76.9201}, "countryCode": "IN"}, "averageDailyFlights": 1.29, "operators": [{"name": "Air India Express", "iata": "IX", "icao": "AXB"}, {"name": "Gulf Air", "iata": "GF", "icao": "GFA"}]}, {"destination": {"icao": "EDDF", "iata": "FRA", "name": "Frankfurt-am-Main ", "shortName": "Frankfurt-am-Main", "municipalityName": "Frankfurt-am-Main", "location": {"lat": 50.0264, "lon": 8.543129}, "countryCode": "DE"}, "averageDailyFlights": 1.16, "operators": [{"name": "Gulf Air", "iata": "GF", "icao": "GFA"}, {"name": "Lufthansa", "iata": "LH", "icao": "DLH"}]}, {"destination": {"icao": "VTBS", "iata": "BKK", "name": "Bangkok Suvarnabhumi", "shortName": "Suvarnabhumi", "municipalityName": "Bangkok", "location": {"lat": 13.681099, "lon": 100.747}, "countryCode": "TH"}, "averageDailyFlights": 1.14, "operators": [{"name": "Gulf Air", "iata": "GF", "icao": "GFA"}]}, {"destination": {"icao": "OEMA", "iata": "MED", "name": "Medina Prince Mohammad Bin Abdulaziz", "shortName": "Prince Mohammad Bin Abdulaziz", "municipalityName": "Medina", "location": {"lat": 24.5534, "lon": 39.7051}, "countryCode": "SA"}, "averageDailyFlights": 1.14, "operators": [{"name": "Gulf Air", "iata": "GF", "icao": "GFA"}]}, {"destination": {"icao": "LFPG", "iata": "CDG", "name": "Paris Charles de Gaulle", "shortName": "Charles de Gaulle", "municipalityName": "Paris", "location": {"lat": 49.0128, "lon": 2.549999}, "countryCode": "FR"}, "averageDailyFlights": 1.14, "operators": [{"name": "Gulf Air", "iata": "GF", "icao": "GFA"}]}, {"destination": {"name": "Moscow"}, "averageDailyFlights": 1.14, "operators": [{"name": "Gulf Air", "iata": "GF", "icao": "GFA"}]}, {"destination": {"icao": "VOBL", "iata": "BLR", "name": "Bangalore Bengaluru", "shortName": "Bengaluru", "municipalityName": "Bangalore", "location": {"lat": 13.197899, "lon": 77.7063}, "countryCode": "IN"}, "averageDailyFlights": 1.0, "operators": [{"name": "Gulf Air", "iata": "GF", "icao": "GFA"}]}, {"destination": {"icao": "OPIS", "iata": "ISB", "name": "Islamabad ", "shortName": "Islamabad", "municipalityName": "Islamabad", "location": {"lat": 33.549, "lon": 72.82566}, "countryCode": "PK"}, "averageDailyFlights": 1.0, "operators": [{"name": "Gulf Air", "iata": "GF", "icao": "GFA"}, {"name": "Pakistan International Airlines", "iata": "PK", "icao": "PIA"}]}, {"destination": {"icao": "OPLA", "iata": "LHE", "name": "Lahore Alama Iqbal", "shortName": "Alama Iqbal", "municipalityName": "Lahore", "location": {"lat": 31.5216, "lon": 74.4036}, "countryCode": "PK"}, "averageDailyFlights": 1.0, "operators": [{"name": "Gulf Air", "iata": "GF", "icao": "GFA"}, {"name": "Pakistan International Airlines", "iata": "PK", "icao": "PIA"}]}, {"destination": {"icao": "VRMM", "iata": "MLE", "name": "Mal\u00e9 ", "shortName": "Mal\u00e9", "municipalityName": "Mal\u00e9", "location": {"lat": 4.19183, "lon": 73.5291}, "countryCode": "MV"}, "averageDailyFlights": 1.0, "operators": [{"name": "Gulf Air", "iata": "GF", "icao": "GFA"}]}, {"destination": {"icao": "OPMT", "iata": "MUX", "name": "Multan ", "shortName": "Multan", "municipalityName": "Multan", "location": {"lat": 30.2032, "lon": 71.4191}, "countryCode": "PK"}, "averageDailyFlights": 1.0, "operators": [{"name": "Gulf Air", "iata": "GF", "icao": "GFA"}]}, {"destination": {"icao": "LIMC", "iata": "MXP", "name": "Milan Malpensa", "shortName": "Malpensa", "municipalityName": "Milan", "location": {"lat": 45.6306, "lon": 8.72811}, "countryCode": "IT"}, "averageDailyFlights": 0.71, "operators": [{"name": "Gulf Air", "iata": "GF", "icao": "GFA"}]}, {"destination": {"icao": "OPPS", "iata": "PEW", "name": "Peshawar ", "shortName": "Peshawar", "municipalityName": "Peshawar", "location": {"lat": 33.9939, "lon": 71.5146}, "countryCode": "PK"}, "averageDailyFlights": 0.71, "operators": [{"name": "Gulf Air", "iata": "GF", "icao": "GFA"}]}, {"destination": {"icao": "OPST", "iata": "SKT", "name": "Sialkot ", "shortName": "Sialkot", "municipalityName": "Sialkot", "location": {"lat": 32.535557, "lon": 74.36389}, "countryCode": "PK"}, "averageDailyFlights": 0.71, "operators": [{"name": "Gulf Air", "iata": "GF", "icao": "GFA"}]}, {"destination": {"icao": "HAAB", "iata": "ADD", "name": "Addis Ababa Bole", "shortName": "Bole", "municipalityName": "Addis Ababa", "location": {"lat": 8.97789, "lon": 38.7993}, "countryCode": "ET"}, "averageDailyFlights": 0.57, "operators": [{"name": "Ethiopian Airlines", "iata": "ET", "icao": "ETH"}]}, {"destination": {"icao": "GMMN", "iata": "CMN", "name": "Casablanca Mohammed V", "shortName": "Mohammed V", "municipalityName": "Casablanca", "location": {"lat": 33.3675, "lon": -7.58997}, "countryCode": "MA"}, "averageDailyFlights": 0.43, "operators": [{"name": "Gulf Air", "iata": "GF", "icao": "GFA"}]}, {"destination": {"icao": "OPFA", "iata": "LYP", "name": "Faisalabad ", "shortName": "Faisalabad", "municipalityName": "Faisalabad", "location": {"lat": 31.365, "lon": 72.9948}, "countryCode": "PK"}, "averageDailyFlights": 0.43, "operators": [{"name": "Gulf Air", "iata": "GF", "icao": "GFA"}]}, {"destination": {"icao": "LCLK", "iata": "LCA", "name": "Larnarca Larnaca", "shortName": "Larnaca", "municipalityName": "Larnarca", "location": {"lat": 34.8751, "lon": 33.6249}, "countryCode": "CY"}, "averageDailyFlights": 0.43, "operators": [{"name": "Gulf Air", "iata": "GF", "icao": "GFA"}]}, {"destination": {"icao": "LIRF", "iata": "FCO", "name": "Rome Leonardo da Vinci\u2013Fiumicino", "shortName": "Leonardo da Vinci\u2013Fiumicino", "municipalityName": "Rome", "location": {"lat": 41.8045, "lon": 12.2508}, "countryCode": "IT"}, "averageDailyFlights": 0.43, "operators": [{"name": "Gulf Air", "iata": "GF", "icao": "GFA"}]}, {"destination": {"icao": "WSSS", "iata": "SIN", "name": "Singapore Changi", "shortName": "Changi", "municipalityName": "Singapore", "location": {"lat": 1.35019, "lon": 103.994}, "countryCode": "SG"}, "averageDailyFlights": 0.43, "operators": [{"name": "Gulf Air", "iata": "GF", "icao": "GFA"}]}, {"destination": {"icao": "VOGO", "iata": "GOI", "name": "Vasco da Gama Dabolim", "shortName": "Dabolim", "municipalityName": "Vasco da Gama", "location": {"lat": 15.3808, "lon": 73.8314}, "countryCode": "IN"}, "averageDailyFlights": 0.43, "operators": [{"name": "Gulf Air", "iata": "GF", "icao": "GFA"}]}, {"destination": {"icao": "LZIB", "iata": "BTS", "name": "Bratislava M. R. \u0160tef\u00e1nik", "shortName": "M. R. \u0160tef\u00e1nik", "municipalityName": "Bratislava", "location": {"lat": 48.1702, "lon": 17.2127}, "countryCode": "SK"}, "averageDailyFlights": 0.29, "operators": [{"name": "SmartWings", "iata": "QS", "icao": "TVS"}]}, {"destination": {"name": "Tbilisi"}, "averageDailyFlights": 0.29, "operators": [{"name": "Gulf Air", "iata": "GF", "icao": "GFA"}]}, {"destination": {"name": "Bangalor"}, "averageDailyFlights": 0.14, "operators": [{"name": "Gulf Air", "iata": "GF", "icao": "GFA"}]}, {"destination": {"name": "Chennay"}, "averageDailyFlights": 0.14, "operators": [{"name": "Gulf Air", "iata": "GF", "icao": "GFA"}]}, {"destination": {"name": "Colombo"}, "averageDailyFlights": 0.14, "operators": [{"name": "Gulf Air", "iata": "GF", "icao": "GFA"}]}, {"destination": {"name": "Goa"}, "averageDailyFlights": 0.14, "operators": [{"name": "Gulf Air", "iata": "GF", "icao": "GFA"}]}, {"destination": {"name": "Kozhikode"}, "averageDailyFlights": 0.14, "operators": [{"name": "Gulf Air", "iata": "GF", "icao": "GFA"}]}, {"destination": {"name": "Manchester"}, "averageDailyFlights": 0.14, "operators": [{"name": "Gulf Air", "iata": "GF", "icao": "GFA"}]}, {"destination": {"name": "Mangalore"}, "averageDailyFlights": 0.14, "operators": [{"name": "Air India Express", "iata": "IX", "icao": "AXB"}]}, {"destination": {"name": "Tiruvanantapura"}, "averageDailyFlights": 0.14, "operators": [{"name": "Gulf Air", "iata": "GF", "icao": "GFA"}]}]}