{"routes": [{"destination": {"icao": "OEJN", "iata": "JED", "name": "Jeddah King Abdulaziz", "shortName": "King Abdulaziz", "municipalityName": "Jeddah", "location": {"lat": 21.6796, "lon": 39.1565}, "countryCode": "SA"}, "averageDailyFlights": 27.29, "operators": [{"name": "flyadeal", "iata": "F3", "icao": "FAD"}, {"name": "Saudi Arabian Airlines", "iata": "SV", "icao": "SVA"}, {"name": "flynas", "iata": "XY", "icao": "KNE"}]}, {"destination": {"icao": "OERK", "iata": "RUH", "name": "Riyadh King Khaled", "shortName": "King Khaled", "municipalityName": "Riyadh", "location": {"lat": 24.9576, "lon": 46.6988}, "countryCode": "SA"}, "averageDailyFlights": 14.14, "operators": [{"name": "Saudi Arabian Airlines", "iata": "SV", "icao": "SVA"}, {"name": "flynas", "iata": "XY", "icao": "KNE"}, {"name": "flyadeal", "iata": "F3", "icao": "FAD"}]}, {"destination": {"icao": "HECA", "iata": "CAI", "name": "Cairo ", "shortName": "Cairo", "municipalityName": "Cairo", "location": {"lat": 30.1219, "lon": 31.4056}, "countryCode": "EG"}, "averageDailyFlights": 8.71, "operators": [{"name": "EgyptAir", "iata": "MS", "icao": "MSR"}, {"name": "flyadeal", "iata": "F3", "icao": "FAD"}, {"name": "flynas", "iata": "XY", "icao": "KNE"}, {"name": "Nile Air", "iata": "NP", "icao": "NIA"}, {"name": "Air Cairo", "iata": "SM", "icao": "MSC"}, {"name": "Air Arabia Egypt", "iata": "E5", "icao": "RBG"}]}, {"destination": {"icao": "OMDB", "iata": "DXB", "name": "Dubai ", "shortName": "Dubai", "municipalityName": "Dubai", "location": {"lat": 25.252798, "lon": 55.3644}, "countryCode": "AE"}, "averageDailyFlights": 7.57, "operators": [{"name": "Emirates", "iata": "EK", "icao": "UAE"}, {"name": "flynas", "iata": "XY", "icao": "KNE"}, {"name": "flydubai", "iata": "FZ", "icao": "FDB"}]}, {"destination": {"icao": "OEMA", "iata": "MED", "name": "Medina Prince Mohammad Bin Abdulaziz", "shortName": "Prince Mohammad Bin Abdulaziz", "municipalityName": "Medina", "location": {"lat": 24.5534, "lon": 39.7051}, "countryCode": "SA"}, "averageDailyFlights": 7.14, "operators": [{"name": "flyadeal", "iata": "F3", "icao": "FAD"}, {"name": "flynas", "iata": "XY", "icao": "KNE"}]}, {"destination": {"icao": "OTHH", "iata": "DOH", "name": "Doha Hamad", "shortName": "Hamad", "municipalityName": "Doha", "location": {"lat": 25.273056, "lon": 51.608055}, "countryCode": "QA"}, "averageDailyFlights": 4.57, "operators": [{"name": "Qatar Airways", "iata": "QR", "icao": "QTR"}]}, {"destination": {"icao": "OBBI", "iata": "BAH", "name": "Manama Bahrain", "shortName": "Bahrain", "municipalityName": "Manama", "location": {"lat": 26.2708, "lon": 50.6336}, "countryCode": "BH"}, "averageDailyFlights": 4.57, "operators": [{"name": "Gulf Air", "iata": "GF", "icao": "GFA"}]}, {"destination": {"icao": "OEAB", "iata": "AHB", "name": "Abha Regional", "shortName": "Regional", "municipalityName": "Abha", "location": {"lat": 18.2404, "lon": 42.6566}, "countryCode": "SA"}, "averageDailyFlights": 4.43, "operators": [{"name": "flynas", "iata": "XY", "icao": "KNE"}, {"name": "flyadeal", "iata": "F3", "icao": "FAD"}]}, {"destination": {"icao": "OMAA", "iata": "AUH", "name": "Abu Dhabi Island and Internal Islands City Abu Dhabi", "shortName": "Abu Dhabi", "municipalityName": "Abu Dhabi Island and Internal Islands City", "location": {"lat": 24.433, "lon": 54.6511}, "countryCode": "AE"}, "averageDailyFlights": 4.29, "operators": [{"name": "Etihad Airways", "iata": "EY", "icao": "ETD"}, {"name": "Wizz Air Abu Dhabi", "iata": "5W", "icao": "WAZ"}]}, {"destination": {"icao": "OMSJ", "iata": "SHJ", "name": "Sharjah ", "shortName": "Sharjah", "municipalityName": "Sharjah", "location": {"lat": 25.3286, "lon": 55.5172}, "countryCode": "AE"}, "averageDailyFlights": 3.57, "operators": [{"name": "Air Arabia", "iata": "G9", "icao": "ABY"}]}, {"destination": {"icao": "VABB", "iata": "BOM", "name": "Mumbai Chhatrapati Shivaji", "shortName": "Chhatrapati Shivaji", "municipalityName": "Mumbai", "location": {"lat": 19.0887, "lon": 72.8679}, "countryCode": "IN"}, "averageDailyFlights": 3.15, "operators": [{"name": "IndiGo", "iata": "6E", "icao": "IGO"}, {"name": "Vistara", "iata": "UK", "icao": "VTI"}, {"name": "Air India Express", "iata": "IX", "icao": "AXB"}, {"name": "flynas", "iata": "XY", "icao": "KNE"}]}, {"destination": {"icao": "OKBK", "iata": "KWI", "name": "Kuwait City Kuwait", "shortName": "Kuwait", "municipalityName": "Kuwait City", "location": {"lat": 29.2266, "lon": 47.9689}, "countryCode": "KW"}, "averageDailyFlights": 2.86, "operators": [{"name": "Lufthansa", "iata": "LH", "icao": "DLH"}, {"name": "Jazeera Airways", "iata": "J9", "icao": "JZR"}, {"name": "Kuwait Airways", "iata": "KU", "icao": "KAC"}]}, {"destination": {"icao": "OEGN", "iata": "GIZ", "name": "Jazan Jizan Regional", "shortName": "Jizan Regional", "municipalityName": "Jazan", "location": {"lat": 16.9011, "lon": 42.5858}, "countryCode": "SA"}, "averageDailyFlights": 2.57, "operators": [{"name": "flyadeal", "iata": "F3", "icao": "FAD"}, {"name": "flynas", "iata": "XY", "icao": "KNE"}]}, {"destination": {"icao": "OJAI", "iata": "AMM", "name": "Amman Queen Alia", "shortName": "Queen Alia", "municipalityName": "Amman", "location": {"lat": 31.7226, "lon": 35.9932}, "countryCode": "JO"}, "averageDailyFlights": 2.43, "operators": [{"name": "Royal Jordanian", "iata": "RJ", "icao": "RJA"}, {"name": "flynas", "iata": "XY", "icao": "KNE"}]}, {"destination": {"icao": "VILK", "iata": "LKO", "name": "Lucknow Chaudhary Charan Singh", "shortName": "Chaudhary Charan Singh", "municipalityName": "Lucknow", "location": {"lat": 26.7606, "lon": 80.8893}, "countryCode": "IN"}, "averageDailyFlights": 2.43, "operators": [{"name": "flynas", "iata": "XY", "icao": "KNE"}, {"name": "IndiGo", "iata": "6E", "icao": "IGO"}, {"name": "Air India Express", "iata": "IX", "icao": "AXB"}]}, {"destination": {"icao": "OOMS", "iata": "MCT", "name": "Muscat ", "shortName": "Muscat", "municipalityName": "Muscat", "location": {"lat": 23.5933, "lon": 58.2844}, "countryCode": "OM"}, "averageDailyFlights": 2.43, "operators": [{"name": "SalamAir", "iata": "OV", "icao": "OMS"}, {"name": "Oman Air", "iata": "WY", "icao": "OMA"}]}, {"destination": {"icao": "VOCL", "iata": "CCJ", "name": "Calicut ", "shortName": "Calicut", "municipalityName": "Calicut", "location": {"lat": 11.136799, "lon": 75.9553}, "countryCode": "IN"}, "averageDailyFlights": 2.14, "operators": [{"name": "IndiGo", "iata": "6E", "icao": "IGO"}, {"name": "Air India Express", "iata": "IX", "icao": "AXB"}]}, {"destination": {"icao": "VIDP", "iata": "DEL", "name": "New Delhi Indira Gandhi", "shortName": "Indira Gandhi", "municipalityName": "New Delhi", "location": {"lat": 28.5665, "lon": 77.1031}, "countryCode": "IN"}, "averageDailyFlights": 2.14, "operators": [{"name": "IndiGo", "iata": "6E", "icao": "IGO"}, {"name": "Air India", "iata": "AI", "icao": "AIC"}]}, {"destination": {"icao": "VOHS", "iata": "HYD", "name": "Hyderabad Rajiv Gandhi", "shortName": "Rajiv Gandhi", "municipalityName": "Hyderabad", "location": {"lat": 17.231318, "lon": 78.429855}, "countryCode": "IN"}, "averageDailyFlights": 2.0, "operators": [{"name": "IndiGo", "iata": "6E", "icao": "IGO"}, {"name": "Air India Express", "iata": "IX", "icao": "AXB"}]}, {"destination": {"icao": "LTFJ", "iata": "SAW", "name": "Istanbul Sabiha G\u00f6k\u00e7en", "shortName": "Sabiha G\u00f6k\u00e7en", "municipalityName": "Istanbul", "location": {"lat": 40.8986, "lon": 29.3092}, "countryCode": "TR"}, "averageDailyFlights": 1.29, "operators": [{"name": "Pegasus", "iata": "PC", "icao": "PGT"}, {"name": "Turkish Airlines", "iata": "TK", "icao": "THY"}]}, {"destination": {"icao": "OPLA", "iata": "LHE", "name": "Lahore Alama Iqbal", "shortName": "Alama Iqbal", "municipalityName": "Lahore", "location": {"lat": 31.5216, "lon": 74.4036}, "countryCode": "PK"}, "averageDailyFlights": 1.29, "operators": [{"name": "flynas", "iata": "XY", "icao": "KNE"}, {"name": "Air Sial", "iata": "PF"}, {"name": "Pakistan International Airlines", "iata": "PK", "icao": "PIA"}]}, {"destination": {"icao": "HAAB", "iata": "ADD", "name": "Addis Ababa Bole", "shortName": "Bole", "municipalityName": "Addis Ababa", "location": {"lat": 8.97789, "lon": 38.7993}, "countryCode": "ET"}, "averageDailyFlights": 1.14, "operators": [{"name": "Ethiopian Airlines", "iata": "ET", "icao": "ETH"}]}, {"destination": {"icao": "OPIS", "iata": "ISB", "name": "Islamabad ", "shortName": "Islamabad", "municipalityName": "Islamabad", "location": {"lat": 33.549, "lon": 72.82566}, "countryCode": "PK"}, "averageDailyFlights": 1.0, "operators": [{"name": "Pakistan International Airlines", "iata": "PK", "icao": "PIA"}, {"name": "Air Sial", "iata": "PF"}]}, {"destination": {"icao": "VNKT", "iata": "KTM", "name": "Kathmandu Tribhuvan", "shortName": "Tribhuvan", "municipalityName": "Kathmandu", "location": {"lat": 27.696598, "lon": 85.3591}, "countryCode": "NP"}, "averageDailyFlights": 1.0, "operators": [{"name": "Himalaya Airlines", "iata": "H9", "icao": "HIM"}, {"name": "Nepal Airlines", "iata": "RA", "icao": "RNA"}]}, {"destination": {"icao": "VOTV", "iata": "TRV", "name": "Trivandrum ", "shortName": "Trivandrum", "municipalityName": "Trivandrum", "location": {"lat": 8.482119, "lon": 76.9201}, "countryCode": "IN"}, "averageDailyFlights": 1.0, "operators": [{"name": "Air India Express", "iata": "IX", "icao": "AXB"}]}, {"destination": {"icao": "EHAM", "iata": "AMS", "name": "Amsterdam Schiphol", "shortName": "Schiphol", "municipalityName": "Amsterdam", "location": {"lat": 52.3086, "lon": 4.763889}, "countryCode": "NL"}, "averageDailyFlights": 0.86, "operators": [{"name": "KLM", "iata": "KL", "icao": "KLM"}]}, {"destination": {"icao": "OLBA", "iata": "BEY", "name": "Beirut Rafic Hariri", "shortName": "Rafic Hariri", "municipalityName": "Beirut", "location": {"lat": 33.8209, "lon": 35.4884}, "countryCode": "LB"}, "averageDailyFlights": 0.71, "operators": [{"name": "Middle East Airlines", "iata": "ME", "icao": "MEA"}]}, {"destination": {"icao": "VGHS", "iata": "DAC", "name": "Dhaka Hazrat Shahjalal", "shortName": "Hazrat Shahjalal", "municipalityName": "Dhaka", "location": {"lat": 23.843348, "lon": 90.39778}, "countryCode": "BD"}, "averageDailyFlights": 0.71, "operators": [{"name": "Biman Bangladesh Airlines", "iata": "BG", "icao": "BBC"}]}, {"destination": {"icao": "RPLL", "iata": "MNL", "name": "Manila Ninoy Aquino", "shortName": "Ninoy Aquino", "municipalityName": "Manila", "location": {"lat": 14.5086, "lon": 121.02}, "countryCode": "PH"}, "averageDailyFlights": 0.71, "operators": [{"name": "Philippine Airlines", "iata": "PR", "icao": "PAL"}]}, {"destination": {"icao": "VCBI", "iata": "CMB", "name": "Colombo Bandaranaike", "shortName": "Bandaranaike", "municipalityName": "Colombo", "location": {"lat": 7.180759, "lon": 79.8841}, "countryCode": "LK"}, "averageDailyFlights": 0.57, "operators": [{"name": "SriLankan Airlines", "iata": "UL", "icao": "ALK"}]}, {"destination": {"icao": "VOML", "iata": "IXE", "name": "Mangalore ", "shortName": "Mangalore", "municipalityName": "Mangalore", "location": {"lat": 12.961299, "lon": 74.8901}, "countryCode": "IN"}, "averageDailyFlights": 0.57, "operators": [{"name": "Air India Express", "iata": "IX", "icao": "AXB"}]}, {"destination": {"icao": "OEAO", "iata": "ULH", "name": "Al Ula Majeed Bin Abdulaziz", "shortName": "Majeed Bin Abdulaziz", "municipalityName": "Al Ula", "location": {"lat": 26.48, "lon": 38.128887}, "countryCode": "SA"}, "averageDailyFlights": 0.43, "operators": [{"name": "flynas", "iata": "XY", "icao": "KNE"}]}, {"destination": {"name": "Neom Bay Airport"}, "averageDailyFlights": 0.43, "operators": [{"name": "flyadeal", "iata": "F3", "icao": "FAD"}, {"name": "Saudi Arabian Airlines", "iata": "SV", "icao": "SVA"}]}, {"destination": {"icao": "HEBA", "iata": "HBE", "name": "Alexandria Borg El Arab", "shortName": "Borg El Arab", "municipalityName": "Alexandria", "location": {"lat": 30.9177, "lon": 29.6964}, "countryCode": "EG"}, "averageDailyFlights": 0.29, "operators": [{"name": "EgyptAir", "iata": "MS", "icao": "MSR"}]}, {"destination": {"icao": "OPKC", "iata": "KHI", "name": "Karanchi Jinnah", "shortName": "Jinnah", "municipalityName": "Karanchi", "location": {"lat": 24.9065, "lon": 67.1608}, "countryCode": "PK"}, "averageDailyFlights": 0.29, "operators": [{"name": "Pakistan International Airlines", "iata": "PK", "icao": "PIA"}]}, {"destination": {"icao": "VOCI", "iata": "COK", "name": "Kochi Cochin", "shortName": "Cochin", "municipalityName": "Kochi", "location": {"lat": 10.152, "lon": 76.4019}, "countryCode": "IN"}, "averageDailyFlights": 0.29, "operators": [{"name": "Air India Express", "iata": "IX", "icao": "AXB"}]}, {"destination": {"icao": "HSPN", "iata": "PZU", "name": "Port Sudan New", "shortName": "New", "municipalityName": "Port Sudan", "location": {"lat": 19.4336, "lon": 37.2341}, "countryCode": "SD"}, "averageDailyFlights": 0.29, "operators": [{"name": "Tarco Aviation", "iata": "3T", "icao": "TRQ"}]}, {"destination": {"icao": "OPST", "iata": "SKT", "name": "Sialkot ", "shortName": "Sialkot", "municipalityName": "Sialkot", "location": {"lat": 32.535557, "lon": 74.36389}, "countryCode": "PK"}, "averageDailyFlights": 0.29, "operators": [{"name": "Pakistan International Airlines", "iata": "PK", "icao": "PIA"}]}, {"destination": {"icao": "HEMK", "iata": "HMB", "name": "Sohag ", "shortName": "Sohag", "municipalityName": "Sohag", "location": {"lat": 26.342777, "lon": 31.742777}, "countryCode": "EG"}, "averageDailyFlights": 0.29, "operators": [{"name": "Air Cairo", "iata": "SM", "icao": "MSC"}]}, {"destination": {"icao": "LIRF", "iata": "FCO", "name": "Rome Leonardo da Vinci\u2013Fiumicino", "shortName": "Leonardo da Vinci\u2013Fiumicino", "municipalityName": "Rome", "location": {"lat": 41.8045, "lon": 12.2508}, "countryCode": "IT"}, "averageDailyFlights": 0.14, "operators": [{"name": "Wizz Air Malta", "iata": "W4", "icao": "WMT"}]}]}