{"routes": [{"destination": {"icao": "KSEA", "iata": "SEA", "name": "Seattle Tacoma", "shortName": "Tacoma", "municipalityName": "Seattle", "location": {"lat": 47.449, "lon": -122.309}, "countryCode": "US"}, "averageDailyFlights": 16.71, "operators": [{"name": "ATI", "iata": "8C", "icao": "ATN"}, {"name": "Delta Air Lines", "iata": "DL", "icao": "DAL"}, {"name": "Alaska Airlines", "iata": "AS", "icao": "ASA"}]}, {"destination": {"icao": "KORD", "iata": "ORD", "name": "Chicago O'Hare", "shortName": "O'Hare", "municipalityName": "Chicago", "location": {"lat": 41.9786, "lon": -87.9048}, "countryCode": "US"}, "averageDailyFlights": 10.57, "operators": [{"name": "Suparna Airlines", "iata": "Y8", "icao": "YZR"}, {"name": "Atlas Air", "iata": "5Y", "icao": "GTI"}, {"name": "Cathay Pacific", "iata": "CX", "icao": "CPA"}, {"name": "China Airlines", "iata": "CI", "icao": "CAL"}, {"name": "Asiana Airlines", "iata": "OZ", "icao": "AAR"}, {"name": "China Southern Airlines", "iata": "CZ", "icao": "CSN"}, {"name": "EVA Air", "iata": "BR", "icao": "EVA"}, {"name": "CAO"}, {"name": "Korean Air", "iata": "KE", "icao": "KAL"}, {"name": "Western Global", "iata": "KD", "icao": "WGN"}, {"name": "Alaska Airlines", "iata": "AS", "icao": "ASA"}]}, {"destination": {"icao": "KJFK", "iata": "JFK", "name": "New York John F Kennedy", "shortName": "John F Kennedy", "municipalityName": "New York", "location": {"lat": 40.6398, "lon": -73.7789}, "countryCode": "US"}, "averageDailyFlights": 6.43, "operators": [{"name": "Silk Way West", "iata": "7L", "icao": "AZG"}, {"name": "China Airlines", "iata": "CI", "icao": "CAL"}, {"name": "Atlas Air", "iata": "5Y", "icao": "GTI"}, {"name": "China Southern Airlines", "iata": "CZ", "icao": "CSN"}, {"name": "Cathay Pacific", "iata": "CX", "icao": "CPA"}, {"name": "EVA Air", "iata": "BR", "icao": "EVA"}, {"name": "Asiana Airlines", "iata": "OZ", "icao": "AAR"}, {"name": "Qantas", "iata": "QF", "icao": "QFA"}, {"name": "CAO"}, {"name": "CSG"}, {"name": "Korean Air", "iata": "KE", "icao": "KAL"}]}, {"destination": {"icao": "PAFA", "iata": "FAI", "name": "Fairbanks ", "shortName": "Fairbanks", "municipalityName": "Fairbanks", "location": {"lat": 64.8151, "lon": -147.856}, "countryCode": "US"}, "averageDailyFlights": 6.0, "operators": [{"name": "Empire Airlines", "iata": "EM", "icao": "CFS"}, {"name": "Ravn Alaska", "iata": "7H", "icao": "RVF"}, {"name": "ACE Air Cargo", "iata": "KO", "icao": "AER"}, {"name": "Alaska Airlines", "iata": "AS", "icao": "ASA"}]}, {"destination": {"icao": "VHHH", "iata": "HKG", "name": "Hong Kong Chek Lap Kok", "shortName": "Chek Lap Kok", "municipalityName": "Hong Kong", "location": {"lat": 22.3089, "lon": 113.915}, "countryCode": "HK"}, "averageDailyFlights": 5.0, "operators": [{"name": "Cathay Pacific", "iata": "CX", "icao": "CPA"}, {"name": "Atlas Air", "iata": "5Y", "icao": "GTI"}, {"name": "National Airlines", "iata": "N8", "icao": "NCR"}]}, {"destination": {"icao": "KDFW", "iata": "DFW", "name": "Dallas-Fort Worth ", "shortName": "Dallas-Fort Worth", "municipalityName": "Dallas-Fort Worth", "location": {"lat": 32.8968, "lon": -97.038}, "countryCode": "US"}, "averageDailyFlights": 3.15, "operators": [{"name": "Atlas Air", "iata": "5Y", "icao": "GTI"}, {"name": "American Airlines", "iata": "AA", "icao": "AAL"}, {"name": "EVA Air", "iata": "BR", "icao": "EVA"}, {"name": "Korean Air", "iata": "KE", "icao": "KAL"}, {"name": "Singapore Airlines", "iata": "SQ", "icao": "SIA"}, {"name": "China Airlines", "iata": "CI", "icao": "CAL"}, {"name": "Cathay Pacific", "iata": "CX", "icao": "CPA"}]}, {"destination": {"icao": "PAJN", "iata": "JNU", "name": "Juneau ", "shortName": "Juneau", "municipalityName": "Juneau", "location": {"lat": 58.355, "lon": -134.576}, "countryCode": "US"}, "averageDailyFlights": 3.0, "operators": [{"name": "Alaska Airlines", "iata": "AS", "icao": "ASA"}]}, {"destination": {"icao": "KLAX", "iata": "LAX", "name": "Los Angeles ", "shortName": "Los Angeles", "municipalityName": "Los Angeles", "location": {"lat": 33.9425, "lon": -118.408}, "countryCode": "US"}, "averageDailyFlights": 2.77, "operators": [{"name": "CSG"}, {"name": "Singapore Airlines", "iata": "SQ", "icao": "SIA"}, {"name": "Atlas Air", "iata": "5Y", "icao": "GTI"}, {"name": "China Southern Airlines", "iata": "CZ", "icao": "CSN"}, {"name": "Cathay Pacific", "iata": "CX", "icao": "CPA"}, {"name": "China Airlines", "iata": "CI", "icao": "CAL"}, {"name": "Alaska Airlines", "iata": "AS", "icao": "ASA"}]}, {"destination": {"icao": "PASC", "iata": "SCC", "name": "Deadhorse ", "shortName": "Deadhorse", "municipalityName": "Deadhorse", "location": {"lat": 70.1947, "lon": -148.465}, "countryCode": "US"}, "averageDailyFlights": 2.43, "operators": [{"name": "Horizon Air", "iata": "QX", "icao": "QXE"}, {"name": "Alaska Airlines", "iata": "AS", "icao": "ASA"}]}, {"destination": {"icao": "KMIA", "iata": "MIA", "name": "Miami ", "shortName": "Miami", "municipalityName": "Miami", "location": {"lat": 25.7932, "lon": -80.2906}, "countryCode": "US"}, "averageDailyFlights": 2.43, "operators": [{"name": "Atlas Air", "iata": "5Y", "icao": "GTI"}, {"name": "Cathay Pacific", "iata": "CX", "icao": "CPA"}, {"name": "Korean Air", "iata": "KE", "icao": "KAL"}]}, {"destination": {"icao": "RKSI", "iata": "ICN", "name": "Seoul Incheon", "shortName": "Incheon", "municipalityName": "Seoul", "location": {"lat": 37.4691, "lon": 126.451}, "countryCode": "KR"}, "averageDailyFlights": 2.43, "operators": [{"name": "Asiana Airlines", "iata": "OZ", "icao": "AAR"}, {"name": "Korean Air", "iata": "KE", "icao": "KAL"}, {"name": "Atlas Air", "iata": "5Y", "icao": "GTI"}]}, {"destination": {"icao": "RCTP", "iata": "TPE", "name": "Taipei Taiwan Taoyuan", "shortName": "Taiwan Taoyuan", "municipalityName": "Taipei", "location": {"lat": 25.0777, "lon": 121.233}, "countryCode": "TW"}, "averageDailyFlights": 2.43, "operators": [{"name": "China Airlines", "iata": "CI", "icao": "CAL"}, {"name": "EVA Air", "iata": "BR", "icao": "EVA"}]}, {"destination": {"icao": "PABE", "iata": "BET", "name": "Bethel ", "shortName": "Bethel", "municipalityName": "Bethel", "location": {"lat": 60.7798, "lon": -161.838}, "countryCode": "US"}, "averageDailyFlights": 2.0, "operators": [{"name": "Ravn Alaska", "iata": "7H", "icao": "RVF"}, {"name": "Alaska Airlines", "iata": "AS", "icao": "ASA"}]}, {"destination": {"icao": "PAOT", "iata": "OTZ", "name": "Kotzebue Ralph Wien Memorial", "shortName": "Ralph Wien Memorial", "municipalityName": "Kotzebue", "location": {"lat": 66.8847, "lon": -162.599}, "countryCode": "US"}, "averageDailyFlights": 1.71, "operators": [{"name": "Alaska Airlines", "iata": "AS", "icao": "ASA"}]}, {"destination": {"icao": "PADQ", "iata": "ADQ", "name": "Kodiak ", "shortName": "Kodiak", "municipalityName": "Kodiak", "location": {"lat": 57.75, "lon": -152.494}, "countryCode": "US"}, "averageDailyFlights": 1.57, "operators": [{"name": "Alaska Airlines", "iata": "AS", "icao": "ASA"}, {"name": "ACE Air Cargo", "iata": "KO", "icao": "AER"}]}, {"destination": {"icao": "KATL", "iata": "ATL", "name": "Atlanta Hartsfield Jackson", "shortName": "Hartsfield Jackson", "municipalityName": "Atlanta", "location": {"lat": 33.6367, "lon": -84.4281}, "countryCode": "US"}, "averageDailyFlights": 1.29, "operators": [{"name": "EVA Air", "iata": "BR", "icao": "EVA"}, {"name": "Korean Air", "iata": "KE", "icao": "KAL"}, {"name": "Atlas Air", "iata": "5Y", "icao": "GTI"}]}, {"destination": {"icao": "PABR", "iata": "BRW", "name": "Barrow Wiley Post Will Rogers Memorial", "shortName": "Wiley Post Will Rogers Memorial", "municipalityName": "Barrow", "location": {"lat": 71.2854, "lon": -156.766}, "countryCode": "US"}, "averageDailyFlights": 1.29, "operators": [{"name": "Alaska Airlines", "iata": "AS", "icao": "ASA"}]}, {"destination": {"icao": "PAOM", "iata": "OME", "name": "Nome ", "shortName": "Nome", "municipalityName": "Nome", "location": {"lat": 64.5122, "lon": -165.445}, "countryCode": "US"}, "averageDailyFlights": 1.29, "operators": [{"name": "Alaska Airlines", "iata": "AS", "icao": "ASA"}]}, {"destination": {"icao": "KDEN", "iata": "DEN", "name": "Denver ", "shortName": "Denver", "municipalityName": "Denver", "location": {"lat": 39.8617, "lon": -104.673}, "countryCode": "US"}, "averageDailyFlights": 1.14, "operators": [{"name": "United Airlines", "iata": "UA", "icao": "UAL"}]}, {"destination": {"icao": "PAKN", "iata": "AKN", "name": "King Salmon ", "shortName": "King Salmon", "municipalityName": "King Salmon", "location": {"lat": 58.6768, "lon": -156.649}, "countryCode": "US"}, "averageDailyFlights": 1.14, "operators": [{"name": "ACE Air Cargo", "iata": "KO", "icao": "AER"}, {"name": "Alaska Airlines", "iata": "AS", "icao": "ASA"}]}, {"destination": {"icao": "MMSM", "iata": "NLU", "name": "Reyes Acozac Santa Lucia Air Force Base", "shortName": "Santa Lucia Air Force Base", "municipalityName": "Reyes Acozac", "location": {"lat": 19.7553, "lon": -99.0164}, "countryCode": "MX"}, "averageDailyFlights": 1.14, "operators": [{"name": "CAO"}, {"name": "Masair", "iata": "M7", "icao": "MAA"}, {"name": "Cathay Pacific", "iata": "CX", "icao": "CPA"}, {"name": "Atlas Air", "iata": "5Y", "icao": "GTI"}]}, {"destination": {"icao": "PHNL", "iata": "HNL", "name": "Honolulu ", "shortName": "Honolulu", "municipalityName": "Honolulu", "location": {"lat": 21.3187, "lon": -157.922}, "countryCode": "US"}, "averageDailyFlights": 1.0, "operators": [{"name": "Alaska Airlines", "iata": "AS", "icao": "ASA"}]}, {"destination": {"icao": "KMSP", "iata": "MSP", "name": "Minneapolis Wold-Chamberlain", "shortName": "Wold-Chamberlain", "municipalityName": "Minneapolis", "location": {"lat": 44.882, "lon": -93.2218}, "countryCode": "US"}, "averageDailyFlights": 1.0, "operators": [{"name": "Delta Air Lines", "iata": "DL", "icao": "DAL"}]}, {"destination": {"icao": "ZUUU", "iata": "CTU", "name": "Chengdu Shuangliu", "shortName": "Shuangliu", "municipalityName": "Chengdu", "location": {"lat": 30.5785, "lon": 103.947}, "countryCode": "CN"}, "averageDailyFlights": 0.86, "operators": [{"name": "Atlas Air", "iata": "5Y", "icao": "GTI"}]}, {"destination": {"icao": "PADL", "iata": "DLG", "name": "Dillingham ", "shortName": "Dillingham", "municipalityName": "Dillingham", "location": {"lat": 59.0447, "lon": -158.505}, "countryCode": "US"}, "averageDailyFlights": 0.86, "operators": [{"name": "Alaska Airlines", "iata": "AS", "icao": "ASA"}]}, {"destination": {"icao": "PAHO", "iata": "HOM", "name": "Homer ", "shortName": "Homer", "municipalityName": "Homer", "location": {"lat": 59.6456, "lon": -151.477}, "countryCode": "US"}, "averageDailyFlights": 0.71, "operators": [{"name": "Ravn Alaska", "iata": "7H", "icao": "RVF"}]}, {"destination": {"icao": "PAEN", "iata": "ENA", "name": "Kenai Municipal", "shortName": "Municipal", "municipalityName": "Kenai", "location": {"lat": 60.5731, "lon": -151.245}, "countryCode": "US"}, "averageDailyFlights": 0.71, "operators": [{"name": "Empire Airlines", "iata": "EM", "icao": "CFS"}]}, {"destination": {"icao": "KPHX", "iata": "PHX", "name": "Phoenix Sky Harbor", "shortName": "Sky Harbor", "municipalityName": "Phoenix", "location": {"lat": 33.4343, "lon": -112.012}, "countryCode": "US"}, "averageDailyFlights": 0.71, "operators": [{"name": "Alaska Airlines", "iata": "AS", "icao": "ASA"}]}, {"destination": {"icao": "PACV", "iata": "CDV", "name": "Cordova Merle K (Mudhole) Smith", "shortName": "Merle K (Mudhole) Smith", "municipalityName": "Cordova", "location": {"lat": 60.4918, "lon": -145.478}, "countryCode": "US"}, "averageDailyFlights": 0.57, "operators": [{"name": "ACE Air Cargo", "iata": "KO", "icao": "AER"}, {"name": "Alaska Airlines", "iata": "AS", "icao": "ASA"}]}, {"destination": {"icao": "PAKU", "iata": "UUK", "name": "Kuparuk Ugnu-", "shortName": "Ugnu-", "municipalityName": "Kuparuk", "location": {"lat": 70.3308, "lon": -149.598}, "countryCode": "US"}, "averageDailyFlights": 0.57, "operators": [{"name": "CON"}]}, {"destination": {"icao": "PAUN", "iata": "UNK", "name": "Unalakleet ", "shortName": "Unalakleet", "municipalityName": "Unalakleet", "location": {"lat": 63.8884, "lon": -160.799}, "countryCode": "US"}, "averageDailyFlights": 0.57, "operators": [{"name": "Ravn Alaska", "iata": "7H", "icao": "RVF"}]}, {"destination": {"icao": "ZSPD", "iata": "PVG", "name": "Shanghai Pudong", "shortName": "Pudong", "municipalityName": "Shanghai", "location": {"lat": 31.1434, "lon": 121.805}, "countryCode": "CN"}, "averageDailyFlights": 0.43, "operators": [{"name": "Suparna Airlines", "iata": "Y8", "icao": "YZR"}]}, {"destination": {"icao": "CYYZ", "iata": "YYZ", "name": "Toronto Pearson", "shortName": "Pearson", "municipalityName": "Toronto", "location": {"lat": 43.6772, "lon": -79.6306}, "countryCode": "CA"}, "averageDailyFlights": 0.43, "operators": [{"name": "Korean Air", "iata": "KE", "icao": "KAL"}, {"name": "National Airlines", "iata": "N8", "icao": "NCR"}, {"name": "Cathay Pacific", "iata": "CX", "icao": "CPA"}]}, {"destination": {"icao": "PADU", "iata": "DUT", "name": "Unalaska ", "shortName": "Unalaska", "municipalityName": "Unalaska", "location": {"lat": 53.9001, "lon": -166.544}, "countryCode": "US"}, "averageDailyFlights": 0.43, "operators": [{"name": "Ravn Alaska", "iata": "7H", "icao": "RVF"}]}, {"destination": {"icao": "PADK", "iata": "ADK", "name": "Adak Island Adak", "shortName": "Adak", "municipalityName": "Adak Island", "location": {"lat": 51.878, "lon": -176.646}, "countryCode": "US"}, "averageDailyFlights": 0.29, "operators": [{"name": "Alaska Airlines", "iata": "AS", "icao": "ASA"}]}, {"destination": {"icao": "KRFD", "iata": "RFD", "name": "Chicago/Rockford Chicago Rockford", "shortName": "Chicago Rockford", "municipalityName": "Chicago/Rockford", "location": {"lat": 42.1954, "lon": -89.0972}, "countryCode": "US"}, "averageDailyFlights": 0.29, "operators": [{"name": "Atlas Air", "iata": "5Y", "icao": "GTI"}]}, {"destination": {"icao": "MMGL", "iata": "GDL", "name": "Guadalajara Don Miguel Hidalgo Y Costilla", "shortName": "Don Miguel Hidalgo Y Costilla", "municipalityName": "Guadalajara", "location": {"lat": 20.5218, "lon": -103.311}, "countryCode": "MX"}, "averageDailyFlights": 0.29, "operators": [{"name": "Atlas Air", "iata": "5Y", "icao": "GTI"}]}, {"destination": {"icao": "KLAS", "iata": "LAS", "name": "Las Vegas McCarran", "shortName": "McCarran", "municipalityName": "Las Vegas", "location": {"lat": 36.0801, "lon": -115.152}, "countryCode": "US"}, "averageDailyFlights": 0.29, "operators": [{"name": "Alaska Airlines", "iata": "AS", "icao": "ASA"}]}, {"destination": {"icao": "ZSNJ", "iata": "NKG", "name": "Nanjing Lukou", "shortName": "Lukou", "municipalityName": "Nanjing", "location": {"lat": 31.742, "lon": 118.862}, "countryCode": "CN"}, "averageDailyFlights": 0.29, "operators": [{"name": "Suparna Airlines", "iata": "Y8", "icao": "YZR"}]}, {"destination": {"icao": "RJBB", "iata": "KIX", "name": "Osaka Kansai", "shortName": "Kansai", "municipalityName": "Osaka", "location": {"lat": 34.4273, "lon": 135.244}, "countryCode": "JP"}, "averageDailyFlights": 0.29, "operators": [{"name": "EVA Air", "iata": "BR", "icao": "EVA"}]}, {"destination": {"icao": "PADG", "iata": "RDB", "name": "Red Dog ", "shortName": "Red Dog", "municipalityName": "Red Dog", "location": {"lat": 68.0321, "lon": -162.899}, "countryCode": "US"}, "averageDailyFlights": 0.29, "operators": [{"name": "Alaska Airlines", "iata": "AS", "icao": "ASA"}]}, {"destination": {"icao": "RJGG", "iata": "NGO", "name": "Tokoname Chubu Centrair", "shortName": "Chubu Centrair", "municipalityName": "Tokoname", "location": {"lat": 34.8584, "lon": 136.805}, "countryCode": "JP"}, "averageDailyFlights": 0.29, "operators": [{"name": "Atlas Air", "iata": "5Y", "icao": "GTI"}]}, {"destination": {"icao": "ZSAM", "iata": "XMN", "name": "Xiamen Gaoqi", "shortName": "Gaoqi", "municipalityName": "Xiamen", "location": {"lat": 24.544, "lon": 118.128}, "countryCode": "CN"}, "averageDailyFlights": 0.29, "operators": [{"name": "Atlas Air", "iata": "5Y", "icao": "GTI"}]}, {"destination": {"name": "Portland"}, "averageDailyFlights": 0.29, "operators": [{"name": "Alaska Airlines", "iata": "AS", "icao": "ASA"}]}, {"destination": {"icao": "KHSV", "iata": "HSV", "name": "Huntsville Carl T Jones Field", "shortName": "Carl T Jones Field", "municipalityName": "Huntsville", "location": {"lat": 34.6372, "lon": -86.7751}, "countryCode": "US"}, "averageDailyFlights": 0.14, "operators": [{"name": "Atlas Air", "iata": "5Y", "icao": "GTI"}]}, {"destination": {"icao": "PHKO", "iata": "KOA", "name": "Kailua/Kona Kona  At Keahole", "shortName": "Kona  At Keahole", "municipalityName": "Kailua/Kona", "location": {"lat": 19.7388, "lon": -156.046}, "countryCode": "US"}, "averageDailyFlights": 0.14, "operators": [{"name": "Alaska Airlines", "iata": "AS", "icao": "ASA"}]}, {"destination": {"icao": "MMMX", "iata": "MEX", "name": "Mexico City Licenciado Benito Juarez", "shortName": "Licenciado Benito Juarez", "municipalityName": "Mexico City", "location": {"lat": 19.4363, "lon": -99.0721}, "countryCode": "MX"}, "averageDailyFlights": 0.14, "operators": [{"name": "Atlas Air", "iata": "5Y", "icao": "GTI"}]}, {"destination": {"icao": "KBNA", "iata": "BNA", "name": "Nashville ", "shortName": "Nashville", "municipalityName": "Nashville", "location": {"lat": 36.1245, "lon": -86.6782}, "countryCode": "US"}, "averageDailyFlights": 0.14, "operators": [{"name": "Atlas Air", "iata": "5Y", "icao": "GTI"}]}, {"destination": {"icao": "KSJC", "iata": "SJC", "name": "San Jose Norman Y. Mineta", "shortName": "Norman Y. Mineta", "municipalityName": "San Jose", "location": {"lat": 37.3626, "lon": -121.929}, "countryCode": "US"}, "averageDailyFlights": 0.14, "operators": [{"name": "LXJ"}]}, {"destination": {"icao": "KBFI", "iata": "BFI", "name": "Seattle Boeing Field King County", "shortName": "Boeing Field King County", "municipalityName": "Seattle", "location": {"lat": 47.53, "lon": -122.302}, "countryCode": "US"}, "averageDailyFlights": 0.14, "operators": [{"name": "Nolinor", "iata": "N5", "icao": "NRL"}]}, {"destination": {"icao": "RJAA", "iata": "NRT", "name": "Tokyo Narita", "shortName": "Narita", "municipalityName": "Tokyo", "location": {"lat": 35.7647, "lon": 140.386}, "countryCode": "JP"}, "averageDailyFlights": 0.14, "operators": [{"name": "Atlas Air", "iata": "5Y", "icao": "GTI"}]}, {"destination": {"icao": "RJTT", "iata": "HND", "name": "Tokyo ", "shortName": "Tokyo", "municipalityName": "Tokyo", "location": {"lat": 35.5523, "lon": 139.78}, "countryCode": "JP"}, "averageDailyFlights": 0.14, "operators": [{"name": "EJM"}]}, {"destination": {"name": "Ferbenks"}, "averageDailyFlights": 0.14, "operators": [{"name": "Alaska Airlines", "iata": "AS", "icao": "ASA"}]}, {"destination": {"name": "Kakhalu"}, "averageDailyFlights": 0.14, "operators": [{"name": "Alaska Airlines", "iata": "AS", "icao": "ASA"}]}]}