{"routes": [{"destination": {"icao": "PASH", "iata": "SHH", "name": "Shishmaref ", "shortName": "Shishmaref", "municipalityName": "Shishmaref", "location": {"lat": 66.2496, "lon": -166.089}, "countryCode": "US"}, "averageDailyFlights": 2.29, "operators": [{"name": "Bering Air", "iata": "8E", "icao": "BRG"}]}, {"destination": {"icao": "PAMK", "iata": "SMK", "name": "St Michael ", "shortName": "St Michael", "municipalityName": "St Michael", "location": {"lat": 63.4901, "lon": -162.11}, "countryCode": "US"}, "averageDailyFlights": 2.29, "operators": [{"name": "Bering Air", "iata": "8E", "icao": "BRG"}]}, {"destination": {"icao": "PASA", "iata": "SVA", "name": "Savoonga ", "shortName": "Savoonga", "municipalityName": "Savoonga", "location": {"lat": 63.6864, "lon": -170.493}, "countryCode": "US"}, "averageDailyFlights": 1.86, "operators": [{"name": "Bering Air", "iata": "8E", "icao": "BRG"}]}, {"destination": {"icao": "PANC", "iata": "ANC", "name": "Anchorage Ted Stevens", "shortName": "Ted Stevens", "municipalityName": "Anchorage", "location": {"lat": 61.1744, "lon": -149.996}, "countryCode": "US"}, "averageDailyFlights": 1.43, "operators": [{"name": "Alaska Airlines", "iata": "AS", "icao": "ASA"}]}, {"destination": {"icao": "PAUN", "iata": "UNK", "name": "Unalakleet ", "shortName": "Unalakleet", "municipalityName": "Unalakleet", "location": {"lat": 63.8884, "lon": -160.799}, "countryCode": "US"}, "averageDailyFlights": 1.43, "operators": [{"name": "Bering Air", "iata": "8E", "icao": "BRG"}]}, {"destination": {"icao": "PFKT", "iata": "KTS", "name": "Brevig Mission ", "shortName": "Brevig Mission", "municipalityName": "Brevig Mission", "location": {"lat": 65.3313, "lon": -166.466}, "countryCode": "US"}, "averageDailyFlights": 1.14, "operators": [{"name": "Bering Air", "iata": "8E", "icao": "BRG"}]}, {"destination": {"icao": "PFEL", "iata": "ELI", "name": "Elim ", "shortName": "Elim", "municipalityName": "Elim", "location": {"lat": 64.6147, "lon": -162.272}, "countryCode": "US"}, "averageDailyFlights": 1.14, "operators": [{"name": "Bering Air", "iata": "8E", "icao": "BRG"}]}, {"destination": {"icao": "PAGM", "iata": "GAM", "name": "Gambell ", "shortName": "Gambell", "municipalityName": "Gambell", "location": {"lat": 63.7668, "lon": -171.733}, "countryCode": "US"}, "averageDailyFlights": 1.14, "operators": [{"name": "Bering Air", "iata": "8E", "icao": "BRG"}]}, {"destination": {"icao": "PAKK", "iata": "KKA", "name": "Koyuk Alfred Adams", "shortName": "Alfred Adams", "municipalityName": "Koyuk", "location": {"lat": 64.9395, "lon": -161.154}, "countryCode": "US"}, "averageDailyFlights": 1.14, "operators": [{"name": "Bering Air", "iata": "8E", "icao": "BRG"}]}, {"destination": {"icao": "PATE", "iata": "TLA", "name": "Teller ", "shortName": "Teller", "municipalityName": "Teller", "location": {"lat": 65.2404, "lon": -166.339}, "countryCode": "US"}, "averageDailyFlights": 1.14, "operators": [{"name": "Bering Air", "iata": "8E", "icao": "BRG"}]}, {"destination": {"icao": "PAWM", "iata": "WMO", "name": "White Mountain ", "shortName": "White Mountain", "municipalityName": "White Mountain", "location": {"lat": 64.6892, "lon": -163.413}, "countryCode": "US"}, "averageDailyFlights": 1.14, "operators": [{"name": "Bering Air", "iata": "8E", "icao": "BRG"}]}, {"destination": {"icao": "PADE", "iata": "DRG", "name": "Deering ", "shortName": "Deering", "municipalityName": "Deering", "location": {"lat": 66.0696, "lon": -162.766}, "countryCode": "US"}, "averageDailyFlights": 0.71, "operators": [{"name": "Bering Air", "iata": "8E", "icao": "BRG"}]}, {"destination": {"icao": "PAIW", "iata": "WAA", "name": "Wales ", "shortName": "Wales", "municipalityName": "Wales", "location": {"lat": 65.6226, "lon": -168.095}, "countryCode": "US"}, "averageDailyFlights": 0.71, "operators": [{"name": "Bering Air", "iata": "8E", "icao": "BRG"}]}]}