{"routes": [{"destination": {"icao": "RJFF", "iata": "FUK", "name": "Fukuoka ", "shortName": "Fukuoka", "municipalityName": "Fukuoka", "location": {"lat": 33.5859, "lon": 130.451}, "countryCode": "JP"}, "averageDailyFlights": 3.43, "operators": [{"name": "Fuji Dream Airlines", "iata": "JH", "icao": "FDA"}]}, {"destination": {"icao": "RJCC", "iata": "CTS", "name": "Chitose / Tomakomai New Chitose", "shortName": "New Chitose", "municipalityName": "Chitose / Tomakomai", "location": {"lat": 42.7752, "lon": 141.692}, "countryCode": "JP"}, "averageDailyFlights": 1.14, "operators": [{"name": "Fuji Dream Airlines", "iata": "JH", "icao": "FDA"}]}, {"destination": {"icao": "RJOC", "iata": "IZO", "name": "Izumo ", "shortName": "Izumo", "municipalityName": "Izumo", "location": {"lat": 35.4136, "lon": 132.89}, "countryCode": "JP"}, "averageDailyFlights": 1.14, "operators": [{"name": "Fuji Dream Airlines", "iata": "JH", "icao": "FDA"}]}, {"destination": {"icao": "RJFK", "iata": "KOJ", "name": "Kagoshima ", "shortName": "Kagoshima", "municipalityName": "Kagoshima", "location": {"lat": 31.8034, "lon": 130.719}, "countryCode": "JP"}, "averageDailyFlights": 1.14, "operators": [{"name": "Fuji Dream Airlines", "iata": "JH", "icao": "FDA"}]}, {"destination": {"icao": "RJCO", "iata": "OKD", "name": "Sapporo Okadama", "shortName": "Okadama", "municipalityName": "Sapporo", "location": {"lat": 43.1161, "lon": 141.38}, "countryCode": "JP"}, "averageDailyFlights": 1.14, "operators": [{"name": "Fuji Dream Airlines", "iata": "JH", "icao": "FDA"}]}, {"destination": {"icao": "RKSI", "iata": "ICN", "name": "Seoul Incheon", "shortName": "Incheon", "municipalityName": "Seoul", "location": {"lat": 37.4691, "lon": 126.451}, "countryCode": "KR"}, "averageDailyFlights": 1.14, "operators": [{"name": "Jeju Air", "iata": "7C", "icao": "JJA"}]}, {"destination": {"icao": "ZSPD", "iata": "PVG", "name": "Shanghai Pudong", "shortName": "Pudong", "municipalityName": "Shanghai", "location": {"lat": 31.1434, "lon": 121.805}, "countryCode": "CN"}, "averageDailyFlights": 0.43, "operators": [{"name": "China Eastern Airlines", "iata": "MU", "icao": "CES"}]}]}