{"routes": [{"destination": {"icao": "RJOO", "iata": "ITM", "name": "Osaka ", "shortName": "Osaka", "municipalityName": "Osaka", "location": {"lat": 34.7855, "lon": 135.438}, "countryCode": "JP"}, "averageDailyFlights": 4.57, "operators": [{"name": "Japan Airlines"}, {"name": "JAL", "iata": "JL", "icao": "JAL"}]}, {"destination": {"icao": "RJFF", "iata": "FUK", "name": "Fukuoka ", "shortName": "Fukuoka", "municipalityName": "Fukuoka", "location": {"lat": 33.5859, "lon": 130.451}, "countryCode": "JP"}, "averageDailyFlights": 2.29, "operators": [{"name": "Japan Airlines"}, {"name": "JAL", "iata": "JL", "icao": "JAL"}]}, {"destination": {"icao": "RJNA", "iata": "NKM", "name": "Nagoya ", "shortName": "Nagoya", "municipalityName": "Nagoya", "location": {"lat": 35.255, "lon": 136.924}, "countryCode": "JP"}, "averageDailyFlights": 2.29, "operators": [{"name": "Fuji Dream Airlines", "iata": "JH", "icao": "FDA"}]}, {"destination": {"icao": "RJNS", "iata": "FSZ", "name": "Makinohara / Shimada Mt. Fuji Shizuoka", "shortName": "Mt. Fuji Shizuoka", "municipalityName": "Makinohara / Shimada", "location": {"lat": 34.796043, "lon": 138.18774}, "countryCode": "JP"}, "averageDailyFlights": 1.14, "operators": [{"name": "Fuji Dream Airlines", "iata": "JH", "icao": "FDA"}]}, {"destination": {"icao": "RJNO", "iata": "OKI", "name": "Okinoshima Oki", "shortName": "Oki", "municipalityName": "Okinoshima", "location": {"lat": 36.1811, "lon": 133.325}, "countryCode": "JP"}, "averageDailyFlights": 1.14, "operators": [{"name": "Japan Airlines"}]}, {"destination": {"icao": "RJGG", "iata": "NGO", "name": "Tokoname Chubu Centrair", "shortName": "Chubu Centrair", "municipalityName": "Tokoname", "location": {"lat": 34.8584, "lon": 136.805}, "countryCode": "JP"}, "averageDailyFlights": 1.14, "operators": [{"name": "Fuji Dream Airlines", "iata": "JH", "icao": "FDA"}]}, {"destination": {"name": "Tokyo"}, "averageDailyFlights": 1.14, "operators": [{"name": "Japan Airlines"}, {"name": "JAL", "iata": "JL", "icao": "JAL"}]}]}