{"routes": [{"destination": {"icao": "RJOO", "iata": "ITM", "name": "Osaka ", "shortName": "Osaka", "municipalityName": "Osaka", "location": {"lat": 34.7855, "lon": 135.438}, "countryCode": "JP"}, "averageDailyFlights": 10.43, "operators": [{"name": "ANA", "iata": "NH", "icao": "ANA"}, {"name": "Japan Airlines"}]}, {"destination": {"icao": "RJFF", "iata": "FUK", "name": "Fukuoka ", "shortName": "Fukuoka", "municipalityName": "Fukuoka", "location": {"lat": 33.5859, "lon": 130.451}, "countryCode": "JP"}, "averageDailyFlights": 4.57, "operators": [{"name": "Japan Airlines"}]}, {"destination": {"icao": "RJAA", "iata": "NRT", "name": "Tokyo Narita", "shortName": "Narita", "municipalityName": "Tokyo", "location": {"lat": 35.7647, "lon": 140.386}, "countryCode": "JP"}, "averageDailyFlights": 4.08, "operators": [{"name": "Jetstar Japan", "iata": "GK", "icao": "JJP"}, {"name": "Japan Airlines"}, {"name": "ANA", "iata": "NH", "icao": "ANA"}, {"name": "JAL", "iata": "JL", "icao": "JAL"}]}, {"destination": {"icao": "RJGG", "iata": "NGO", "name": "Tokoname Chubu Centrair", "shortName": "Chubu Centrair", "municipalityName": "Tokoname", "location": {"lat": 34.8584, "lon": 136.805}, "countryCode": "JP"}, "averageDailyFlights": 3.43, "operators": [{"name": "ANA", "iata": "NH", "icao": "ANA"}]}, {"destination": {"icao": "RJFK", "iata": "KOJ", "name": "Kagoshima ", "shortName": "Kagoshima", "municipalityName": "Kagoshima", "location": {"lat": 31.8034, "lon": 130.719}, "countryCode": "JP"}, "averageDailyFlights": 1.14, "operators": [{"name": "JAL", "iata": "JL", "icao": "JAL"}]}, {"destination": {"icao": "ROAH", "iata": "OKA", "name": "Naha ", "shortName": "Naha", "municipalityName": "Naha", "location": {"lat": 26.1958, "lon": 127.646}, "countryCode": "JP"}, "averageDailyFlights": 1.14, "operators": [{"name": "ANA", "iata": "NH", "icao": "ANA"}]}, {"destination": {"icao": "RKSI", "iata": "ICN", "name": "Seoul Incheon", "shortName": "Incheon", "municipalityName": "Seoul", "location": {"lat": 37.4691, "lon": 126.451}, "countryCode": "KR"}, "averageDailyFlights": 1.14, "operators": [{"name": "Jeju Air", "iata": "7C", "icao": "JJA"}]}, {"destination": {"icao": "RCTP", "iata": "TPE", "name": "Taipei Taiwan Taoyuan", "shortName": "Taiwan Taoyuan", "municipalityName": "Taipei", "location": {"lat": 25.0777, "lon": 121.233}, "countryCode": "TW"}, "averageDailyFlights": 0.71, "operators": [{"name": "EVA Air", "iata": "BR", "icao": "EVA"}]}, {"destination": {"icao": "RKPK", "iata": "PUS", "name": "Busan-si Gimhae", "shortName": "Gimhae", "municipalityName": "Busan-si", "location": {"lat": 35.1795, "lon": 128.938}, "countryCode": "KR"}, "averageDailyFlights": 0.57, "operators": [{"name": "Air Busan", "iata": "BX", "icao": "ABL"}]}]}