{"routes": [{"destination": {"icao": "SKBO", "iata": "BOG", "name": "Bogot\u00e1 El Dorado", "shortName": "El Dorado", "municipalityName": "Bogot\u00e1", "location": {"lat": 4.70159, "lon": -74.1469}, "countryCode": "CO"}, "averageDailyFlights": 13.57, "operators": [{"name": "Avianca", "iata": "AV", "icao": "AVA"}, {"name": "LATAM", "iata": "LA", "icao": "LAN"}]}, {"destination": {"icao": "SKRG", "iata": "MDE", "name": "Rionegro Jose Maria C\u00f3rdova", "shortName": "Jose Maria C\u00f3rdova", "municipalityName": "Rionegro", "location": {"lat": 6.16454, "lon": -75.4231}, "countryCode": "CO"}, "averageDailyFlights": 2.0, "operators": [{"name": "Avianca", "iata": "AV", "icao": "AVA"}]}, {"destination": {"icao": "SKBG", "iata": "BGA", "name": "Bucaramanga Palonegro", "shortName": "Palonegro", "municipalityName": "Bucaramanga", "location": {"lat": 7.1265, "lon": -73.1848}, "countryCode": "CO"}, "averageDailyFlights": 1.14, "operators": [{"name": "EasyFly", "iata": "VE", "icao": "EFY"}]}, {"destination": {"icao": "SKUC", "iata": "AUC", "name": "Arauca Santiago Perez", "shortName": "Santiago Perez", "municipalityName": "Arauca", "location": {"lat": 7.06888, "lon": -70.7369}, "countryCode": "CO"}, "averageDailyFlights": 0.57, "operators": [{"name": "EasyFly", "iata": "VE", "icao": "EFY"}]}, {"destination": {"icao": "MPTO", "iata": "PTY", "name": "Tocumen ", "shortName": "Tocumen", "municipalityName": "Tocumen", "location": {"lat": 9.071359, "lon": -79.3835}, "countryCode": "PA"}, "averageDailyFlights": 0.57, "operators": [{"name": "Copa Airlines", "iata": "CM", "icao": "CMP"}]}, {"destination": {"icao": "SPJC", "iata": "LIM", "name": "Lima Jorge Ch\u00e1vez", "shortName": "Jorge Ch\u00e1vez", "municipalityName": "Lima", "location": {"lat": -12.0219, "lon": -77.1143}, "countryCode": "PE"}, "averageDailyFlights": 0.14, "operators": [{"name": "JetSMART", "iata": "JA", "icao": "JAT"}]}]}