{"routes": [{"destination": {"icao": "TNCM", "iata": "SXM", "name": "Saint Martin Princess Juliana", "shortName": "Princess Juliana", "municipalityName": "Saint Martin", "location": {"lat": 18.041, "lon": -63.1089}, "countryCode": "SX"}, "averageDailyFlights": 27.14, "operators": [{"name": "Winair", "iata": "WM", "icao": "WIA"}, {"name": "Saint Barth Commuter", "iata": "PV", "icao": "SBU"}]}, {"destination": {"icao": "TJSJ", "iata": "SJU", "name": "San Juan Luis Munoz Marin", "shortName": "Luis Munoz Marin", "municipalityName": "San Juan", "location": {"lat": 18.4394, "lon": -66.0018}, "countryCode": "PR"}, "averageDailyFlights": 9.0, "operators": [{"name": "STB"}, {"name": "Tradewind Aviation", "iata": "TJ", "icao": "GPD"}, {"name": "BEZ"}]}, {"destination": {"icao": "TFFR", "iata": "PTP", "name": "Pointe-\u00e0-Pitre Le Raizet ", "shortName": "Pointe-\u00e0-Pitre Le Raizet", "municipalityName": "Pointe-\u00e0-Pitre Le Raizet", "location": {"lat": 16.2653, "lon": -61.5318}, "countryCode": "GP"}, "averageDailyFlights": 2.57, "operators": [{"name": "Air Caraibes", "iata": "TX", "icao": "FWI"}, {"name": "Saint Barth Commuter", "iata": "PV", "icao": "SBU"}]}, {"destination": {"icao": "TAPA", "iata": "ANU", "name": "St. George V.C. Bird", "shortName": "V.C. Bird", "municipalityName": "St. George", "location": {"lat": 17.1367, "lon": -61.7927}, "countryCode": "AG"}, "averageDailyFlights": 1.43, "operators": [{"name": "Tradewind Aviation", "iata": "TJ", "icao": "GPD"}]}, {"destination": {"icao": "TQPF", "iata": "AXA", "name": "The Valley Wallblake", "shortName": "Wallblake", "municipalityName": "The Valley", "location": {"lat": 18.2048, "lon": -63.0551}, "countryCode": "AI"}, "averageDailyFlights": 0.71, "operators": [{"name": "BEZ"}, {"name": "Tradewind Aviation", "iata": "TJ", "icao": "GPD"}]}, {"destination": {"icao": "TFFG", "iata": "SFG", "name": "Grand Case L'Esp\u00e9rance", "shortName": "L'Esp\u00e9rance", "municipalityName": "Grand Case", "location": {"lat": 18.0999, "lon": -63.0472}, "countryCode": "MF"}, "averageDailyFlights": 0.43, "operators": [{"name": "Saint Barth Commuter", "iata": "PV", "icao": "SBU"}]}]}