{"routes": [{"destination": {"icao": "UUEE", "iata": "SVO", "localCode": "\u0428\u0420\u041c", "name": "Moscow Sheremetyevo", "shortName": "Sheremetyevo", "municipalityName": "Moscow", "location": {"lat": 55.9726, "lon": 37.4146}, "countryCode": "RU"}, "averageDailyFlights": 23.86, "operators": [{"name": "Aeroflot", "iata": "SU", "icao": "AFL"}, {"name": "Rossiya Airlines", "iata": "FV", "icao": "SDM"}, {"name": "Smartavia", "iata": "5N", "icao": "AUL"}, {"name": "Pobeda", "iata": "DP", "icao": "PBD"}, {"name": "Nordwind Airlines", "iata": "N4", "icao": "NWS"}]}, {"destination": {"icao": "UMKK", "iata": "KGD", "localCode": "\u041a\u041b\u0414", "name": "Kaliningrad Khrabrovo", "shortName": "Khrabrovo", "municipalityName": "Kaliningrad", "location": {"lat": 54.89, "lon": 20.5926}, "countryCode": "RU"}, "averageDailyFlights": 11.0, "operators": [{"name": "Pobeda", "iata": "DP", "icao": "PBD"}, {"name": "Smartavia", "iata": "5N", "icao": "AUL"}, {"name": "Ural Airlines", "iata": "U6", "icao": "SVR"}, {"name": "Rossiya Airlines", "iata": "FV", "icao": "SDM"}, {"name": "Red Wings", "iata": "WZ", "icao": "RWZ"}]}, {"destination": {"icao": "URSS", "iata": "AER", "localCode": "\u0421\u041e\u0427", "name": "Sochi ", "shortName": "Sochi", "municipalityName": "Sochi", "location": {"lat": 43.4499, "lon": 39.9566}, "countryCode": "RU"}, "averageDailyFlights": 8.86, "operators": [{"name": "Ural Airlines", "iata": "U6", "icao": "SVR"}, {"name": "Rossiya Airlines", "iata": "FV", "icao": "SDM"}, {"name": "Smartavia", "iata": "5N", "icao": "AUL"}]}, {"destination": {"icao": "USSS", "iata": "SVX", "localCode": "\u041a\u041b\u0426", "name": "Ekaterinburg Koltsovo", "shortName": "Koltsovo", "municipalityName": "Ekaterinburg", "location": {"lat": 56.7431, "lon": 60.8027}, "countryCode": "RU"}, "averageDailyFlights": 7.86, "operators": [{"name": "Rossiya Airlines", "iata": "FV", "icao": "SDM"}, {"name": "Smartavia", "iata": "5N", "icao": "AUL"}, {"name": "Ural Airlines", "iata": "U6", "icao": "SVR"}, {"name": "Yakutia", "iata": "R3", "icao": "SYL"}, {"name": "Pobeda", "iata": "DP", "icao": "PBD"}]}, {"destination": {"icao": "UWKD", "iata": "KZN", "name": "Kazan ", "shortName": "Kazan", "municipalityName": "Kazan", "location": {"lat": 55.6062, "lon": 49.2787}, "countryCode": "RU"}, "averageDailyFlights": 7.29, "operators": [{"name": "Rossiya Airlines", "iata": "FV", "icao": "SDM"}, {"name": "Nordwind Airlines", "iata": "N4", "icao": "NWS"}, {"name": "Smartavia", "iata": "5N", "icao": "AUL"}]}, {"destination": {"icao": "ULMM", "iata": "MMK", "localCode": "\u041c\u0423\u041d", "name": "Murmansk ", "shortName": "Murmansk", "municipalityName": "Murmansk", "location": {"lat": 68.7817, "lon": 32.7508}, "countryCode": "RU"}, "averageDailyFlights": 5.86, "operators": [{"name": "Rossiya Airlines", "iata": "FV", "icao": "SDM"}, {"name": "Smartavia", "iata": "5N", "icao": "AUL"}]}, {"destination": {"icao": "ULAA", "iata": "ARH", "localCode": "\u0410\u0425\u0413", "name": "Arkhangelsk Talagi", "shortName": "Talagi", "municipalityName": "Arkhangelsk", "location": {"lat": 64.6003, "lon": 40.7167}, "countryCode": "RU"}, "averageDailyFlights": 5.29, "operators": [{"name": "Rossiya Airlines", "iata": "FV", "icao": "SDM"}, {"name": "Smartavia", "iata": "5N", "icao": "AUL"}]}, {"destination": {"icao": "UWWW", "iata": "KUF", "localCode": "\u0421\u041a\u0427", "name": "Samara Kurumoch", "shortName": "Kurumoch", "municipalityName": "Samara", "location": {"lat": 53.5049, "lon": 50.1643}, "countryCode": "RU"}, "averageDailyFlights": 5.29, "operators": [{"name": "Smartavia", "iata": "5N", "icao": "AUL"}, {"name": "Rossiya Airlines", "iata": "FV", "icao": "SDM"}, {"name": "Pobeda", "iata": "DP", "icao": "PBD"}]}, {"destination": {"icao": "URMM", "iata": "MRV", "localCode": "\u041c\u0420\u0412", "name": "Mineralnyye Vody ", "shortName": "Mineralnyye Vody", "municipalityName": "Mineralnyye Vody", "location": {"lat": 44.2251, "lon": 43.0819}, "countryCode": "RU"}, "averageDailyFlights": 4.71, "operators": [{"name": "Red Wings", "iata": "WZ", "icao": "RWZ"}, {"name": "Pobeda", "iata": "DP", "icao": "PBD"}, {"name": "Rossiya Airlines", "iata": "FV", "icao": "SDM"}]}, {"destination": {"icao": "UWUU", "iata": "UFA", "localCode": "\u0423\u0424\u0410", "name": "Ufa ", "shortName": "Ufa", "municipalityName": "Ufa", "location": {"lat": 54.5575, "lon": 55.8744}, "countryCode": "RU"}, "averageDailyFlights": 4.71, "operators": [{"name": "Rossiya Airlines", "iata": "FV", "icao": "SDM"}, {"name": "Nordwind Airlines", "iata": "N4", "icao": "NWS"}, {"name": "Smartavia", "iata": "5N", "icao": "AUL"}, {"name": "Pobeda", "iata": "DP", "icao": "PBD"}]}, {"destination": {"icao": "USCC", "iata": "CEK", "localCode": "\u0427\u041b\u0411", "name": "Chelyabinsk Balandino", "shortName": "Balandino", "municipalityName": "Chelyabinsk", "location": {"lat": 55.3058, "lon": 61.5033}, "countryCode": "RU"}, "averageDailyFlights": 4.57, "operators": [{"name": "Rossiya Airlines", "iata": "FV", "icao": "SDM"}, {"name": "Smartavia", "iata": "5N", "icao": "AUL"}, {"name": "Pobeda", "iata": "DP", "icao": "PBD"}, {"name": "Ural Airlines", "iata": "U6", "icao": "SVR"}]}, {"destination": {"icao": "LTFM", "iata": "IST", "name": "Istanbul ", "shortName": "Istanbul", "municipalityName": "Istanbul", "location": {"lat": 41.275276, "lon": 28.751944}, "countryCode": "TR"}, "averageDailyFlights": 4.57, "operators": [{"name": "Rossiya Airlines", "iata": "FV", "icao": "SDM"}, {"name": "Turkish Airlines", "iata": "TK", "icao": "THY"}]}, {"destination": {"icao": "UMMS", "iata": "MSQ", "localCode": "\u041c\u0418\u041a", "name": "Minsk National", "shortName": "National", "municipalityName": "Minsk", "location": {"lat": 53.8825, "lon": 28.0307}, "countryCode": "BY"}, "averageDailyFlights": 4.29, "operators": [{"name": "Belavia", "iata": "B2", "icao": "BRU"}, {"name": "Pobeda", "iata": "DP", "icao": "PBD"}]}, {"destination": {"icao": "UNNT", "iata": "OVB", "localCode": "\u0422\u041b\u0427", "name": "Novosibirsk Tolmachevo", "shortName": "Tolmachevo", "municipalityName": "Novosibirsk", "location": {"lat": 55.0126, "lon": 82.6507}, "countryCode": "RU"}, "averageDailyFlights": 4.0, "operators": [{"name": "S7 Airlines", "iata": "S7", "icao": "SBI"}, {"name": "Rossiya Airlines", "iata": "FV", "icao": "SDM"}, {"name": "Smartavia", "iata": "5N", "icao": "AUL"}]}, {"destination": {"icao": "UWGG", "iata": "GOJ", "localCode": "\u041d\u0416\u0421", "name": "Nizhniy Novgorod Strigino", "shortName": "Strigino", "municipalityName": "Nizhniy Novgorod", "location": {"lat": 56.2301, "lon": 43.784}, "countryCode": "RU"}, "averageDailyFlights": 3.71, "operators": [{"name": "Smartavia", "iata": "5N", "icao": "AUL"}, {"name": "Rossiya Airlines", "iata": "FV", "icao": "SDM"}]}, {"destination": {"icao": "USTR", "iata": "TJM", "localCode": "\u0420\u0429\u041d", "name": "Tyumen Roshchino", "shortName": "Roshchino", "municipalityName": "Tyumen", "location": {"lat": 57.1896, "lon": 65.3243}, "countryCode": "RU"}, "averageDailyFlights": 2.71, "operators": [{"name": "Pobeda", "iata": "DP", "icao": "PBD"}, {"name": "Smartavia", "iata": "5N", "icao": "AUL"}, {"name": "Nordwind Airlines", "iata": "N4", "icao": "NWS"}, {"name": "Rossiya Airlines", "iata": "FV", "icao": "SDM"}]}, {"destination": {"icao": "UUDD", "iata": "DME", "localCode": "\u0414\u041c\u0414", "name": "Moscow Domodedovo", "shortName": "Domodedovo", "municipalityName": "Moscow", "location": {"lat": 55.4088, "lon": 37.9063}, "countryCode": "RU"}, "averageDailyFlights": 2.57, "operators": [{"name": "S7 Airlines", "iata": "S7", "icao": "SBI"}, {"name": "Ural Airlines", "iata": "U6", "icao": "SVR"}]}, {"destination": {"icao": "ULWC", "iata": "CEE", "localCode": "\u0427\u0420\u0412", "name": "Cherepovets ", "shortName": "Cherepovets", "municipalityName": "Cherepovets", "location": {"lat": 59.2736, "lon": 38.0158}, "countryCode": "RU"}, "averageDailyFlights": 2.43, "operators": [{"name": "Severstal Aircompany", "iata": "D2", "icao": "SSF"}]}, {"destination": {"icao": "UNKL", "iata": "KJA", "localCode": "\u041a\u042f\u0410", "name": "Krasnoyarsk Yemelyanovo", "shortName": "Yemelyanovo", "municipalityName": "Krasnoyarsk", "location": {"lat": 56.1729, "lon": 92.4933}, "countryCode": "RU"}, "averageDailyFlights": 2.43, "operators": [{"name": "Rossiya Airlines", "iata": "FV", "icao": "SDM"}, {"name": "NordStar Airlines", "iata": "Y7", "icao": "TYA"}]}, {"destination": {"icao": "URWW", "iata": "VOG", "localCode": "\u0412\u0413\u0413", "name": "Volgograd ", "shortName": "Volgograd", "municipalityName": "Volgograd", "location": {"lat": 48.7825, "lon": 44.3455}, "countryCode": "RU"}, "averageDailyFlights": 2.43, "operators": [{"name": "Pobeda", "iata": "DP", "icao": "PBD"}, {"name": "Rossiya Airlines", "iata": "FV", "icao": "SDM"}]}, {"destination": {"icao": "OMDB", "iata": "DXB", "name": "Dubai ", "shortName": "Dubai", "municipalityName": "Dubai", "location": {"lat": 25.252798, "lon": 55.3644}, "countryCode": "AE"}, "averageDailyFlights": 2.29, "operators": [{"name": "Emirates", "iata": "EK", "icao": "UAE"}, {"name": "flydubai", "iata": "FZ", "icao": "FDB"}]}, {"destination": {"icao": "USRR", "iata": "SGC", "localCode": "\u0421\u0423\u0420", "name": "Surgut ", "shortName": "Surgut", "municipalityName": "Surgut", "location": {"lat": 61.3437, "lon": 73.4018}, "countryCode": "RU"}, "averageDailyFlights": 2.29, "operators": [{"name": "Rossiya Airlines", "iata": "FV", "icao": "SDM"}, {"name": "UTAir", "iata": "UT", "icao": "UTA"}]}, {"destination": {"icao": "URML", "iata": "MCX", "localCode": "\u041c\u0425\u041b", "name": "Makhachkala Uytash", "shortName": "Uytash", "municipalityName": "Makhachkala", "location": {"lat": 42.8168, "lon": 47.6523}, "countryCode": "RU"}, "averageDailyFlights": 2.14, "operators": [{"name": "Pobeda", "iata": "DP", "icao": "PBD"}, {"name": "Rossiya Airlines", "iata": "FV", "icao": "SDM"}]}, {"destination": {"icao": "UUWW", "iata": "VKO", "localCode": "\u0412\u041d\u041a", "name": "Moscow Vnukovo", "shortName": "Vnukovo", "municipalityName": "Moscow", "location": {"lat": 55.5915, "lon": 37.2615}, "countryCode": "RU"}, "averageDailyFlights": 2.0, "operators": [{"name": "Alrosa", "iata": "6R", "icao": "DRU"}, {"name": "Azimuth Airlines", "iata": "A4", "icao": "AZO"}, {"name": "UTAir", "iata": "UT", "icao": "UTA"}, {"name": "AZUR Air", "iata": "ZF", "icao": "KTK"}]}, {"destination": {"icao": "USPP", "iata": "PEE", "localCode": "\u041f\u0420\u042c", "name": "Perm Bolshoye Savino", "shortName": "Bolshoye Savino", "municipalityName": "Perm", "location": {"lat": 57.9145, "lon": 56.0212}, "countryCode": "RU"}, "averageDailyFlights": 2.0, "operators": [{"name": "Pobeda", "iata": "DP", "icao": "PBD"}, {"name": "Rossiya Airlines", "iata": "FV", "icao": "SDM"}]}, {"destination": {"icao": "UTSS", "iata": "SKD", "localCode": "\u0421\u041a\u0414", "name": "Samarkand ", "shortName": "Samarkand", "municipalityName": "Samarkand", "location": {"lat": 39.7005, "lon": 66.9838}, "countryCode": "UZ"}, "averageDailyFlights": 2.0, "operators": [{"name": "Rossiya Airlines", "iata": "FV", "icao": "SDM"}, {"name": "UTAir", "iata": "UT", "icao": "UTA"}, {"name": "Uzbekistan Airways", "iata": "HY", "icao": "UZB"}, {"name": "Taban Airlines", "iata": "HH", "icao": "TBN"}]}, {"destination": {"icao": "UUYY", "iata": "SCW", "localCode": "\u0421\u042b\u0412", "name": "Syktyvkar ", "shortName": "Syktyvkar", "municipalityName": "Syktyvkar", "location": {"lat": 61.647, "lon": 50.8451}, "countryCode": "RU"}, "averageDailyFlights": 2.0, "operators": [{"name": "Smartavia", "iata": "5N", "icao": "AUL"}, {"name": "Rossiya Airlines", "iata": "FV", "icao": "SDM"}]}, {"destination": {"icao": "UNOO", "iata": "OMS", "localCode": "\u041e\u041c\u0421", "name": "Omsk Central", "shortName": "Central", "municipalityName": "Omsk", "location": {"lat": 54.967, "lon": 73.3105}, "countryCode": "RU"}, "averageDailyFlights": 1.86, "operators": [{"name": "Rossiya Airlines", "iata": "FV", "icao": "SDM"}, {"name": "Nordwind Airlines", "iata": "N4", "icao": "NWS"}]}, {"destination": {"icao": "LTAI", "iata": "AYT", "name": "Antalya ", "shortName": "Antalya", "municipalityName": "Antalya", "location": {"lat": 36.8987, "lon": 30.8005}, "countryCode": "TR"}, "averageDailyFlights": 1.71, "operators": [{"name": "Air Stork", "iata": "2S", "icao": "MSB"}, {"name": "Rossiya Airlines", "iata": "FV", "icao": "SDM"}, {"name": "Pegasus", "iata": "PC", "icao": "PGT"}]}, {"destination": {"icao": "ULMK", "iata": "KVK", "localCode": "\u0410\u041f\u0425", "name": "Apatity Kirovsk-", "shortName": "Kirovsk-", "municipalityName": "Apatity", "location": {"lat": 67.4633, "lon": 33.5883}, "countryCode": "RU"}, "averageDailyFlights": 1.71, "operators": [{"name": "Rossiya Airlines", "iata": "FV", "icao": "SDM"}]}, {"destination": {"icao": "UIII", "iata": "IKT", "localCode": "\u0418\u041a\u0422", "name": "Irkutsk ", "shortName": "Irkutsk", "municipalityName": "Irkutsk", "location": {"lat": 52.268, "lon": 104.389}, "countryCode": "RU"}, "averageDailyFlights": 1.71, "operators": [{"name": "S7 Airlines", "iata": "S7", "icao": "SBI"}, {"name": "Rossiya Airlines", "iata": "FV", "icao": "SDM"}]}, {"destination": {"icao": "UBBB", "iata": "GYD", "localCode": "\u0411\u0410\u041a", "name": "Baku Heydar Aliyev", "shortName": "Heydar Aliyev", "municipalityName": "Baku", "location": {"lat": 40.4675, "lon": 50.0467}, "countryCode": "AZ"}, "averageDailyFlights": 1.57, "operators": [{"name": "AZAL Azerbaijan Airlines", "iata": "J2", "icao": "AHY"}, {"name": "UTAir", "iata": "UT", "icao": "UTA"}, {"name": "Rossiya Airlines", "iata": "FV", "icao": "SDM"}]}, {"destination": {"icao": "UTTT", "iata": "TAS", "localCode": "\u0422\u0410\u0421", "name": "Tashkent ", "shortName": "Tashkent", "municipalityName": "Tashkent", "location": {"lat": 41.2579, "lon": 69.2812}, "countryCode": "UZ"}, "averageDailyFlights": 1.57, "operators": [{"name": "Uzbekistan Airways", "iata": "HY", "icao": "UZB"}, {"name": "Rossiya Airlines", "iata": "FV", "icao": "SDM"}]}, {"destination": {"icao": "UWOO", "iata": "REN", "localCode": "\u041e\u041d\u0413", "name": "Orenburg Central", "shortName": "Central", "municipalityName": "Orenburg", "location": {"lat": 51.7958, "lon": 55.4567}, "countryCode": "RU"}, "averageDailyFlights": 1.43, "operators": [{"name": "Rossiya Airlines", "iata": "FV", "icao": "SDM"}, {"name": "Nordwind Airlines", "iata": "N4", "icao": "NWS"}]}, {"destination": {"icao": "UDYZ", "iata": "EVN", "localCode": "\u0417\u0412\u0420", "name": "Yerevan Zvartnots", "shortName": "Zvartnots", "municipalityName": "Yerevan", "location": {"lat": 40.1473, "lon": 44.3959}, "countryCode": "AM"}, "averageDailyFlights": 1.43, "operators": [{"name": "Rossiya Airlines", "iata": "FV", "icao": "SDM"}, {"name": "FlyOne Armenia", "iata": "3F", "icao": "FIE"}]}, {"destination": {"icao": "UGTB", "iata": "TBS", "name": "Tbilisi ", "shortName": "Tbilisi", "municipalityName": "Tbilisi", "location": {"lat": 41.6692, "lon": 44.9547}, "countryCode": "GE"}, "averageDailyFlights": 1.29, "operators": [{"name": "Georgian Airways", "iata": "A9", "icao": "TGZ"}, {"name": "Azimuth Airlines", "iata": "A4", "icao": "AZO"}, {"name": "Red Wings", "iata": "WZ", "icao": "RWZ"}]}, {"destination": {"icao": "LTFJ", "iata": "SAW", "name": "Istanbul Sabiha G\u00f6k\u00e7en", "shortName": "Sabiha G\u00f6k\u00e7en", "municipalityName": "Istanbul", "location": {"lat": 40.8986, "lon": 29.3092}, "countryCode": "TR"}, "averageDailyFlights": 1.14, "operators": [{"name": "Pegasus", "iata": "PC", "icao": "PGT"}]}, {"destination": {"icao": "UUBI", "iata": "IWA", "localCode": "\u0418\u0412\u0412", "name": "Ivanovo South", "shortName": "South", "municipalityName": "Ivanovo", "location": {"lat": 56.9394, "lon": 40.9408}, "countryCode": "RU"}, "averageDailyFlights": 1.14, "operators": [{"name": "Pegas Fly", "iata": "EO", "icao": "KAR"}]}, {"destination": {"icao": "USII", "iata": "IJK", "localCode": "\u0418\u0416\u0412", "name": "Izhevsk ", "shortName": "Izhevsk", "municipalityName": "Izhevsk", "location": {"lat": 56.8281, "lon": 53.4575}, "countryCode": "RU"}, "averageDailyFlights": 1.14, "operators": [{"name": "Izhavia", "iata": "I8", "icao": "IZA"}]}, {"destination": {"icao": "UWSG", "iata": "GSV", "localCode": "\u0413\u0421\u0412", "name": "Saratov Gagarin International", "shortName": "Gagarin International", "municipalityName": "Saratov", "location": {"lat": 51.71811, "lon": 46.169918}, "countryCode": "RU"}, "averageDailyFlights": 1.14, "operators": [{"name": "Pobeda", "iata": "DP", "icao": "PBD"}]}, {"destination": {"icao": "ZSPD", "iata": "PVG", "name": "Shanghai Pudong", "shortName": "Pudong", "municipalityName": "Shanghai", "location": {"lat": 31.1434, "lon": 121.805}, "countryCode": "CN"}, "averageDailyFlights": 1.14, "operators": [{"name": "China Eastern Airlines", "iata": "MU", "icao": "CES"}]}, {"destination": {"icao": "UUYH", "iata": "UCT", "localCode": "\u0423\u0425\u0422", "name": "Ukhta ", "shortName": "Ukhta", "municipalityName": "Ukhta", "location": {"lat": 63.5669, "lon": 53.8047}, "countryCode": "RU"}, "averageDailyFlights": 1.14, "operators": [{"name": "Severstal Aircompany", "iata": "D2", "icao": "SSF"}]}, {"destination": {"icao": "URMO", "iata": "OGZ", "localCode": "\u0412\u041b\u0410", "name": "Vladikavkaz Beslan", "shortName": "Beslan", "municipalityName": "Vladikavkaz", "location": {"lat": 43.2051, "lon": 44.6066}, "countryCode": "RU"}, "averageDailyFlights": 1.14, "operators": [{"name": "Pobeda", "iata": "DP", "icao": "PBD"}]}, {"destination": {"icao": "URWA", "iata": "ASF", "localCode": "\u0410\u0421\u0420", "name": "Astrakhan ", "shortName": "Astrakhan", "municipalityName": "Astrakhan", "location": {"lat": 46.2833, "lon": 48.0063}, "countryCode": "RU"}, "averageDailyFlights": 1.0, "operators": [{"name": "Pobeda", "iata": "DP", "icao": "PBD"}, {"name": "Rossiya Airlines", "iata": "FV", "icao": "SDM"}]}, {"destination": {"icao": "UTDD", "iata": "DYU", "localCode": "\u0414\u0428\u0411", "name": "Dushanbe ", "shortName": "Dushanbe", "municipalityName": "Dushanbe", "location": {"lat": 38.5433, "lon": 68.825}, "countryCode": "TJ"}, "averageDailyFlights": 1.0, "operators": [{"name": "Somon Air", "iata": "SZ", "icao": "SMR"}, {"name": "Ural Airlines", "iata": "U6", "icao": "SVR"}]}, {"destination": {"icao": "LYBE", "iata": "BEG", "name": "Belgrade Nikola Tesla", "shortName": "Nikola Tesla", "municipalityName": "Belgrade", "location": {"lat": 44.8184, "lon": 20.3091}, "countryCode": "RS"}, "averageDailyFlights": 0.86, "operators": [{"name": "JetSMART", "iata": "JA", "icao": "JAT"}]}, {"destination": {"icao": "UWKS", "iata": "CSY", "localCode": "\u0427\u0411\u0415", "name": "Cheboksary ", "shortName": "Cheboksary", "municipalityName": "Cheboksary", "location": {"lat": 56.0903, "lon": 47.3473}, "countryCode": "RU"}, "averageDailyFlights": 0.86, "operators": [{"name": "Pobeda", "iata": "DP", "icao": "PBD"}]}, {"destination": {"icao": "HEGN", "iata": "HRG", "name": "Hurghada ", "shortName": "Hurghada", "municipalityName": "Hurghada", "location": {"lat": 27.1783, "lon": 33.7994}, "countryCode": "EG"}, "averageDailyFlights": 0.86, "operators": [{"name": "Aeroflot", "iata": "SU", "icao": "AFL"}, {"name": "AlMasria", "iata": "UJ", "icao": "LMU"}]}, {"destination": {"icao": "OMDW", "iata": "DWC", "name": "Jebel Ali Al Maktoum", "shortName": "Al Maktoum", "municipalityName": "Jebel Ali", "location": {"lat": 24.896666, "lon": 55.16139}, "countryCode": "AE"}, "averageDailyFlights": 0.86, "operators": [{"name": "Rossiya Airlines", "iata": "FV", "icao": "SDM"}]}, {"destination": {"icao": "USKK", "iata": "KVX", "localCode": "\u041a\u0418\u041e", "name": "Kirov Pobedilovo", "shortName": "Pobedilovo", "municipalityName": "Kirov", "location": {"lat": 58.5033, "lon": 49.3483}, "countryCode": "RU"}, "averageDailyFlights": 0.86, "operators": [{"name": "Pobeda", "iata": "DP", "icao": "PBD"}]}, {"destination": {"icao": "UWKE", "iata": "NBC", "localCode": "\u041d\u0416\u041a", "name": "Nizhnekamsk Begishevo", "shortName": "Begishevo", "municipalityName": "Nizhnekamsk", "location": {"lat": 55.5647, "lon": 52.0925}, "countryCode": "RU"}, "averageDailyFlights": 0.86, "operators": [{"name": "Pobeda", "iata": "DP", "icao": "PBD"}]}, {"destination": {"icao": "UWPP", "iata": "PEZ", "localCode": "\u041f\u041d\u0410", "name": "Penza ", "shortName": "Penza", "municipalityName": "Penza", "location": {"lat": 53.1106, "lon": 45.0211}, "countryCode": "RU"}, "averageDailyFlights": 0.86, "operators": [{"name": "Rossiya Airlines", "iata": "FV", "icao": "SDM"}]}, {"destination": {"name": "Chengdu"}, "averageDailyFlights": 0.86, "operators": [{"name": "Sichuan Airlines", "iata": "3U", "icao": "CSC"}]}, {"destination": {"icao": "UNBB", "iata": "BAX", "localCode": "\u0411\u0410\u041d", "name": "Barnaul ", "shortName": "Barnaul", "municipalityName": "Barnaul", "location": {"lat": 53.3638, "lon": 83.5385}, "countryCode": "RU"}, "averageDailyFlights": 0.71, "operators": [{"name": "Nordwind Airlines", "iata": "N4", "icao": "NWS"}]}, {"destination": {"icao": "KGFK", "iata": "GFK", "name": "Grand Forks ", "shortName": "Grand Forks", "municipalityName": "Grand Forks", "location": {"lat": 47.9493, "lon": -97.1761}, "countryCode": "US"}, "averageDailyFlights": 0.71, "operators": [{"name": "Aeroflot", "iata": "SU", "icao": "AFL"}]}, {"destination": {"icao": "URMG", "iata": "GRV", "localCode": "\u0413\u0420\u041d", "name": "Grozny North", "shortName": "North", "municipalityName": "Grozny", "location": {"lat": 43.3883, "lon": 45.6986}, "countryCode": "RU"}, "averageDailyFlights": 0.71, "operators": [{"name": "Rossiya Airlines", "iata": "FV", "icao": "SDM"}]}, {"destination": {"icao": "UUBC", "iata": "KLF", "localCode": "\u041a\u041b\u0413", "name": "Kaluga Grabtsevo", "shortName": "Grabtsevo", "municipalityName": "Kaluga", "location": {"lat": 54.55, "lon": 36.36667}, "countryCode": "RU"}, "averageDailyFlights": 0.71, "operators": [{"name": "Azimuth Airlines", "iata": "A4", "icao": "AZO"}]}, {"destination": {"icao": "USNN", "iata": "NJC", "localCode": "\u041d\u0416\u0412", "name": "Nizhnevartovsk ", "shortName": "Nizhnevartovsk", "municipalityName": "Nizhnevartovsk", "location": {"lat": 60.9493, "lon": 76.4836}, "countryCode": "RU"}, "averageDailyFlights": 0.71, "operators": [{"name": "Rossiya Airlines", "iata": "FV", "icao": "SDM"}]}, {"destination": {"icao": "UNWW", "iata": "NOZ", "localCode": "\u041d\u0412\u041a", "name": "Novokuznetsk Spichenkovo", "shortName": "Spichenkovo", "municipalityName": "Novokuznetsk", "location": {"lat": 53.8114, "lon": 86.8772}, "countryCode": "RU"}, "averageDailyFlights": 0.71, "operators": [{"name": "Nordwind Airlines", "iata": "N4", "icao": "NWS"}]}, {"destination": {"icao": "VTSP", "iata": "HKT", "name": "Phuket ", "shortName": "Phuket", "municipalityName": "Phuket", "location": {"lat": 8.1132, "lon": 98.3169}, "countryCode": "TH"}, "averageDailyFlights": 0.71, "operators": [{"name": "Red Wings", "iata": "WZ", "icao": "RWZ"}, {"name": "Aeroflot", "iata": "SU", "icao": "AFL"}]}, {"destination": {"icao": "UWPS", "iata": "SKX", "localCode": "\u0421\u0420\u041d", "name": "Saransk ", "shortName": "Saransk", "municipalityName": "Saransk", "location": {"lat": 54.12513, "lon": 45.212257}, "countryCode": "RU"}, "averageDailyFlights": 0.71, "operators": [{"name": "Azimuth Airlines", "iata": "A4", "icao": "AZO"}]}, {"destination": {"icao": "HESH", "iata": "SSH", "name": "Sharm el Sheikh ", "shortName": "Sharm el Sheikh", "municipalityName": "Sharm el Sheikh", "location": {"lat": 27.9773, "lon": 34.395}, "countryCode": "EG"}, "averageDailyFlights": 0.71, "operators": [{"name": "AZUR Air", "iata": "ZF", "icao": "KTK"}, {"name": "Aeroflot", "iata": "SU", "icao": "AFL"}, {"name": "AlMasria", "iata": "UJ", "icao": "LMU"}]}, {"destination": {"icao": "URMT", "iata": "STW", "localCode": "\u0421\u0422\u0412", "name": "Stavropol Shpakovskoye", "shortName": "Shpakovskoye", "municipalityName": "Stavropol", "location": {"lat": 45.1092, "lon": 42.1128}, "countryCode": "RU"}, "averageDailyFlights": 0.71, "operators": [{"name": "Pobeda", "iata": "DP", "icao": "PBD"}]}, {"destination": {"icao": "UTNU", "iata": "UGC", "localCode": "\u0423\u0413\u041d", "name": "Urgench ", "shortName": "Urgench", "municipalityName": "Urgench", "location": {"lat": 41.5843, "lon": 60.6417}, "countryCode": "UZ"}, "averageDailyFlights": 0.71, "operators": [{"name": "Uzbekistan Airways", "iata": "HY", "icao": "UZB"}]}, {"destination": {"icao": "UACC", "iata": "NQZ", "name": "Astana Nursultan Nazarbayev", "shortName": "Nursultan Nazarbayev", "municipalityName": "Astana", "location": {"lat": 51.0222, "lon": 71.4669}, "countryCode": "KZ"}, "averageDailyFlights": 0.57, "operators": [{"name": "SCAT Airlines", "iata": "DV", "icao": "VSV"}]}, {"destination": {"icao": "UMGG", "iata": "GME", "localCode": "\u0413\u041c\u041b", "name": "Gomel ", "shortName": "Gomel", "municipalityName": "Gomel", "location": {"lat": 52.527, "lon": 31.0167}, "countryCode": "BY"}, "averageDailyFlights": 0.57, "operators": [{"name": "Belavia", "iata": "B2", "icao": "BRU"}]}, {"destination": {"icao": "UNEE", "iata": "KEJ", "localCode": "\u041a\u0420\u0412", "name": "Kemerovo ", "shortName": "Kemerovo", "municipalityName": "Kemerovo", "location": {"lat": 55.2701, "lon": 86.1072}, "countryCode": "RU"}, "averageDailyFlights": 0.57, "operators": [{"name": "Nordwind Airlines", "iata": "N4", "icao": "NWS"}]}, {"destination": {"icao": "UTDL", "iata": "LBD", "localCode": "\u0425\u0414\u0422", "name": "Khudzhand ", "shortName": "Khudzhand", "municipalityName": "Khudzhand", "location": {"lat": 40.2154, "lon": 69.6947}, "countryCode": "TJ"}, "averageDailyFlights": 0.57, "operators": [{"name": "Ural Airlines", "iata": "U6", "icao": "SVR"}]}, {"destination": {"icao": "UUBA", "iata": "KMW", "localCode": "\u041a\u041e\u0420", "name": "Kostroma Sokerkino", "shortName": "Sokerkino", "municipalityName": "Kostroma", "location": {"lat": 57.7969, "lon": 41.0194}, "countryCode": "RU"}, "averageDailyFlights": 0.57, "operators": [{"name": "Kostroma Air Enterprise"}]}, {"destination": {"icao": "USMU", "iata": "NUX", "localCode": "\u041d\u0423\u0420", "name": "Novyy Urengoy Novy Urengoy", "shortName": "Novy Urengoy", "municipalityName": "Novyy Urengoy", "location": {"lat": 66.0694, "lon": 76.5203}, "countryCode": "RU"}, "averageDailyFlights": 0.57, "operators": [{"name": "Yamal Airlines", "iata": "YC", "icao": "LLM"}]}, {"destination": {"icao": "UCFO", "iata": "OSS", "localCode": "\u041e\u0428\u0428", "name": "Osh ", "shortName": "Osh", "municipalityName": "Osh", "location": {"lat": 40.609, "lon": 72.7933}, "countryCode": "KG"}, "averageDailyFlights": 0.57, "operators": [{"name": "Ural Airlines", "iata": "U6", "icao": "SVR"}, {"name": "Avia Traffic Company", "iata": "YK", "icao": "AVJ"}]}, {"destination": {"icao": "USDD", "iata": "SLY", "localCode": "\u0421\u0425\u0414", "name": "Salekhard ", "shortName": "Salekhard", "municipalityName": "Salekhard", "location": {"lat": 66.5908, "lon": 66.611}, "countryCode": "RU"}, "averageDailyFlights": 0.57, "operators": [{"name": "Yamal Airlines", "iata": "YC", "icao": "LLM"}]}, {"destination": {"icao": "UNTT", "iata": "TOF", "localCode": "\u0422\u0421\u041a", "name": "Tomsk Bogashevo", "shortName": "Bogashevo", "municipalityName": "Tomsk", "location": {"lat": 56.3803, "lon": 85.2083}, "countryCode": "RU"}, "averageDailyFlights": 0.57, "operators": [{"name": "Nordwind Airlines", "iata": "N4", "icao": "NWS"}]}, {"destination": {"icao": "UWLL", "iata": "ULV", "localCode": "\u0423\u041b\u041a", "name": "Ulyanovsk Baratayevka", "shortName": "Baratayevka", "municipalityName": "Ulyanovsk", "location": {"lat": 54.2683, "lon": 48.2267}, "countryCode": "RU"}, "averageDailyFlights": 0.57, "operators": [{"name": "Pobeda", "iata": "DP", "icao": "PBD"}]}, {"destination": {"icao": "OMAA", "iata": "AUH", "name": "Abu Dhabi Island and Internal Islands City Abu Dhabi", "shortName": "Abu Dhabi", "municipalityName": "Abu Dhabi Island and Internal Islands City", "location": {"lat": 24.433, "lon": 54.6511}, "countryCode": "AE"}, "averageDailyFlights": 0.43, "operators": [{"name": "Etihad Airways", "iata": "EY", "icao": "ETD"}]}, {"destination": {"icao": "ZBAA", "iata": "PEK", "name": "Beijing Capital", "shortName": "Capital", "municipalityName": "Beijing", "location": {"lat": 40.0801, "lon": 116.585}, "countryCode": "CN"}, "averageDailyFlights": 0.43, "operators": [{"name": "Hainan Airlines", "iata": "HU", "icao": "CHH"}]}, {"destination": {"icao": "UCFM", "iata": "FRU", "localCode": "\u0411\u0418\u0428", "name": "Bishkek Manas", "shortName": "Manas", "municipalityName": "Bishkek", "location": {"lat": 43.0613, "lon": 74.4776}, "countryCode": "KG"}, "averageDailyFlights": 0.43, "operators": [{"name": "Ural Airlines", "iata": "U6", "icao": "SVR"}, {"name": "Avia Traffic Company", "iata": "YK", "icao": "AVJ"}]}, {"destination": {"icao": "UTSB", "iata": "BHK", "localCode": "\u0411\u0423\u0410", "name": "Bukhara ", "shortName": "Bukhara", "municipalityName": "Bukhara", "location": {"lat": 39.775, "lon": 64.4833}, "countryCode": "UZ"}, "averageDailyFlights": 0.43, "operators": [{"name": "Uzbekistan Airways", "iata": "HY", "icao": "UZB"}, {"name": "Taban Airlines", "iata": "HH", "icao": "TBN"}]}, {"destination": {"icao": "USHH", "iata": "HMA", "localCode": "\u0425\u0410\u0421", "name": "Khanty-Mansiysk Khanty Mansiysk", "shortName": "Khanty Mansiysk", "municipalityName": "Khanty-Mansiysk", "location": {"lat": 61.0285, "lon": 69.0861}, "countryCode": "RU"}, "averageDailyFlights": 0.43, "operators": [{"name": "RusLine", "iata": "7R", "icao": "RLU"}]}, {"destination": {"icao": "ULAM", "iata": "NNM", "localCode": "\u041d\u041d\u0420", "name": "Naryan Mar ", "shortName": "Naryan Mar", "municipalityName": "Naryan Mar", "location": {"lat": 67.64, "lon": 53.1219}, "countryCode": "RU"}, "averageDailyFlights": 0.43, "operators": [{"name": "RusLine", "iata": "7R", "icao": "RLU"}]}, {"destination": {"icao": "UOOO", "iata": "NSK", "localCode": "\u041d\u0410\u041a", "name": "Norilsk Alykel", "shortName": "Alykel", "municipalityName": "Norilsk", "location": {"lat": 69.3111, "lon": 87.3322}, "countryCode": "RU"}, "averageDailyFlights": 0.43, "operators": [{"name": "NordStar Airlines", "iata": "Y7", "icao": "TYA"}]}, {"destination": {"icao": "UUOT", "iata": "TBW", "localCode": "\u0422\u041c\u0411", "name": "Tambov Donskoye", "shortName": "Donskoye", "municipalityName": "Tambov", "location": {"lat": 52.8061, "lon": 41.4828}, "countryCode": "RU"}, "averageDailyFlights": 0.43, "operators": [{"name": "RusLine", "iata": "7R", "icao": "RLU"}]}, {"destination": {"icao": "UTFF", "iata": "FEG", "localCode": "\u0424\u0413\u041d", "name": "Fergana ", "shortName": "Fergana", "municipalityName": "Fergana", "location": {"lat": 40.3588, "lon": 71.745}, "countryCode": "UZ"}, "averageDailyFlights": 0.29, "operators": [{"name": "Uzbekistan Airways", "iata": "HY", "icao": "UZB"}]}, {"destination": {"icao": "ULKK", "iata": "KSZ", "localCode": "\u041a\u0422\u0421", "name": "Kotlas ", "shortName": "Kotlas", "municipalityName": "Kotlas", "location": {"lat": 61.2358, "lon": 46.6975}, "countryCode": "RU"}, "averageDailyFlights": 0.29, "operators": [{"name": "RusLine", "iata": "7R", "icao": "RLU"}]}, {"destination": {"icao": "USUU", "iata": "KRO", "localCode": "\u041a\u0413\u041d", "name": "Kurgan ", "shortName": "Kurgan", "municipalityName": "Kurgan", "location": {"lat": 55.4753, "lon": 65.4156}, "countryCode": "RU"}, "averageDailyFlights": 0.29, "operators": [{"name": "Pegas Fly", "iata": "EO", "icao": "KAR"}]}, {"destination": {"icao": "USCM", "iata": "MQF", "localCode": "\u041c\u0413\u0421", "name": "Magnitogorsk ", "shortName": "Magnitogorsk", "municipalityName": "Magnitogorsk", "location": {"lat": 53.3931, "lon": 58.7557}, "countryCode": "RU"}, "averageDailyFlights": 0.29, "operators": [{"name": "Pegas Fly", "iata": "EO", "icao": "KAR"}, {"name": "Nordwind Airlines", "iata": "N4", "icao": "NWS"}]}, {"destination": {"icao": "USMM", "iata": "NYM", "localCode": "\u041d\u0414\u041c", "name": "Nadym ", "shortName": "Nadym", "municipalityName": "Nadym", "location": {"lat": 65.4809, "lon": 72.6989}, "countryCode": "RU"}, "averageDailyFlights": 0.29, "operators": [{"name": "Yamal Airlines", "iata": "YC", "icao": "LLM"}]}, {"destination": {"icao": "USRO", "iata": "NOJ", "localCode": "\u041d\u041e\u042f", "name": "Noyabrsk ", "shortName": "Noyabrsk", "municipalityName": "Noyabrsk", "location": {"lat": 63.1833, "lon": 75.27}, "countryCode": "RU"}, "averageDailyFlights": 0.29, "operators": [{"name": "Yamal Airlines", "iata": "YC", "icao": "LLM"}]}, {"destination": {"icao": "UWOR", "iata": "OSW", "localCode": "\u041e\u0421\u041a", "name": "Orsk ", "shortName": "Orsk", "municipalityName": "Orsk", "location": {"lat": 51.0725, "lon": 58.5956}, "countryCode": "RU"}, "averageDailyFlights": 0.29, "operators": [{"name": "Pegas Fly", "iata": "EO", "icao": "KAR"}]}, {"destination": {"icao": "UTST", "iata": "TMJ", "localCode": "\u0422\u041c\u0417", "name": "Termez ", "shortName": "Termez", "municipalityName": "Termez", "location": {"lat": 37.2867, "lon": 67.31}, "countryCode": "UZ"}, "averageDailyFlights": 0.29, "operators": [{"name": "Uzbekistan Airways", "iata": "HY", "icao": "UZB"}]}, {"destination": {"icao": "ULWW", "iata": "VGD", "localCode": "\u0412\u0413\u0414", "name": "Vologda ", "shortName": "Vologda", "municipalityName": "Vologda", "location": {"lat": 59.2825, "lon": 39.9444}, "countryCode": "RU"}, "averageDailyFlights": 0.29, "operators": [{"name": "Vologda Air Company"}]}, {"destination": {"icao": "UEEE", "iata": "YKS", "localCode": "\u042f\u041a\u0422", "name": "Yakutsk ", "shortName": "Yakutsk", "municipalityName": "Yakutsk", "location": {"lat": 62.0933, "lon": 129.771}, "countryCode": "RU"}, "averageDailyFlights": 0.29, "operators": [{"name": "Yakutia", "iata": "R3", "icao": "SYL"}]}, {"destination": {"name": "Tobolsk"}, "averageDailyFlights": 0.29, "operators": [{"name": "UVT Aero", "iata": "RT", "icao": "UVT"}]}, {"destination": {"icao": "UNAA", "iata": "ABA", "localCode": "\u0410\u0411\u041d", "name": "Abakan ", "shortName": "Abakan", "municipalityName": "Abakan", "location": {"lat": 53.74, "lon": 91.385}, "countryCode": "RU"}, "averageDailyFlights": 0.14, "operators": [{"name": "NordStar Airlines", "iata": "Y7", "icao": "TYA"}]}, {"destination": {"icao": "UGKO", "iata": "KUT", "name": "Kutaisi Kopitnari", "shortName": "Kopitnari", "municipalityName": "Kutaisi", "location": {"lat": 42.1767, "lon": 42.4826}, "countryCode": "GE"}, "averageDailyFlights": 0.14, "operators": [{"name": "Red Wings", "iata": "WZ", "icao": "RWZ"}]}, {"destination": {"icao": "URMS", "iata": "IGT", "localCode": "\u0418\u041d\u0428", "name": "Magas ", "shortName": "Magas", "municipalityName": "Magas", "location": {"lat": 43.3223, "lon": 45.0126}, "countryCode": "RU"}, "averageDailyFlights": 0.14, "operators": [{"name": "Red Wings", "iata": "WZ", "icao": "RWZ"}]}, {"destination": {"icao": "UTFN", "iata": "NMA", "localCode": "\u041d\u041c\u0413", "name": "Namangan ", "shortName": "Namangan", "municipalityName": "Namangan", "location": {"lat": 40.9846, "lon": 71.5567}, "countryCode": "UZ"}, "averageDailyFlights": 0.14, "operators": [{"name": "Uzbekistan Airways", "iata": "HY", "icao": "UZB"}]}, {"destination": {"icao": "ULLI", "iata": "LED", "localCode": "\u041f\u041b\u041a", "name": "Saint-Petersburg Pulkovo", "shortName": "Pulkovo", "municipalityName": "Saint-Petersburg", "location": {"lat": 59.8003, "lon": 30.2625}, "countryCode": "RU"}, "averageDailyFlights": 0.14, "operators": [{"name": "Rossiya Airlines", "iata": "FV", "icao": "SDM"}]}]}