{"routes": [{"destination": {"icao": "USSS", "iata": "SVX", "localCode": "\u041a\u041b\u0426", "name": "Ekaterinburg Koltsovo", "shortName": "Koltsovo", "municipalityName": "Ekaterinburg", "location": {"lat": 56.7431, "lon": 60.8027}, "countryCode": "RU"}, "averageDailyFlights": 7.57, "operators": [{"name": "Ural Airlines", "iata": "U6", "icao": "SVR"}]}, {"destination": {"icao": "URSS", "iata": "AER", "localCode": "\u0421\u041e\u0427", "name": "Sochi ", "shortName": "Sochi", "municipalityName": "Sochi", "location": {"lat": 43.4499, "lon": 39.9566}, "countryCode": "RU"}, "averageDailyFlights": 5.93, "operators": [{"name": "NordStar Airlines", "iata": "Y7", "icao": "TYA"}, {"name": "Ural Airlines", "iata": "U6", "icao": "SVR"}, {"name": "S7 Airlines", "iata": "S7", "icao": "SBI"}]}, {"destination": {"icao": "UNNT", "iata": "OVB", "localCode": "\u0422\u041b\u0427", "name": "Novosibirsk Tolmachevo", "shortName": "Tolmachevo", "municipalityName": "Novosibirsk", "location": {"lat": 55.0126, "lon": 82.6507}, "countryCode": "RU"}, "averageDailyFlights": 5.86, "operators": [{"name": "S7 Airlines", "iata": "S7", "icao": "SBI"}]}, {"destination": {"icao": "ULLI", "iata": "LED", "localCode": "\u041f\u041b\u041a", "name": "Saint-Petersburg Pulkovo", "shortName": "Pulkovo", "municipalityName": "Saint-Petersburg", "location": {"lat": 59.8003, "lon": 30.2625}, "countryCode": "RU"}, "averageDailyFlights": 5.86, "operators": [{"name": "S7 Airlines", "iata": "S7", "icao": "SBI"}, {"name": "Rossiya Airlines", "iata": "FV", "icao": "SDM"}]}, {"destination": {"icao": "UMKK", "iata": "KGD", "localCode": "\u041a\u041b\u0414", "name": "Kaliningrad Khrabrovo", "shortName": "Khrabrovo", "municipalityName": "Kaliningrad", "location": {"lat": 54.89, "lon": 20.5926}, "countryCode": "RU"}, "averageDailyFlights": 4.57, "operators": [{"name": "Ural Airlines", "iata": "U6", "icao": "SVR"}, {"name": "S7 Airlines", "iata": "S7", "icao": "SBI"}, {"name": "Red Wings", "iata": "WZ", "icao": "RWZ"}]}, {"destination": {"icao": "UWUU", "iata": "UFA", "localCode": "\u0423\u0424\u0410", "name": "Ufa ", "shortName": "Ufa", "municipalityName": "Ufa", "location": {"lat": 54.5575, "lon": 55.8744}, "countryCode": "RU"}, "averageDailyFlights": 3.71, "operators": [{"name": "S7 Airlines", "iata": "S7", "icao": "SBI"}, {"name": "NordStar Airlines", "iata": "Y7", "icao": "TYA"}]}, {"destination": {"icao": "OMDB", "iata": "DXB", "name": "Dubai ", "shortName": "Dubai", "municipalityName": "Dubai", "location": {"lat": 25.252798, "lon": 55.3644}, "countryCode": "AE"}, "averageDailyFlights": 3.57, "operators": [{"name": "Emirates", "iata": "EK", "icao": "UAE"}, {"name": "Aeroflot", "iata": "SU", "icao": "AFL"}]}, {"destination": {"icao": "USII", "iata": "IJK", "localCode": "\u0418\u0416\u0412", "name": "Izhevsk ", "shortName": "Izhevsk", "municipalityName": "Izhevsk", "location": {"lat": 56.8281, "lon": 53.4575}, "countryCode": "RU"}, "averageDailyFlights": 3.43, "operators": [{"name": "Izhavia", "iata": "I8", "icao": "IZA"}]}, {"destination": {"icao": "UIII", "iata": "IKT", "localCode": "\u0418\u041a\u0422", "name": "Irkutsk ", "shortName": "Irkutsk", "municipalityName": "Irkutsk", "location": {"lat": 52.268, "lon": 104.389}, "countryCode": "RU"}, "averageDailyFlights": 3.0, "operators": [{"name": "S7 Airlines", "iata": "S7", "icao": "SBI"}, {"name": "Ural Airlines", "iata": "U6", "icao": "SVR"}]}, {"destination": {"icao": "UNOO", "iata": "OMS", "localCode": "\u041e\u041c\u0421", "name": "Omsk Central", "shortName": "Central", "municipalityName": "Omsk", "location": {"lat": 54.967, "lon": 73.3105}, "countryCode": "RU"}, "averageDailyFlights": 3.0, "operators": [{"name": "S7 Airlines", "iata": "S7", "icao": "SBI"}, {"name": "Ural Airlines", "iata": "U6", "icao": "SVR"}]}, {"destination": {"icao": "UBBB", "iata": "GYD", "localCode": "\u0411\u0410\u041a", "name": "Baku Heydar Aliyev", "shortName": "Heydar Aliyev", "municipalityName": "Baku", "location": {"lat": 40.4675, "lon": 50.0467}, "countryCode": "AZ"}, "averageDailyFlights": 2.86, "operators": [{"name": "AZAL Azerbaijan Airlines", "iata": "J2", "icao": "AHY"}, {"name": "IrAero", "iata": "IO", "icao": "IAE"}]}, {"destination": {"icao": "UCFO", "iata": "OSS", "localCode": "\u041e\u0428\u0428", "name": "Osh ", "shortName": "Osh", "municipalityName": "Osh", "location": {"lat": 40.609, "lon": 72.7933}, "countryCode": "KG"}, "averageDailyFlights": 2.71, "operators": [{"name": "Avia Traffic Company", "iata": "YK", "icao": "AVJ"}, {"name": "Ural Airlines", "iata": "U6", "icao": "SVR"}]}, {"destination": {"icao": "UCFM", "iata": "FRU", "localCode": "\u0411\u0418\u0428", "name": "Bishkek Manas", "shortName": "Manas", "municipalityName": "Bishkek", "location": {"lat": 43.0613, "lon": 74.4776}, "countryCode": "KG"}, "averageDailyFlights": 2.57, "operators": [{"name": "Avia Traffic Company", "iata": "YK", "icao": "AVJ"}, {"name": "Ural Airlines", "iata": "U6", "icao": "SVR"}]}, {"destination": {"icao": "URMM", "iata": "MRV", "localCode": "\u041c\u0420\u0412", "name": "Mineralnyye Vody ", "shortName": "Mineralnyye Vody", "municipalityName": "Mineralnyye Vody", "location": {"lat": 44.2251, "lon": 43.0819}, "countryCode": "RU"}, "averageDailyFlights": 2.46, "operators": [{"name": "Ural Airlines", "iata": "U6", "icao": "SVR"}, {"name": "S7 Airlines", "iata": "S7", "icao": "SBI"}, {"name": "NordStar Airlines", "iata": "Y7", "icao": "TYA"}]}, {"destination": {"icao": "UWKD", "iata": "KZN", "name": "Kazan ", "shortName": "Kazan", "municipalityName": "Kazan", "location": {"lat": 55.6062, "lon": 49.2787}, "countryCode": "RU"}, "averageDailyFlights": 2.29, "operators": [{"name": "S7 Airlines", "iata": "S7", "icao": "SBI"}]}, {"destination": {"icao": "UMMS", "iata": "MSQ", "localCode": "\u041c\u0418\u041a", "name": "Minsk National", "shortName": "National", "municipalityName": "Minsk", "location": {"lat": 53.8825, "lon": 28.0307}, "countryCode": "BY"}, "averageDailyFlights": 2.29, "operators": [{"name": "Belavia", "iata": "B2", "icao": "BRU"}]}, {"destination": {"icao": "USMU", "iata": "NUX", "localCode": "\u041d\u0423\u0420", "name": "Novyy Urengoy Novy Urengoy", "shortName": "Novy Urengoy", "municipalityName": "Novyy Urengoy", "location": {"lat": 66.0694, "lon": 76.5203}, "countryCode": "RU"}, "averageDailyFlights": 2.29, "operators": [{"name": "S7 Airlines", "iata": "S7", "icao": "SBI"}, {"name": "Yamal Airlines", "iata": "YC", "icao": "LLM"}]}, {"destination": {"icao": "UIUU", "iata": "UUD", "localCode": "\u0423\u041b\u042d", "name": "Ulan-Ude Mukhino", "shortName": "Mukhino", "municipalityName": "Ulan-Ude", "location": {"lat": 51.8078, "lon": 107.438}, "countryCode": "RU"}, "averageDailyFlights": 2.29, "operators": [{"name": "S7 Airlines", "iata": "S7", "icao": "SBI"}]}, {"destination": {"icao": "URMO", "iata": "OGZ", "localCode": "\u0412\u041b\u0410", "name": "Vladikavkaz Beslan", "shortName": "Beslan", "municipalityName": "Vladikavkaz", "location": {"lat": 43.2051, "lon": 44.6066}, "countryCode": "RU"}, "averageDailyFlights": 2.29, "operators": [{"name": "Ural Airlines", "iata": "U6", "icao": "SVR"}, {"name": "S7 Airlines", "iata": "S7", "icao": "SBI"}]}, {"destination": {"icao": "URWW", "iata": "VOG", "localCode": "\u0412\u0413\u0413", "name": "Volgograd ", "shortName": "Volgograd", "municipalityName": "Volgograd", "location": {"lat": 48.7825, "lon": 44.3455}, "countryCode": "RU"}, "averageDailyFlights": 2.29, "operators": [{"name": "S7 Airlines", "iata": "S7", "icao": "SBI"}]}, {"destination": {"icao": "UDYZ", "iata": "EVN", "localCode": "\u0417\u0412\u0420", "name": "Yerevan Zvartnots", "shortName": "Zvartnots", "municipalityName": "Yerevan", "location": {"lat": 40.1473, "lon": 44.3959}, "countryCode": "AM"}, "averageDailyFlights": 2.29, "operators": [{"name": "Ural Airlines", "iata": "U6", "icao": "SVR"}, {"name": "FlyOne Armenia", "iata": "3F", "icao": "FIE"}]}, {"destination": {"name": "Istanbul"}, "averageDailyFlights": 2.29, "operators": [{"name": "Ural Airlines", "iata": "U6", "icao": "SVR"}, {"name": "S7 Airlines", "iata": "S7", "icao": "SBI"}]}, {"destination": {"icao": "UOOO", "iata": "NSK", "localCode": "\u041d\u0410\u041a", "name": "Norilsk Alykel", "shortName": "Alykel", "municipalityName": "Norilsk", "location": {"lat": 69.3111, "lon": 87.3322}, "countryCode": "RU"}, "averageDailyFlights": 2.21, "operators": [{"name": "S7 Airlines", "iata": "S7", "icao": "SBI"}, {"name": "NordStar Airlines", "iata": "Y7", "icao": "TYA"}]}, {"destination": {"icao": "UTTT", "iata": "TAS", "localCode": "\u0422\u0410\u0421", "name": "Tashkent ", "shortName": "Tashkent", "municipalityName": "Tashkent", "location": {"lat": 41.2579, "lon": 69.2812}, "countryCode": "UZ"}, "averageDailyFlights": 2.14, "operators": [{"name": "Uzbekistan Airways", "iata": "HY", "icao": "UZB"}]}, {"destination": {"name": "Antalya"}, "averageDailyFlights": 2.14, "operators": [{"name": "S7 Airlines", "iata": "S7", "icao": "SBI"}, {"name": "Ural Airlines", "iata": "U6", "icao": "SVR"}, {"name": "IrAero", "iata": "IO", "icao": "IAE"}]}, {"destination": {"icao": "UIAA", "iata": "HTA", "localCode": "\u0421\u0425\u0422", "name": "Chita Kadala", "shortName": "Kadala", "municipalityName": "Chita", "location": {"lat": 52.0263, "lon": 113.306}, "countryCode": "RU"}, "averageDailyFlights": 1.86, "operators": [{"name": "S7 Airlines", "iata": "S7", "icao": "SBI"}, {"name": "Ural Airlines", "iata": "U6", "icao": "SVR"}]}, {"destination": {"icao": "URML", "iata": "MCX", "localCode": "\u041c\u0425\u041b", "name": "Makhachkala Uytash", "shortName": "Uytash", "municipalityName": "Makhachkala", "location": {"lat": 42.8168, "lon": 47.6523}, "countryCode": "RU"}, "averageDailyFlights": 1.86, "operators": [{"name": "S7 Airlines", "iata": "S7", "icao": "SBI"}, {"name": "Ural Airlines", "iata": "U6", "icao": "SVR"}, {"name": "NordStar Airlines", "iata": "Y7", "icao": "TYA"}]}, {"destination": {"icao": "ULMM", "iata": "MMK", "localCode": "\u041c\u0423\u041d", "name": "Murmansk ", "shortName": "Murmansk", "municipalityName": "Murmansk", "location": {"lat": 68.7817, "lon": 32.7508}, "countryCode": "RU"}, "averageDailyFlights": 1.86, "operators": [{"name": "S7 Airlines", "iata": "S7", "icao": "SBI"}]}, {"destination": {"icao": "LLBG", "iata": "TLV", "name": "Tel Aviv Yafo Ben Gurion", "shortName": "Ben Gurion", "municipalityName": "Tel Aviv Yafo", "location": {"lat": 32.0114, "lon": 34.8867}, "countryCode": "IL"}, "averageDailyFlights": 1.75, "operators": [{"name": "El Al", "iata": "LY", "icao": "ELY"}, {"name": "Red Wings", "iata": "WZ", "icao": "RWZ"}]}, {"destination": {"icao": "UNBB", "iata": "BAX", "localCode": "\u0411\u0410\u041d", "name": "Barnaul ", "shortName": "Barnaul", "municipalityName": "Barnaul", "location": {"lat": 53.3638, "lon": 83.5385}, "countryCode": "RU"}, "averageDailyFlights": 1.71, "operators": [{"name": "Ural Airlines", "iata": "U6", "icao": "SVR"}, {"name": "S7 Airlines", "iata": "S7", "icao": "SBI"}]}, {"destination": {"icao": "OMDW", "iata": "DWC", "name": "Jebel Ali Al Maktoum", "shortName": "Al Maktoum", "municipalityName": "Jebel Ali", "location": {"lat": 24.896666, "lon": 55.16139}, "countryCode": "AE"}, "averageDailyFlights": 1.71, "operators": [{"name": "Ural Airlines", "iata": "U6", "icao": "SVR"}, {"name": "S7 Airlines", "iata": "S7", "icao": "SBI"}]}, {"destination": {"name": "Cairo"}, "averageDailyFlights": 1.43, "operators": [{"name": "EgyptAir", "iata": "MS", "icao": "MSR"}]}, {"destination": {"icao": "UWWW", "iata": "KUF", "localCode": "\u0421\u041a\u0427", "name": "Samara Kurumoch", "shortName": "Kurumoch", "municipalityName": "Samara", "location": {"lat": 53.5049, "lon": 50.1643}, "countryCode": "RU"}, "averageDailyFlights": 1.29, "operators": [{"name": "S7 Airlines", "iata": "S7", "icao": "SBI"}, {"name": "Ural Airlines", "iata": "U6", "icao": "SVR"}]}, {"destination": {"icao": "UHBB", "iata": "BQS", "localCode": "\u0411\u0413\u0429", "name": "Blagoveschensk Ignatyevo", "shortName": "Ignatyevo", "municipalityName": "Blagoveschensk", "location": {"lat": 50.4254, "lon": 127.412}, "countryCode": "RU"}, "averageDailyFlights": 1.14, "operators": [{"name": "S7 Airlines", "iata": "S7", "icao": "SBI"}]}, {"destination": {"icao": "URMG", "iata": "GRV", "localCode": "\u0413\u0420\u041d", "name": "Grozny North", "shortName": "North", "municipalityName": "Grozny", "location": {"lat": 43.3883, "lon": 45.6986}, "countryCode": "RU"}, "averageDailyFlights": 1.14, "operators": [{"name": "Ural Airlines", "iata": "U6", "icao": "SVR"}]}, {"destination": {"icao": "USUU", "iata": "KRO", "localCode": "\u041a\u0413\u041d", "name": "Kurgan ", "shortName": "Kurgan", "municipalityName": "Kurgan", "location": {"lat": 55.4753, "lon": 65.4156}, "countryCode": "RU"}, "averageDailyFlights": 1.14, "operators": [{"name": "NordStar Airlines", "iata": "Y7", "icao": "TYA"}]}, {"destination": {"icao": "UWPP", "iata": "PEZ", "localCode": "\u041f\u041d\u0410", "name": "Penza ", "shortName": "Penza", "municipalityName": "Penza", "location": {"lat": 53.1106, "lon": 45.0211}, "countryCode": "RU"}, "averageDailyFlights": 1.14, "operators": [{"name": "S7 Airlines", "iata": "S7", "icao": "SBI"}]}, {"destination": {"icao": "ULPB", "iata": "PES", "localCode": "\u041f\u0422\u0411", "name": "Petrozavodsk ", "shortName": "Petrozavodsk", "municipalityName": "Petrozavodsk", "location": {"lat": 61.8852, "lon": 34.1547}, "countryCode": "RU"}, "averageDailyFlights": 1.14, "operators": [{"name": "Severstal Aircompany", "iata": "D2", "icao": "SSF"}]}, {"destination": {"icao": "USDD", "iata": "SLY", "localCode": "\u0421\u0425\u0414", "name": "Salekhard ", "shortName": "Salekhard", "municipalityName": "Salekhard", "location": {"lat": 66.5908, "lon": 66.611}, "countryCode": "RU"}, "averageDailyFlights": 1.14, "operators": [{"name": "Yamal Airlines", "iata": "YC", "icao": "LLM"}]}, {"destination": {"icao": "UWSG", "iata": "GSV", "localCode": "\u0413\u0421\u0412", "name": "Saratov Gagarin International", "shortName": "Gagarin International", "municipalityName": "Saratov", "location": {"lat": 51.71811, "lon": 46.169918}, "countryCode": "RU"}, "averageDailyFlights": 1.14, "operators": [{"name": "S7 Airlines", "iata": "S7", "icao": "SBI"}]}, {"destination": {"icao": "UNTT", "iata": "TOF", "localCode": "\u0422\u0421\u041a", "name": "Tomsk Bogashevo", "shortName": "Bogashevo", "municipalityName": "Tomsk", "location": {"lat": 56.3803, "lon": 85.2083}, "countryCode": "RU"}, "averageDailyFlights": 1.14, "operators": [{"name": "S7 Airlines", "iata": "S7", "icao": "SBI"}]}, {"destination": {"icao": "UTAA", "iata": "ASB", "localCode": "\u0410\u0428\u0425", "name": "Ashgabat ", "shortName": "Ashgabat", "municipalityName": "Ashgabat", "location": {"lat": 37.9868, "lon": 58.361}, "countryCode": "TM"}, "averageDailyFlights": 1.0, "operators": [{"name": "S7 Airlines", "iata": "S7", "icao": "SBI"}, {"name": "Turkmenistan Airlines", "iata": "T5", "icao": "TUA"}]}, {"destination": {"icao": "UTDD", "iata": "DYU", "localCode": "\u0414\u0428\u0411", "name": "Dushanbe ", "shortName": "Dushanbe", "municipalityName": "Dushanbe", "location": {"lat": 38.5433, "lon": 68.825}, "countryCode": "TJ"}, "averageDailyFlights": 1.0, "operators": [{"name": "Somon Air", "iata": "SZ", "icao": "SMR"}]}, {"destination": {"icao": "UTDK", "iata": "TJU", "name": "Kulyab Kulob", "shortName": "Kulob", "municipalityName": "Kulyab", "location": {"lat": 37.9881, "lon": 69.805}, "countryCode": "TJ"}, "averageDailyFlights": 1.0, "operators": [{"name": "Ural Airlines", "iata": "U6", "icao": "SVR"}]}, {"destination": {"icao": "UNWW", "iata": "NOZ", "localCode": "\u041d\u0412\u041a", "name": "Novokuznetsk Spichenkovo", "shortName": "Spichenkovo", "municipalityName": "Novokuznetsk", "location": {"lat": 53.8114, "lon": 86.8772}, "countryCode": "RU"}, "averageDailyFlights": 1.0, "operators": [{"name": "S7 Airlines", "iata": "S7", "icao": "SBI"}]}, {"destination": {"icao": "UEEE", "iata": "YKS", "localCode": "\u042f\u041a\u0422", "name": "Yakutsk ", "shortName": "Yakutsk", "municipalityName": "Yakutsk", "location": {"lat": 62.0933, "lon": 129.771}, "countryCode": "RU"}, "averageDailyFlights": 1.0, "operators": [{"name": "S7 Airlines", "iata": "S7", "icao": "SBI"}]}, {"destination": {"name": "Bahrain"}, "averageDailyFlights": 1.0, "operators": [{"name": "Gulf Air", "iata": "GF", "icao": "GFA"}]}, {"destination": {"name": "Sabetta"}, "averageDailyFlights": 1.0, "operators": [{"name": "Severo-Zapad"}]}, {"destination": {"icao": "ULWC", "iata": "CEE", "localCode": "\u0427\u0420\u0412", "name": "Cherepovets ", "shortName": "Cherepovets", "municipalityName": "Cherepovets", "location": {"lat": 59.2736, "lon": 38.0158}, "countryCode": "RU"}, "averageDailyFlights": 0.86, "operators": [{"name": "Severstal Aircompany", "iata": "D2", "icao": "SSF"}]}, {"destination": {"icao": "UNAA", "iata": "ABA", "localCode": "\u0410\u0411\u041d", "name": "Abakan ", "shortName": "Abakan", "municipalityName": "Abakan", "location": {"lat": 53.74, "lon": 91.385}, "countryCode": "RU"}, "averageDailyFlights": 0.71, "operators": [{"name": "S7 Airlines", "iata": "S7", "icao": "SBI"}]}, {"destination": {"icao": "GMMN", "iata": "CMN", "name": "Casablanca Mohammed V", "shortName": "Mohammed V", "municipalityName": "Casablanca", "location": {"lat": 33.3675, "lon": -7.58997}, "countryCode": "MA"}, "averageDailyFlights": 0.71, "operators": [{"name": "Royal Air Maroc", "iata": "AT", "icao": "RAM"}]}, {"destination": {"icao": "USMM", "iata": "NYM", "localCode": "\u041d\u0414\u041c", "name": "Nadym ", "shortName": "Nadym", "municipalityName": "Nadym", "location": {"lat": 65.4809, "lon": 72.6989}, "countryCode": "RU"}, "averageDailyFlights": 0.71, "operators": [{"name": "Yamal Airlines", "iata": "YC", "icao": "LLM"}]}, {"destination": {"icao": "UELL", "iata": "NER", "localCode": "\u041d\u0420\u0413", "name": "Neryungri Chulman", "shortName": "Chulman", "municipalityName": "Neryungri", "location": {"lat": 56.9139, "lon": 124.914}, "countryCode": "RU"}, "averageDailyFlights": 0.71, "operators": [{"name": "S7 Airlines", "iata": "S7", "icao": "SBI"}]}, {"destination": {"icao": "UTNU", "iata": "UGC", "localCode": "\u0423\u0413\u041d", "name": "Urgench ", "shortName": "Urgench", "municipalityName": "Urgench", "location": {"lat": 41.5843, "lon": 60.6417}, "countryCode": "UZ"}, "averageDailyFlights": 0.71, "operators": [{"name": "S7 Airlines", "iata": "S7", "icao": "SBI"}]}, {"destination": {"icao": "UNBG", "iata": "RGK", "localCode": "\u0413\u041e\u0420", "name": "Gorno-Altaysk ", "shortName": "Gorno-Altaysk", "municipalityName": "Gorno-Altaysk", "location": {"lat": 51.9667, "lon": 85.8333}, "countryCode": "RU"}, "averageDailyFlights": 0.64, "operators": [{"name": "S7 Airlines", "iata": "S7", "icao": "SBI"}]}, {"destination": {"icao": "OMAA", "iata": "AUH", "name": "Abu Dhabi Island and Internal Islands City Abu Dhabi", "shortName": "Abu Dhabi", "municipalityName": "Abu Dhabi Island and Internal Islands City", "location": {"lat": 24.433, "lon": 54.6511}, "countryCode": "AE"}, "averageDailyFlights": 0.57, "operators": [{"name": "Air Arabia Abu Dhabi", "iata": "3L", "icao": "ADY"}]}, {"destination": {"icao": "UIBB", "iata": "BTK", "localCode": "\u0411\u0420\u0421", "name": "Bratsk ", "shortName": "Bratsk", "municipalityName": "Bratsk", "location": {"lat": 56.3706, "lon": 101.698}, "countryCode": "RU"}, "averageDailyFlights": 0.57, "operators": [{"name": "S7 Airlines", "iata": "S7", "icao": "SBI"}]}, {"destination": {"icao": "UTDL", "iata": "LBD", "localCode": "\u0425\u0414\u0422", "name": "Khudzhand ", "shortName": "Khudzhand", "municipalityName": "Khudzhand", "location": {"lat": 40.2154, "lon": 69.6947}, "countryCode": "TJ"}, "averageDailyFlights": 0.57, "operators": [{"name": "Somon Air", "iata": "SZ", "icao": "SMR"}, {"name": "Ural Airlines", "iata": "U6", "icao": "SVR"}]}, {"destination": {"icao": "UNKL", "iata": "KJA", "localCode": "\u041a\u042f\u0410", "name": "Krasnoyarsk Yemelyanovo", "shortName": "Yemelyanovo", "municipalityName": "Krasnoyarsk", "location": {"lat": 56.1729, "lon": 92.4933}, "countryCode": "RU"}, "averageDailyFlights": 0.57, "operators": [{"name": "NordStar Airlines", "iata": "Y7", "icao": "TYA"}]}, {"destination": {"icao": "UNKY", "iata": "KYZ", "localCode": "\u041a\u042b\u042b", "name": "Kyzyl ", "shortName": "Kyzyl", "municipalityName": "Kyzyl", "location": {"lat": 51.6694, "lon": 94.4006}, "countryCode": "RU"}, "averageDailyFlights": 0.57, "operators": [{"name": "IrAero", "iata": "IO", "icao": "IAE"}]}, {"destination": {"icao": "USRO", "iata": "NOJ", "localCode": "\u041d\u041e\u042f", "name": "Noyabrsk ", "shortName": "Noyabrsk", "municipalityName": "Noyabrsk", "location": {"lat": 63.1833, "lon": 75.27}, "countryCode": "RU"}, "averageDailyFlights": 0.57, "operators": [{"name": "Yamal Airlines", "iata": "YC", "icao": "LLM"}]}, {"destination": {"icao": "HAAB", "iata": "ADD", "name": "Addis Ababa Bole", "shortName": "Bole", "municipalityName": "Addis Ababa", "location": {"lat": 8.97789, "lon": 38.7993}, "countryCode": "ET"}, "averageDailyFlights": 0.43, "operators": [{"name": "Ethiopian Airlines", "iata": "ET", "icao": "ETH"}]}, {"destination": {"name": "Sharm El Sheikh"}, "averageDailyFlights": 0.43, "operators": [{"name": "Ural Airlines", "iata": "U6", "icao": "SVR"}]}, {"destination": {"icao": "UGSB", "iata": "BUS", "name": "Batumi ", "shortName": "Batumi", "municipalityName": "Batumi", "location": {"lat": 41.6103, "lon": 41.5997}, "countryCode": "GE"}, "averageDailyFlights": 0.29, "operators": [{"name": "Red Wings", "iata": "WZ", "icao": "RWZ"}]}, {"destination": {"icao": "UTSK", "iata": "KSQ", "localCode": "\u041a\u0420\u0428", "name": "Khanabad Karshi", "shortName": "Karshi", "municipalityName": "Khanabad", "location": {"lat": 38.8336, "lon": 65.9215}, "countryCode": "UZ"}, "averageDailyFlights": 0.29, "operators": [{"name": "Ural Airlines", "iata": "U6", "icao": "SVR"}]}, {"destination": {"icao": "OKBK", "iata": "KWI", "name": "Kuwait City Kuwait", "shortName": "Kuwait", "municipalityName": "Kuwait City", "location": {"lat": 29.2266, "lon": 47.9689}, "countryCode": "KW"}, "averageDailyFlights": 0.29, "operators": [{"name": "Jazeera Airways", "iata": "J9", "icao": "JZR"}]}, {"destination": {"name": "Kutaisi"}, "averageDailyFlights": 0.29, "operators": [{"name": "Red Wings", "iata": "WZ", "icao": "RWZ"}]}, {"destination": {"icao": "USCC", "iata": "CEK", "localCode": "\u0427\u041b\u0411", "name": "Chelyabinsk Balandino", "shortName": "Balandino", "municipalityName": "Chelyabinsk", "location": {"lat": 55.3058, "lon": 61.5033}, "countryCode": "RU"}, "averageDailyFlights": 0.14, "operators": [{"name": "Ural Airlines", "iata": "U6", "icao": "SVR"}]}, {"destination": {"icao": "UBBL", "iata": "LLK", "localCode": "\u041b\u041d\u0420", "name": "Lankaran ", "shortName": "Lankaran", "municipalityName": "Lankaran", "location": {"lat": 38.7464, "lon": 48.818}, "countryCode": "AZ"}, "averageDailyFlights": 0.14, "operators": [{"name": "IrAero", "iata": "IO", "icao": "IAE"}]}, {"destination": {"icao": "OBBI", "iata": "BAH", "name": "Manama Bahrain", "shortName": "Bahrain", "municipalityName": "Manama", "location": {"lat": 26.2708, "lon": 50.6336}, "countryCode": "BH"}, "averageDailyFlights": 0.14, "operators": [{"name": "Gulf Air", "iata": "GF", "icao": "GFA"}]}, {"destination": {"icao": "UTFN", "iata": "NMA", "localCode": "\u041d\u041c\u0413", "name": "Namangan ", "shortName": "Namangan", "municipalityName": "Namangan", "location": {"lat": 40.9846, "lon": 71.5567}, "countryCode": "UZ"}, "averageDailyFlights": 0.14, "operators": [{"name": "Ural Airlines", "iata": "U6", "icao": "SVR"}]}, {"destination": {"icao": "UTNN", "iata": "NCU", "localCode": "\u041d\u0423\u0421", "name": "Nukus ", "shortName": "Nukus", "municipalityName": "Nukus", "location": {"lat": 42.4884, "lon": 59.6233}, "countryCode": "UZ"}, "averageDailyFlights": 0.14, "operators": [{"name": "Ural Airlines", "iata": "U6", "icao": "SVR"}]}, {"destination": {"icao": "URMT", "iata": "STW", "localCode": "\u0421\u0422\u0412", "name": "Stavropol Shpakovskoye", "shortName": "Shpakovskoye", "municipalityName": "Stavropol", "location": {"lat": 45.1092, "lon": 42.1128}, "countryCode": "RU"}, "averageDailyFlights": 0.14, "operators": [{"name": "Red Wings", "iata": "WZ", "icao": "RWZ"}]}, {"destination": {"name": "Apatity"}, "averageDailyFlights": 0.14, "operators": [{"name": "S7 Airlines", "iata": "S7", "icao": "SBI"}]}, {"destination": {"name": "Ganja"}, "averageDailyFlights": 0.14, "operators": [{"name": "IrAero", "iata": "IO", "icao": "IAE"}]}, {"destination": {"name": "Karshi"}, "averageDailyFlights": 0.14, "operators": [{"name": "Ural Airlines", "iata": "U6", "icao": "SVR"}]}, {"destination": {"name": "Khanty-Mansiysk"}, "averageDailyFlights": 0.14, "operators": [{"name": "Ural Airlines", "iata": "U6", "icao": "SVR"}]}, {"destination": {"name": "Sharjah"}, "averageDailyFlights": 0.14, "operators": [{"name": "Air Arabia", "iata": "G9", "icao": "ABY"}]}, {"destination": {"name": "Ust-Kamenogorsk"}, "averageDailyFlights": 0.14, "operators": [{"name": "S7 Airlines", "iata": "S7", "icao": "SBI"}]}, {"destination": {"name": "Yaroslavl"}, "averageDailyFlights": 0.14, "operators": [{"name": "NordStar Airlines", "iata": "Y7", "icao": "TYA"}]}]}