{"routes": [{"destination": {"name": "Dubai"}, "averageDailyFlights": 0.71, "operators": [{"name": "flydubai", "iata": "FZ", "icao": "FDB"}]}, {"destination": {"icao": "VTCC", "iata": "CNX", "name": "Chiangmai Chiang Mai", "shortName": "Chiang Mai", "municipalityName": "Chiangmai", "location": {"lat": 18.7668, "lon": 98.9626}, "countryCode": "TH"}, "averageDailyFlights": 0.57, "operators": [{"name": "Thai Lion Air", "iata": "SL", "icao": "TLM"}]}, {"destination": {"icao": "UNNT", "iata": "OVB", "localCode": "\u0422\u041b\u0427", "name": "Novosibirsk Tolmachevo", "shortName": "Tolmachevo", "municipalityName": "Novosibirsk", "location": {"lat": 55.0126, "lon": 82.6507}, "countryCode": "RU"}, "averageDailyFlights": 0.57, "operators": [{"name": "AZUR Air", "iata": "ZF", "icao": "KTK"}]}, {"destination": {"icao": "UUWW", "iata": "VKO", "localCode": "\u0412\u041d\u041a", "name": "Moscow Vnukovo", "shortName": "Vnukovo", "municipalityName": "Moscow", "location": {"lat": 55.5915, "lon": 37.2615}, "countryCode": "RU"}, "averageDailyFlights": 0.43, "operators": [{"name": "AZUR Air", "iata": "ZF", "icao": "KTK"}]}, {"destination": {"icao": "UNKL", "iata": "KJA", "localCode": "\u041a\u042f\u0410", "name": "Krasnoyarsk Yemelyanovo", "shortName": "Yemelyanovo", "municipalityName": "Krasnoyarsk", "location": {"lat": 56.1729, "lon": 92.4933}, "countryCode": "RU"}, "averageDailyFlights": 0.29, "operators": [{"name": "AZUR Air", "iata": "ZF", "icao": "KTK"}]}, {"destination": {"icao": "UHBB", "iata": "BQS", "localCode": "\u0411\u0413\u0429", "name": "Blagoveschensk Ignatyevo", "shortName": "Ignatyevo", "municipalityName": "Blagoveschensk", "location": {"lat": 50.4254, "lon": 127.412}, "countryCode": "RU"}, "averageDailyFlights": 0.14, "operators": [{"name": "AZUR Air", "iata": "ZF", "icao": "KTK"}]}, {"destination": {"icao": "USSS", "iata": "SVX", "localCode": "\u041a\u041b\u0426", "name": "Ekaterinburg Koltsovo", "shortName": "Koltsovo", "municipalityName": "Ekaterinburg", "location": {"lat": 56.7431, "lon": 60.8027}, "countryCode": "RU"}, "averageDailyFlights": 0.14, "operators": [{"name": "AZUR Air", "iata": "ZF", "icao": "KTK"}]}, {"destination": {"icao": "UNWW", "iata": "NOZ", "localCode": "\u041d\u0412\u041a", "name": "Novokuznetsk Spichenkovo", "shortName": "Spichenkovo", "municipalityName": "Novokuznetsk", "location": {"lat": 53.8114, "lon": 86.8772}, "countryCode": "RU"}, "averageDailyFlights": 0.14, "operators": [{"name": "AZUR Air", "iata": "ZF", "icao": "KTK"}]}, {"destination": {"icao": "UWWW", "iata": "KUF", "localCode": "\u0421\u041a\u0427", "name": "Samara Kurumoch", "shortName": "Kurumoch", "municipalityName": "Samara", "location": {"lat": 53.5049, "lon": 50.1643}, "countryCode": "RU"}, "averageDailyFlights": 0.14, "operators": [{"name": "AZUR Air", "iata": "ZF", "icao": "KTK"}]}, {"destination": {"icao": "UNTT", "iata": "TOF", "localCode": "\u0422\u0421\u041a", "name": "Tomsk Bogashevo", "shortName": "Bogashevo", "municipalityName": "Tomsk", "location": {"lat": 56.3803, "lon": 85.2083}, "countryCode": "RU"}, "averageDailyFlights": 0.14, "operators": [{"name": "AZUR Air", "iata": "ZF", "icao": "KTK"}]}]}