{"routes": [{"destination": {"icao": "VVNB", "iata": "HAN", "name": "Hanoi Noi Bai", "shortName": "Noi Bai", "municipalityName": "Hanoi", "location": {"lat": 21.2212, "lon": 105.807}, "countryCode": "VN"}, "averageDailyFlights": 5.29, "operators": [{"name": "Vietnam Airlines", "iata": "VN", "icao": "HVN"}, {"name": "VietJetAir", "iata": "VJ", "icao": "VJC"}]}, {"destination": {"icao": "VVTS", "iata": "SGN", "name": "Ho Chi Minh City Tan Son Nhat", "shortName": "Tan Son Nhat", "municipalityName": "Ho Chi Minh City", "location": {"lat": 10.818799, "lon": 106.652}, "countryCode": "VN"}, "averageDailyFlights": 4.71, "operators": [{"name": "Vietnam Airlines", "iata": "VN", "icao": "HVN"}, {"name": "VietJetAir", "iata": "VJ", "icao": "VJC"}]}, {"destination": {"icao": "RKSI", "iata": "ICN", "name": "Seoul Incheon", "shortName": "Incheon", "municipalityName": "Seoul", "location": {"lat": 37.4691, "lon": 126.451}, "countryCode": "KR"}, "averageDailyFlights": 1.14, "operators": [{"name": "Jeju Air", "iata": "7C", "icao": "JJA"}]}, {"destination": {"icao": "VVVH", "iata": "VII", "name": "Vinh ", "shortName": "Vinh", "municipalityName": "Vinh", "location": {"lat": 18.7376, "lon": 105.671}, "countryCode": "VN"}, "averageDailyFlights": 1.14, "operators": [{"name": "VietJetAir", "iata": "VJ", "icao": "VJC"}]}, {"destination": {"icao": "VVCI", "iata": "HPH", "name": "Haiphong Cat Bi", "shortName": "Cat Bi", "municipalityName": "Haiphong", "location": {"lat": 20.8194, "lon": 106.725}, "countryCode": "VN"}, "averageDailyFlights": 0.71, "operators": [{"name": "VietJetAir", "iata": "VJ", "icao": "VJC"}]}]}