{"routes": [{"destination": {"icao": "WIII", "iata": "CGK", "name": "Jakarta Soekarno-Hatta", "shortName": "Soekarno-Hatta", "municipalityName": "Jakarta", "location": {"lat": -6.125569, "lon": 106.656}, "countryCode": "ID"}, "averageDailyFlights": 7.71, "operators": [{"name": "Batik Air", "iata": "ID", "icao": "BTK"}, {"name": "Citilink", "iata": "QG", "icao": "CTV"}, {"name": "Garuda Indonesia", "iata": "GA", "icao": "GIA"}]}, {"destination": {"icao": "WAAA", "iata": "UPG", "name": "Ujung Pandang-Celebes Island Hasanuddin", "shortName": "Hasanuddin", "municipalityName": "Ujung Pandang-Celebes Island", "location": {"lat": -5.061629, "lon": 119.554}, "countryCode": "ID"}, "averageDailyFlights": 4.57, "operators": [{"name": "Lion Air", "iata": "JT", "icao": "LNI"}, {"name": "Citilink", "iata": "QG", "icao": "CTV"}]}, {"destination": {"icao": "WAMT", "iata": "TTE", "name": "Sango-Ternate Island Sultan Khairun Babullah", "shortName": "Sultan Khairun Babullah", "municipalityName": "Sango-Ternate Island", "location": {"lat": 0.831413, "lon": 127.381}, "countryCode": "ID"}, "averageDailyFlights": 3.29, "operators": [{"name": "Wings Air (Indonesia)", "iata": "IW", "icao": "WON"}]}, {"destination": {"icao": "WARR", "iata": "SUB", "name": "Surabaya Juanda", "shortName": "Juanda", "municipalityName": "Surabaya", "location": {"lat": -7.379829, "lon": 112.787}, "countryCode": "ID"}, "averageDailyFlights": 1.86, "operators": [{"name": "Lion Air", "iata": "JT", "icao": "LNI"}]}, {"destination": {"icao": "WALL", "iata": "BPN", "name": "Kotamadya Balikpapan Sultan Aji Muhamad Sulaiman", "shortName": "Sultan Aji Muhamad Sulaiman", "municipalityName": "Kotamadya Balikpapan", "location": {"lat": -1.26827, "lon": 116.894}, "countryCode": "ID"}, "averageDailyFlights": 1.14, "operators": [{"name": "Super Air Jet", "iata": "IU", "icao": "SJV"}]}, {"destination": {"icao": "WASS", "iata": "SOQ", "name": "Sorong-Papua Island Dominique Edward Osok", "shortName": "Dominique Edward Osok", "municipalityName": "Sorong-Papua Island", "location": {"lat": -0.894, "lon": 131.287}, "countryCode": "ID"}, "averageDailyFlights": 1.14, "operators": [{"name": "Lion Air", "iata": "JT", "icao": "LNI"}]}, {"destination": {"icao": "ZGGG", "iata": "CAN", "name": "Guangzhou Baiyun", "shortName": "Baiyun", "municipalityName": "Guangzhou", "location": {"lat": 23.3924, "lon": 113.299}, "countryCode": "CN"}, "averageDailyFlights": 0.86, "operators": [{"name": "China Southern Airlines", "iata": "CZ", "icao": "CSN"}, {"name": "Lion Air", "iata": "JT", "icao": "LNI"}]}, {"destination": {"icao": "WAPH", "iata": "LAH", "name": "Labuha-Halmahera Island Labuha", "shortName": "Labuha", "municipalityName": "Labuha-Halmahera Island", "location": {"lat": -0.635258, "lon": 127.502}, "countryCode": "ID"}, "averageDailyFlights": 0.71, "operators": [{"name": "Wings Air (Indonesia)", "iata": "IW", "icao": "WON"}]}, {"destination": {"name": "Kau"}, "averageDailyFlights": 0.71, "operators": [{"name": "Wings Air (Indonesia)", "iata": "IW", "icao": "WON"}]}, {"destination": {"name": "Singapore"}, "averageDailyFlights": 0.57, "operators": [{"name": "Scoot", "iata": "TR", "icao": "TGW"}]}, {"destination": {"icao": "ZSFZ", "iata": "FOC", "name": "Fuzhou Changle", "shortName": "Changle", "municipalityName": "Fuzhou", "location": {"lat": 25.9351, "lon": 119.663}, "countryCode": "CN"}, "averageDailyFlights": 0.43, "operators": [{"name": "Lion Air", "iata": "JT", "icao": "LNI"}]}, {"destination": {"name": "Dip-Bey"}, "averageDailyFlights": 0.43, "operators": [{"name": "Wings Air (Indonesia)", "iata": "IW", "icao": "WON"}]}, {"destination": {"icao": "WADD", "iata": "DPS", "name": "Denpasar-Bali Island Ngurah Rai (Bali)", "shortName": "Ngurah Rai (Bali)", "municipalityName": "Denpasar-Bali Island", "location": {"lat": -8.748169, "lon": 115.167}, "countryCode": "ID"}, "averageDailyFlights": 0.14, "operators": [{"name": "Garuda Indonesia", "iata": "GA", "icao": "GIA"}]}, {"destination": {"icao": "ZSNJ", "iata": "NKG", "name": "Nanjing Lukou", "shortName": "Lukou", "municipalityName": "Nanjing", "location": {"lat": 31.742, "lon": 118.862}, "countryCode": "CN"}, "averageDailyFlights": 0.14, "operators": [{"name": "Lion Air", "iata": "JT", "icao": "LNI"}]}, {"destination": {"icao": "RJAA", "iata": "NRT", "name": "Tokyo Narita", "shortName": "Narita", "municipalityName": "Tokyo", "location": {"lat": 35.7647, "lon": 140.386}, "countryCode": "JP"}, "averageDailyFlights": 0.14, "operators": [{"name": "Garuda Indonesia", "iata": "GA", "icao": "GIA"}]}, {"destination": {"name": "Kunming"}, "averageDailyFlights": 0.14, "operators": [{"name": "Citilink", "iata": "QG", "icao": "CTV"}]}, {"destination": {"name": "Maunt-Vilson"}, "averageDailyFlights": 0.14, "operators": [{"name": "Citilink", "iata": "QG", "icao": "CTV"}]}, {"destination": {"name": "Melanguan"}, "averageDailyFlights": 0.14, "operators": [{"name": "Wings Air (Indonesia)", "iata": "IW", "icao": "WON"}]}]}