{"routes": [{"destination": {"icao": "WMKK", "iata": "KUL", "name": "Kuala Lumpur ", "shortName": "Kuala Lumpur", "municipalityName": "Kuala Lumpur", "location": {"lat": 2.745579, "lon": 101.71}, "countryCode": "MY"}, "averageDailyFlights": 4.57, "operators": [{"name": "AirAsia", "iata": "AK", "icao": "AXM"}, {"name": "Malaysia Airlines", "iata": "MH", "icao": "MAS"}]}, {"destination": {"icao": "WBGG", "iata": "KCH", "name": "Kuching ", "shortName": "Kuching", "municipalityName": "Kuching", "location": {"lat": 1.484699, "lon": 110.347}, "countryCode": "MY"}, "averageDailyFlights": 4.0, "operators": [{"name": "AirAsia", "iata": "AK", "icao": "AXM"}]}, {"destination": {"icao": "WBGR", "iata": "MYY", "name": "Miri ", "shortName": "Miri", "municipalityName": "Miri", "location": {"lat": 4.32201, "lon": 113.987}, "countryCode": "MY"}, "averageDailyFlights": 1.14, "operators": [{"name": "Malaysia Airlines", "iata": "MH", "icao": "MAS"}]}, {"destination": {"icao": "WBGS", "iata": "SBW", "name": "Sibu ", "shortName": "Sibu", "municipalityName": "Sibu", "location": {"lat": 2.2616, "lon": 111.985}, "countryCode": "MY"}, "averageDailyFlights": 1.14, "operators": [{"name": "Malaysia Airlines", "iata": "MH", "icao": "MAS"}]}, {"destination": {"icao": "WBKK", "iata": "BKI", "name": "Kota Kinabalu ", "shortName": "Kota Kinabalu", "municipalityName": "Kota Kinabalu", "location": {"lat": 5.93721, "lon": 116.051}, "countryCode": "MY"}, "averageDailyFlights": 0.86, "operators": [{"name": "AirAsia", "iata": "AK", "icao": "AXM"}]}, {"destination": {"icao": "WBGK", "iata": "MKM", "name": "Mukah ", "shortName": "Mukah", "municipalityName": "Mukah", "location": {"lat": 2.906389, "lon": 112.08}, "countryCode": "MY"}, "averageDailyFlights": 0.29, "operators": [{"name": "Malaysia Airlines", "iata": "MH", "icao": "MAS"}]}]}