{"routes": [{"destination": {"icao": "WIII", "iata": "CGK", "name": "Jakarta Soekarno-Hatta", "shortName": "Soekarno-Hatta", "municipalityName": "Jakarta", "location": {"lat": -6.125569, "lon": 106.656}, "countryCode": "ID"}, "averageDailyFlights": 17.71, "operators": [{"name": "Batik Air", "iata": "ID", "icao": "BTK"}, {"name": "Citilink", "iata": "QG", "icao": "CTV"}, {"name": "Super Air Jet", "iata": "IU", "icao": "SJV"}, {"name": "Lion Air", "iata": "JT", "icao": "LNI"}, {"name": "Garuda Indonesia", "iata": "GA", "icao": "GIA"}, {"name": "Nam Air", "iata": "IN", "icao": "LKN"}]}, {"destination": {"icao": "WIMG", "iata": "PDG", "name": "Padang-Sumatra Island Tabing", "shortName": "Tabing", "municipalityName": "Padang-Sumatra Island", "location": {"lat": -0.874988, "lon": 100.352}, "countryCode": "ID"}, "averageDailyFlights": 7.81, "operators": [{"name": "Lion Air", "iata": "JT", "icao": "LNI"}, {"name": "Citilink", "iata": "QG", "icao": "CTV"}, {"name": "Super Air Jet", "iata": "IU", "icao": "SJV"}]}, {"destination": {"icao": "WIBB", "iata": "PKU", "name": "Pekanbaru-Sumatra Island Sultan Syarif Kasim Ii (Simpang Tiga)", "shortName": "Sultan Syarif Kasim Ii (Simpang Tiga)", "municipalityName": "Pekanbaru-Sumatra Island", "location": {"lat": 0.460786, "lon": 101.445}, "countryCode": "ID"}, "averageDailyFlights": 7.43, "operators": [{"name": "Lion Air", "iata": "JT", "icao": "LNI"}, {"name": "Citilink", "iata": "QG", "icao": "CTV"}, {"name": "Super Air Jet", "iata": "IU", "icao": "SJV"}]}, {"destination": {"icao": "WIPP", "iata": "PLM", "name": "Palembang-Sumatra Island Sultan Mahmud Badaruddin Ii", "shortName": "Sultan Mahmud Badaruddin Ii", "municipalityName": "Palembang-Sumatra Island", "location": {"lat": -2.89825, "lon": 104.7}, "countryCode": "ID"}, "averageDailyFlights": 4.43, "operators": [{"name": "Lion Air", "iata": "JT", "icao": "LNI"}, {"name": "Citilink", "iata": "QG", "icao": "CTV"}]}, {"destination": {"icao": "WARR", "iata": "SUB", "name": "Surabaya Juanda", "shortName": "Juanda", "municipalityName": "Surabaya", "location": {"lat": -7.379829, "lon": 112.787}, "countryCode": "ID"}, "averageDailyFlights": 4.43, "operators": [{"name": "Lion Air", "iata": "JT", "icao": "LNI"}, {"name": "Citilink", "iata": "QG", "icao": "CTV"}]}, {"destination": {"name": "Dzhokyakarta"}, "averageDailyFlights": 2.14, "operators": [{"name": "Super Air Jet", "iata": "IU", "icao": "SJV"}]}, {"destination": {"icao": "WARS", "iata": "SRG", "name": "Semarang-Java Island Achmad Yani", "shortName": "Achmad Yani", "municipalityName": "Semarang-Java Island", "location": {"lat": -6.97273, "lon": 110.375}, "countryCode": "ID"}, "averageDailyFlights": 1.93, "operators": [{"name": "Super Air Jet", "iata": "IU", "icao": "SJV"}]}, {"destination": {"icao": "WION", "iata": "NTX", "name": "Ranai-Natuna Besar Island Ranai", "shortName": "Ranai", "municipalityName": "Ranai-Natuna Besar Island", "location": {"lat": 3.90871, "lon": 108.388}, "countryCode": "ID"}, "averageDailyFlights": 1.43, "operators": [{"name": "Wings Air (Indonesia)", "iata": "IW", "icao": "WON"}, {"name": "Nam Air", "iata": "IN", "icao": "LKN"}]}, {"destination": {"icao": "WIPA", "iata": "DJB", "name": "Jambi-Sumatra Island Sultan Thaha", "shortName": "Sultan Thaha", "municipalityName": "Jambi-Sumatra Island", "location": {"lat": -1.63802, "lon": 103.644}, "countryCode": "ID"}, "averageDailyFlights": 1.14, "operators": [{"name": "Super Air Jet", "iata": "IU", "icao": "SJV"}]}, {"destination": {"icao": "WIPK", "iata": "PGK", "name": "Pangkal Pinang-Palaubangka Island Pangkal Pinang (Depati Amir)", "shortName": "Pangkal Pinang (Depati Amir)", "municipalityName": "Pangkal Pinang-Palaubangka Island", "location": {"lat": -2.162199, "lon": 106.139}, "countryCode": "ID"}, "averageDailyFlights": 1.14, "operators": [{"name": "Super Air Jet", "iata": "IU", "icao": "SJV"}]}, {"destination": {"icao": "WIOO", "iata": "PNK", "name": "Pontianak-Borneo Island Supadio", "shortName": "Supadio", "municipalityName": "Pontianak-Borneo Island", "location": {"lat": -0.15071, "lon": 109.404}, "countryCode": "ID"}, "averageDailyFlights": 1.14, "operators": [{"name": "Lion Air", "iata": "JT", "icao": "LNI"}]}, {"destination": {"name": "Letung Airport"}, "averageDailyFlights": 0.86, "operators": [{"name": "Wings Air (Indonesia)", "iata": "IW", "icao": "WON"}]}, {"destination": {"icao": "WALL", "iata": "BPN", "name": "Kotamadya Balikpapan Sultan Aji Muhamad Sulaiman", "shortName": "Sultan Aji Muhamad Sulaiman", "municipalityName": "Kotamadya Balikpapan", "location": {"lat": -1.26827, "lon": 116.894}, "countryCode": "ID"}, "averageDailyFlights": 0.57, "operators": [{"name": "Super Air Jet", "iata": "IU", "icao": "SJV"}]}, {"destination": {"icao": "WMKK", "iata": "KUL", "name": "Kuala Lumpur ", "shortName": "Kuala Lumpur", "municipalityName": "Kuala Lumpur", "location": {"lat": 2.745579, "lon": 101.71}, "countryCode": "MY"}, "averageDailyFlights": 0.57, "operators": [{"name": "Malindo Air", "iata": "OD", "icao": "MXD"}]}, {"destination": {"name": "Siborong-Borong"}, "averageDailyFlights": 0.29, "operators": [{"name": "Citilink", "iata": "QG", "icao": "CTV"}]}]}