{"routes": [{"destination": {"icao": "ZBHH", "iata": "HET", "name": "Hohhot Baita", "shortName": "Baita", "municipalityName": "Hohhot", "location": {"lat": 40.8514, "lon": 111.824}, "countryCode": "CN"}, "averageDailyFlights": 9.86, "operators": [{"name": "Tianjin Airlines", "iata": "GS", "icao": "GCR"}, {"name": "Air China", "iata": "CA", "icao": "CCA"}, {"name": "Genghis Khan Airlines", "iata": "9D", "icao": "NMG"}, {"name": "China Express Airlines", "iata": "G5", "icao": "HXA"}]}, {"destination": {"icao": "ZBLA", "iata": "HLD", "name": "Hailar Dongshan", "shortName": "Dongshan", "municipalityName": "Hailar", "location": {"lat": 49.205, "lon": 119.825}, "countryCode": "CN"}, "averageDailyFlights": 1.57, "operators": [{"name": "Genghis Khan Airlines", "iata": "9D", "icao": "NMG"}, {"name": "Tianjin Airlines", "iata": "GS", "icao": "GCR"}, {"name": "China Express Airlines", "iata": "G5", "icao": "HXA"}]}, {"destination": {"icao": "ZBUL", "iata": "HLH", "name": "Ulanhot ", "shortName": "Ulanhot", "municipalityName": "Ulanhot", "location": {"lat": 46.19533, "lon": 122.00833}, "countryCode": "CN"}, "averageDailyFlights": 1.57, "operators": [{"name": "Chengdu Airlines", "iata": "EU", "icao": "UEA"}, {"name": "China Express Airlines", "iata": "G5", "icao": "HXA"}]}, {"destination": {"icao": "ZBOW", "iata": "BAV", "name": "Baotou ", "shortName": "Baotou", "municipalityName": "Baotou", "location": {"lat": 40.56, "lon": 109.997}, "countryCode": "CN"}, "averageDailyFlights": 1.14, "operators": [{"name": "China Express Airlines", "iata": "G5", "icao": "HXA"}]}, {"destination": {"icao": "ZBAA", "iata": "PEK", "name": "Beijing Capital", "shortName": "Capital", "municipalityName": "Beijing", "location": {"lat": 40.0801, "lon": 116.585}, "countryCode": "CN"}, "averageDailyFlights": 1.14, "operators": [{"name": "Air China", "iata": "CA", "icao": "CCA"}]}, {"destination": {"icao": "ZBCF", "iata": "CIF", "name": "Chifeng ", "shortName": "Chifeng", "municipalityName": "Chifeng", "location": {"lat": 42.235, "lon": 118.908}, "countryCode": "CN"}, "averageDailyFlights": 1.14, "operators": [{"name": "Tianjin Airlines", "iata": "GS", "icao": "GCR"}]}, {"destination": {"icao": "ZBER", "iata": "ERL", "name": "Erenhot, Erenhot Saiwusu", "shortName": "Erenhot Saiwusu", "municipalityName": "Erenhot,", "location": {"lat": 43.4225, "lon": 112.096664}, "countryCode": "CN"}, "averageDailyFlights": 1.14, "operators": [{"name": "Genghis Khan Airlines", "iata": "9D", "icao": "NMG"}]}, {"destination": {"icao": "ZBSJ", "iata": "SJW", "name": "Shijiazhuang Daguocun", "shortName": "Daguocun", "municipalityName": "Shijiazhuang", "location": {"lat": 38.2807, "lon": 114.697}, "countryCode": "CN"}, "averageDailyFlights": 1.0, "operators": [{"name": "Spring Airlines", "iata": "9C", "icao": "CQH"}]}, {"destination": {"icao": "ZSHC", "iata": "HGH", "name": "Hangzhou Xiaoshan", "shortName": "Xiaoshan", "municipalityName": "Hangzhou", "location": {"lat": 30.2295, "lon": 120.434}, "countryCode": "CN"}, "averageDailyFlights": 0.71, "operators": [{"name": "Hainan Airlines", "iata": "HU", "icao": "CHH"}]}, {"destination": {"icao": "ZYHB", "iata": "HRB", "name": "Harbin Taiping", "shortName": "Taiping", "municipalityName": "Harbin", "location": {"lat": 45.6234, "lon": 126.25}, "countryCode": "CN"}, "averageDailyFlights": 0.71, "operators": [{"name": "Hainan Airlines", "iata": "HU", "icao": "CHH"}]}, {"destination": {"icao": "ZBUH", "iata": "WUA", "name": "Wuhai ", "shortName": "Wuhai", "municipalityName": "Wuhai", "location": {"lat": 39.7934, "lon": 106.7993}, "countryCode": "CN"}, "averageDailyFlights": 0.71, "operators": [{"name": "Chengdu Airlines", "iata": "EU", "icao": "UEA"}]}, {"destination": {"name": "Manchzhouli"}, "averageDailyFlights": 0.71, "operators": [{"name": "China Express Airlines", "iata": "G5", "icao": "HXA"}]}, {"destination": {"name": "Silinkhot"}, "averageDailyFlights": 0.71, "operators": [{"name": "Tianjin Airlines", "iata": "GS", "icao": "GCR"}]}, {"destination": {"icao": "ZSPD", "iata": "PVG", "name": "Shanghai Pudong", "shortName": "Pudong", "municipalityName": "Shanghai", "location": {"lat": 31.1434, "lon": 121.805}, "countryCode": "CN"}, "averageDailyFlights": 0.57, "operators": [{"name": "Spring Airlines", "iata": "9C", "icao": "CQH"}]}, {"destination": {"icao": "ZBYZ", "iata": "RLK", "name": "Bavannur Bayannur Tianjitai", "shortName": "Bayannur Tianjitai", "municipalityName": "Bavannur", "location": {"lat": 40.926, "lon": 107.7428}, "countryCode": "CN"}, "averageDailyFlights": 0.43, "operators": [{"name": "Chengdu Airlines", "iata": "EU", "icao": "UEA"}]}, {"destination": {"icao": "ZSJN", "iata": "TNA", "name": "Jinan Yaoqiang", "shortName": "Yaoqiang", "municipalityName": "Jinan", "location": {"lat": 36.8572, "lon": 117.216}, "countryCode": "CN"}, "averageDailyFlights": 0.43, "operators": [{"name": "Tianjin Airlines", "iata": "GS", "icao": "GCR"}]}, {"destination": {"icao": "ZBDS", "iata": "DSN", "name": "Ordos Ejin Horo", "shortName": "Ejin Horo", "municipalityName": "Ordos", "location": {"lat": 39.49, "lon": 109.86139}, "countryCode": "CN"}, "averageDailyFlights": 0.43, "operators": [{"name": "Tianjin Airlines", "iata": "GS", "icao": "GCR"}]}, {"destination": {"icao": "ZBTJ", "iata": "TSN", "name": "Tianjin Binhai", "shortName": "Binhai", "municipalityName": "Tianjin", "location": {"lat": 39.1244, "lon": 117.346}, "countryCode": "CN"}, "averageDailyFlights": 0.43, "operators": [{"name": "China Express Airlines", "iata": "G5", "icao": "HXA"}]}, {"destination": {"icao": "ZBXH", "iata": "XIL", "name": "Xilinhot ", "shortName": "Xilinhot", "municipalityName": "Xilinhot", "location": {"lat": 43.9156, "lon": 115.964}, "countryCode": "CN"}, "averageDailyFlights": 0.43, "operators": [{"name": "Tianjin Airlines", "iata": "GS", "icao": "GCR"}]}]}