{"routes": [{"destination": {"icao": "ZPJH", "iata": "JHG", "name": "Jinghong Xishuangbanna Gasa", "shortName": "Xishuangbanna Gasa", "municipalityName": "Jinghong", "location": {"lat": 21.9739, "lon": 100.76}, "countryCode": "CN"}, "averageDailyFlights": 8.57, "operators": [{"name": "Beijing Capital Airlines", "iata": "JD", "icao": "CBJ"}, {"name": "Kunming Airlines", "iata": "KY", "icao": "KNA"}, {"name": "Qingdao Airlines", "iata": "QW", "icao": "QDA"}, {"name": "Ruili Airlines", "iata": "DR", "icao": "RLH"}, {"name": "Lucky Air", "iata": "8L", "icao": "LKE"}]}, {"destination": {"icao": "ZUUU", "iata": "CTU", "name": "Chengdu Shuangliu", "shortName": "Shuangliu", "municipalityName": "Chengdu", "location": {"lat": 30.5785, "lon": 103.947}, "countryCode": "CN"}, "averageDailyFlights": 8.19, "operators": [{"name": "Tibet Airlines", "iata": "TV", "icao": "TBA"}, {"name": "Air China", "iata": "CA", "icao": "CCA"}, {"name": "Shenzhen Airlines", "iata": "ZH", "icao": "CSZ"}, {"name": "Sichuan Airlines", "iata": "3U", "icao": "CSC"}, {"name": "Beijing Capital Airlines", "iata": "JD", "icao": "CBJ"}, {"name": "China Eastern Airlines", "iata": "MU", "icao": "CES"}, {"name": "Lucky Air", "iata": "8L", "icao": "LKE"}]}, {"destination": {"icao": "ZSPD", "iata": "PVG", "name": "Shanghai Pudong", "shortName": "Pudong", "municipalityName": "Shanghai", "location": {"lat": 31.1434, "lon": 121.805}, "countryCode": "CN"}, "averageDailyFlights": 6.57, "operators": [{"name": "China Eastern Airlines", "iata": "MU", "icao": "CES"}, {"name": "Juneyao Airlines", "iata": "HO", "icao": "DKH"}, {"name": "Spring Airlines", "iata": "9C", "icao": "CQH"}, {"name": "Lucky Air", "iata": "8L", "icao": "LKE"}]}, {"destination": {"icao": "ZSNJ", "iata": "NKG", "name": "Nanjing Lukou", "shortName": "Lukou", "municipalityName": "Nanjing", "location": {"lat": 31.742, "lon": 118.862}, "countryCode": "CN"}, "averageDailyFlights": 5.86, "operators": [{"name": "Juneyao Airlines", "iata": "HO", "icao": "DKH"}, {"name": "Shenzhen Airlines", "iata": "ZH", "icao": "CSZ"}, {"name": "China Eastern Airlines", "iata": "MU", "icao": "CES"}, {"name": "Qingdao Airlines", "iata": "QW", "icao": "QDA"}, {"name": "Lucky Air", "iata": "8L", "icao": "LKE"}]}, {"destination": {"icao": "ZGGG", "iata": "CAN", "name": "Guangzhou Baiyun", "shortName": "Baiyun", "municipalityName": "Guangzhou", "location": {"lat": 23.3924, "lon": 113.299}, "countryCode": "CN"}, "averageDailyFlights": 5.29, "operators": [{"name": "China Southern Airlines", "iata": "CZ", "icao": "CSN"}, {"name": "China Eastern Airlines", "iata": "MU", "icao": "CES"}, {"name": "Beijing Capital Airlines", "iata": "JD", "icao": "CBJ"}]}, {"destination": {"icao": "ZHCC", "iata": "CGO", "name": "Zhengzhou Xinzheng", "shortName": "Xinzheng", "municipalityName": "Zhengzhou", "location": {"lat": 34.5197, "lon": 113.841}, "countryCode": "CN"}, "averageDailyFlights": 5.14, "operators": [{"name": "Lucky Air", "iata": "8L", "icao": "LKE"}, {"name": "Beijing Capital Airlines", "iata": "JD", "icao": "CBJ"}, {"name": "West Air (China)", "iata": "PN", "icao": "CHB"}]}, {"destination": {"icao": "ZHHH", "iata": "WUH", "name": "Wuhan Tianhe", "shortName": "Tianhe", "municipalityName": "Wuhan", "location": {"lat": 30.7838, "lon": 114.208}, "countryCode": "CN"}, "averageDailyFlights": 4.57, "operators": [{"name": "Lucky Air", "iata": "8L", "icao": "LKE"}, {"name": "Tianjin Airlines", "iata": "GS", "icao": "GCR"}, {"name": "Beijing Capital Airlines", "iata": "JD", "icao": "CBJ"}, {"name": "Juneyao Airlines", "iata": "HO", "icao": "DKH"}]}, {"destination": {"icao": "ZLXY", "iata": "XIY", "name": "Xianyang Xi'an", "shortName": "Xi'an", "municipalityName": "Xianyang", "location": {"lat": 34.4471, "lon": 108.752}, "countryCode": "CN"}, "averageDailyFlights": 4.57, "operators": [{"name": "Beijing Capital Airlines", "iata": "JD", "icao": "CBJ"}, {"name": "Lucky Air", "iata": "8L", "icao": "LKE"}, {"name": "Tibet Airlines", "iata": "TV", "icao": "TBA"}, {"name": "Juneyao Airlines", "iata": "HO", "icao": "DKH"}]}, {"destination": {"icao": "ZUCK", "iata": "CKG", "name": "Chongqing Jiangbei", "shortName": "Jiangbei", "municipalityName": "Chongqing", "location": {"lat": 29.7192, "lon": 106.642}, "countryCode": "CN"}, "averageDailyFlights": 3.71, "operators": [{"name": "Lucky Air", "iata": "8L", "icao": "LKE"}, {"name": "West Air (China)", "iata": "PN", "icao": "CHB"}, {"name": "Sichuan Airlines", "iata": "3U", "icao": "CSC"}]}, {"destination": {"icao": "ZPPP", "iata": "KMG", "name": "Kunming Changshui", "shortName": "Changshui", "municipalityName": "Kunming", "location": {"lat": 25.101944, "lon": 102.92917}, "countryCode": "CN"}, "averageDailyFlights": 3.43, "operators": [{"name": "China Eastern Airlines", "iata": "MU", "icao": "CES"}]}, {"destination": {"icao": "ZGSZ", "iata": "SZX", "name": "Shenzhen Bao'an", "shortName": "Bao'an", "municipalityName": "Shenzhen", "location": {"lat": 22.6393, "lon": 113.811}, "countryCode": "CN"}, "averageDailyFlights": 3.29, "operators": [{"name": "Shenzhen Airlines", "iata": "ZH", "icao": "CSZ"}, {"name": "China Southern Airlines", "iata": "CZ", "icao": "CSN"}, {"name": "Juneyao Airlines", "iata": "HO", "icao": "DKH"}]}, {"destination": {"icao": "ZGHA", "iata": "CSX", "name": "Changsha Huanghua", "shortName": "Huanghua", "municipalityName": "Changsha", "location": {"lat": 28.1892, "lon": 113.22}, "countryCode": "CN"}, "averageDailyFlights": 2.71, "operators": [{"name": "Juneyao Airlines", "iata": "HO", "icao": "DKH"}, {"name": "Xiamen Airlines", "iata": "MF", "icao": "CXA"}, {"name": "Chengdu Airlines", "iata": "EU", "icao": "UEA"}]}, {"destination": {"icao": "ZBTJ", "iata": "TSN", "name": "Tianjin Binhai", "shortName": "Binhai", "municipalityName": "Tianjin", "location": {"lat": 39.1244, "lon": 117.346}, "countryCode": "CN"}, "averageDailyFlights": 2.57, "operators": [{"name": "Ruili Airlines", "iata": "DR", "icao": "RLH"}, {"name": "Tianjin Airlines", "iata": "GS", "icao": "GCR"}, {"name": "Beijing Capital Airlines", "iata": "JD", "icao": "CBJ"}]}, {"destination": {"icao": "ZBAA", "iata": "PEK", "name": "Beijing Capital", "shortName": "Capital", "municipalityName": "Beijing", "location": {"lat": 40.0801, "lon": 116.585}, "countryCode": "CN"}, "averageDailyFlights": 2.29, "operators": [{"name": "Air China", "iata": "CA", "icao": "CCA"}]}, {"destination": {"icao": "ZBAD", "iata": "PKX", "name": "Beijing Daxing", "shortName": "Daxing", "municipalityName": "Beijing", "location": {"lat": 39.509167, "lon": 116.41055}, "countryCode": "CN"}, "averageDailyFlights": 2.29, "operators": [{"name": "Beijing Capital Airlines", "iata": "JD", "icao": "CBJ"}, {"name": "China Eastern Airlines", "iata": "MU", "icao": "CES"}]}, {"destination": {"icao": "ZUGY", "iata": "KWE", "name": "Guiyang Longdongbao", "shortName": "Longdongbao", "municipalityName": "Guiyang", "location": {"lat": 26.5385, "lon": 106.801}, "countryCode": "CN"}, "averageDailyFlights": 2.29, "operators": [{"name": "Lucky Air", "iata": "8L", "icao": "LKE"}, {"name": "Colorful Guizhou Airlines", "iata": "GY", "icao": "CGZ"}, {"name": "Chengdu Airlines", "iata": "EU", "icao": "UEA"}]}, {"destination": {"icao": "ZSHC", "iata": "HGH", "name": "Hangzhou Xiaoshan", "shortName": "Xiaoshan", "municipalityName": "Hangzhou", "location": {"lat": 30.2295, "lon": 120.434}, "countryCode": "CN"}, "averageDailyFlights": 2.29, "operators": [{"name": "Beijing Capital Airlines", "iata": "JD", "icao": "CBJ"}, {"name": "Air China", "iata": "CA", "icao": "CCA"}]}, {"destination": {"icao": "ZGNN", "iata": "NNG", "name": "Nanning Wuxu", "shortName": "Wuxu", "municipalityName": "Nanning", "location": {"lat": 22.6083, "lon": 108.172}, "countryCode": "CN"}, "averageDailyFlights": 2.04, "operators": [{"name": "Beijing Capital Airlines", "iata": "JD", "icao": "CBJ"}, {"name": "GX Airlines", "iata": "GX", "icao": "CBG"}, {"name": "Lucky Air", "iata": "8L", "icao": "LKE"}]}, {"destination": {"icao": "ZSOF", "iata": "HFE", "name": "Hefei Luogang", "shortName": "Luogang", "municipalityName": "Hefei", "location": {"lat": 31.78, "lon": 117.298}, "countryCode": "CN"}, "averageDailyFlights": 1.71, "operators": [{"name": "Qingdao Airlines", "iata": "QW", "icao": "QDA"}, {"name": "Beijing Capital Airlines", "iata": "JD", "icao": "CBJ"}]}, {"destination": {"icao": "ZSJN", "iata": "TNA", "name": "Jinan Yaoqiang", "shortName": "Yaoqiang", "municipalityName": "Jinan", "location": {"lat": 36.8572, "lon": 117.216}, "countryCode": "CN"}, "averageDailyFlights": 1.43, "operators": [{"name": "Beijing Capital Airlines", "iata": "JD", "icao": "CBJ"}, {"name": "Lucky Air", "iata": "8L", "icao": "LKE"}]}, {"destination": {"icao": "ZGKL", "iata": "KWL", "name": "Guilin City Guilin Liangjiang", "shortName": "Guilin Liangjiang", "municipalityName": "Guilin City", "location": {"lat": 25.2181, "lon": 110.039}, "countryCode": "CN"}, "averageDailyFlights": 1.14, "operators": [{"name": "Xiamen Airlines", "iata": "MF", "icao": "CXA"}]}, {"destination": {"icao": "ZLLL", "iata": "LHW", "name": "Lanzhou Zhongchuan", "shortName": "Zhongchuan", "municipalityName": "Lanzhou", "location": {"lat": 36.5152, "lon": 103.62}, "countryCode": "CN"}, "averageDailyFlights": 1.14, "operators": [{"name": "Ruili Airlines", "iata": "DR", "icao": "RLH"}]}, {"destination": {"icao": "ZULZ", "iata": "LZO", "name": "Luzhou ", "shortName": "Luzhou", "municipalityName": "Luzhou", "location": {"lat": 28.8522, "lon": 105.393}, "countryCode": "CN"}, "averageDailyFlights": 1.14, "operators": [{"name": "Loong Air", "iata": "GJ", "icao": "CDC"}]}, {"destination": {"icao": "ZSCN", "iata": "KHN", "name": "Nanchang Changbei", "shortName": "Changbei", "municipalityName": "Nanchang", "location": {"lat": 28.865, "lon": 115.9}, "countryCode": "CN"}, "averageDailyFlights": 1.14, "operators": [{"name": "Beijing Capital Airlines", "iata": "JD", "icao": "CBJ"}]}, {"destination": {"icao": "ZSWX", "iata": "WUX", "name": "Wuxi Sunan Shuofang", "shortName": "Sunan Shuofang", "municipalityName": "Wuxi", "location": {"lat": 31.4944, "lon": 120.429}, "countryCode": "CN"}, "averageDailyFlights": 1.14, "operators": [{"name": "Yunnan Hong Tu Airlines"}]}, {"destination": {"icao": "ZGSD", "iata": "ZUH", "name": "Zhuhai ", "shortName": "Zhuhai", "municipalityName": "Zhuhai", "location": {"lat": 22.0064, "lon": 113.376}, "countryCode": "CN"}, "averageDailyFlights": 1.14, "operators": [{"name": "Yunnan Hong Tu Airlines"}]}, {"destination": {"icao": "ZUZY", "iata": "ZYI", "name": "Zunyi Xinzhou", "shortName": "Xinzhou", "municipalityName": "Zunyi", "location": {"lat": 27.5895, "lon": 107.0007}, "countryCode": "CN"}, "averageDailyFlights": 1.14, "operators": [{"name": "Loong Air", "iata": "GJ", "icao": "CDC"}]}, {"destination": {"icao": "ZUMY", "iata": "MIG", "name": "Mianyang ", "shortName": "Mianyang", "municipalityName": "Mianyang", "location": {"lat": 31.4281, "lon": 104.741}, "countryCode": "CN"}, "averageDailyFlights": 1.0, "operators": [{"name": "Shandong Airlines", "iata": "SC", "icao": "CDG"}]}, {"destination": {"icao": "ZGHY", "iata": "HNY", "name": "Hengyang ", "shortName": "Hengyang", "municipalityName": "Hengyang", "location": {"lat": 26.9053, "lon": 112.628}, "countryCode": "CN"}, "averageDailyFlights": 0.71, "operators": [{"name": "Chengdu Airlines", "iata": "EU", "icao": "UEA"}]}, {"destination": {"icao": "ZGCJ", "iata": "HJJ", "name": "Huaihua Zhijiang", "shortName": "Zhijiang", "municipalityName": "Huaihua", "location": {"lat": 27.44111, "lon": 109.7}, "countryCode": "CN"}, "averageDailyFlights": 0.71, "operators": [{"name": "Loong Air", "iata": "GJ", "icao": "CDC"}]}, {"destination": {"icao": "ZPSM", "iata": "SYM", "name": "Simao ", "shortName": "Simao", "municipalityName": "Simao", "location": {"lat": 22.7933, "lon": 100.959}, "countryCode": "CN"}, "averageDailyFlights": 0.71, "operators": [{"name": "Lucky Air", "iata": "8L", "icao": "LKE"}]}, {"destination": {"icao": "ZBYN", "iata": "TYN", "name": "Taiyuan Wusu", "shortName": "Wusu", "municipalityName": "Taiyuan", "location": {"lat": 37.7469, "lon": 112.628}, "countryCode": "CN"}, "averageDailyFlights": 0.71, "operators": [{"name": "Tibet Airlines", "iata": "TV", "icao": "TBA"}]}, {"destination": {"icao": "ZSAM", "iata": "XMN", "name": "Xiamen Gaoqi", "shortName": "Gaoqi", "municipalityName": "Xiamen", "location": {"lat": 24.544, "lon": 118.128}, "countryCode": "CN"}, "averageDailyFlights": 0.71, "operators": [{"name": "Beijing Capital Airlines", "iata": "JD", "icao": "CBJ"}]}, {"destination": {"icao": "ZHXF", "iata": "XFN", "name": "Xiangfan ", "shortName": "Xiangfan", "municipalityName": "Xiangfan", "location": {"lat": 32.1506, "lon": 112.291}, "countryCode": "CN"}, "averageDailyFlights": 0.71, "operators": [{"name": "Loong Air", "iata": "GJ", "icao": "CDC"}]}, {"destination": {"icao": "ZPZT", "iata": "ZAT", "name": "Zhaotong ", "shortName": "Zhaotong", "municipalityName": "Zhaotong", "location": {"lat": 27.3256, "lon": 103.755}, "countryCode": "CN"}, "averageDailyFlights": 0.71, "operators": [{"name": "Ruili Airlines", "iata": "DR", "icao": "RLH"}]}, {"destination": {"icao": "ZUAS", "iata": "AVA", "name": "Anshun Huangguoshu", "shortName": "Huangguoshu", "municipalityName": "Anshun", "location": {"lat": 26.260555, "lon": 105.87334}, "countryCode": "CN"}, "averageDailyFlights": 0.43, "operators": [{"name": "Qingdao Airlines", "iata": "QW", "icao": "QDA"}]}, {"destination": {"icao": "VTBS", "iata": "BKK", "name": "Bangkok Suvarnabhumi", "shortName": "Suvarnabhumi", "municipalityName": "Bangkok", "location": {"lat": 13.681099, "lon": 100.747}, "countryCode": "TH"}, "averageDailyFlights": 0.43, "operators": [{"name": "Ruili Airlines", "iata": "DR", "icao": "RLH"}]}, {"destination": {"icao": "ZSGZ", "iata": "KOW", "name": "Ganzhou ", "shortName": "Ganzhou", "municipalityName": "Ganzhou", "location": {"lat": 25.853333, "lon": 114.77889}, "countryCode": "CN"}, "averageDailyFlights": 0.43, "operators": [{"name": "Lucky Air", "iata": "8L", "icao": "LKE"}]}, {"destination": {"icao": "ZBSJ", "iata": "SJW", "name": "Shijiazhuang Daguocun", "shortName": "Daguocun", "municipalityName": "Shijiazhuang", "location": {"lat": 38.2807, "lon": 114.697}, "countryCode": "CN"}, "averageDailyFlights": 0.43, "operators": [{"name": "Beijing Capital Airlines", "iata": "JD", "icao": "CBJ"}]}, {"destination": {"icao": "ZBYC", "iata": "YCU", "name": "Yuncheng Guangong", "shortName": "Guangong", "municipalityName": "Yuncheng", "location": {"lat": 35.11639, "lon": 111.03139}, "countryCode": "CN"}, "averageDailyFlights": 0.43, "operators": [{"name": "Tibet Airlines", "iata": "TV", "icao": "TBA"}]}, {"destination": {"name": "Ningbo"}, "averageDailyFlights": 0.43, "operators": [{"name": "Loong Air", "iata": "GJ", "icao": "CDC"}]}]}