{"routes": [{"destination": {"icao": "ZWWW", "iata": "URC", "name": "\u00dcr\u00fcmqi Diwopu", "shortName": "Diwopu", "municipalityName": "\u00dcr\u00fcmqi", "location": {"lat": 43.9071, "lon": 87.4742}, "countryCode": "CN"}, "averageDailyFlights": 2.43, "operators": [{"name": "Tianjin Airlines", "iata": "GS", "icao": "GCR"}, {"name": "China Southern Airlines", "iata": "CZ", "icao": "CSN"}]}, {"destination": {"icao": "ZWKC", "iata": "KCA", "name": "Kucha Kuqa", "shortName": "Kuqa", "municipalityName": "Kucha", "location": {"lat": 41.7181, "lon": 82.9869}, "countryCode": "CN"}, "averageDailyFlights": 1.14, "operators": [{"name": "China Express Airlines", "iata": "G5", "icao": "HXA"}]}, {"destination": {"icao": "ZLLL", "iata": "LHW", "name": "Lanzhou Zhongchuan", "shortName": "Zhongchuan", "municipalityName": "Lanzhou", "location": {"lat": 36.5152, "lon": 103.62}, "countryCode": "CN"}, "averageDailyFlights": 1.14, "operators": [{"name": "Spring Airlines", "iata": "9C", "icao": "CQH"}]}, {"destination": {"icao": "ZWTP", "iata": "TLQ", "name": "Turfan Turpan Jiaohe", "shortName": "Turpan Jiaohe", "municipalityName": "Turfan", "location": {"lat": 43.0308, "lon": 89.0987}, "countryCode": "CN"}, "averageDailyFlights": 1.14, "operators": [{"name": "Chengdu Airlines", "iata": "EU", "icao": "UEA"}]}, {"destination": {"icao": "ZWKL", "iata": "KRL", "name": "Korla ", "shortName": "Korla", "municipalityName": "Korla", "location": {"lat": 41.6978, "lon": 86.1289}, "countryCode": "CN"}, "averageDailyFlights": 1.0, "operators": [{"name": "China Express Airlines", "iata": "G5", "icao": "HXA"}]}, {"destination": {"icao": "ZLXY", "iata": "XIY", "name": "Xianyang Xi'an", "shortName": "Xi'an", "municipalityName": "Xianyang", "location": {"lat": 34.4471, "lon": 108.752}, "countryCode": "CN"}, "averageDailyFlights": 1.0, "operators": [{"name": "China Eastern Airlines", "iata": "MU", "icao": "CES"}]}, {"destination": {"name": "Chengdu"}, "averageDailyFlights": 0.86, "operators": [{"name": "Sichuan Airlines", "iata": "3U", "icao": "CSC"}]}, {"destination": {"icao": "ZWKM", "iata": "KRY", "name": "Karamay ", "shortName": "Karamay", "municipalityName": "Karamay", "location": {"lat": 45.46655, "lon": 84.9527}, "countryCode": "CN"}, "averageDailyFlights": 0.71, "operators": [{"name": "Chengdu Airlines", "iata": "EU", "icao": "UEA"}]}, {"destination": {"icao": "ZWYN", "iata": "YIN", "name": "Yining ", "shortName": "Yining", "municipalityName": "Yining", "location": {"lat": 43.9558, "lon": 81.3303}, "countryCode": "CN"}, "averageDailyFlights": 0.71, "operators": [{"name": "Chengdu Airlines", "iata": "EU", "icao": "UEA"}]}, {"destination": {"icao": "ZWTC", "iata": "TCG", "name": "Tacheng ", "shortName": "Tacheng", "municipalityName": "Tacheng", "location": {"lat": 46.6725, "lon": 83.3408}, "countryCode": "CN"}, "averageDailyFlights": 0.43, "operators": [{"name": "Chengdu Airlines", "iata": "EU", "icao": "UEA"}]}, {"destination": {"icao": "ZBAD", "iata": "PKX", "name": "Beijing Daxing", "shortName": "Daxing", "municipalityName": "Beijing", "location": {"lat": 39.509167, "lon": 116.41055}, "countryCode": "CN"}, "averageDailyFlights": 0.14, "operators": [{"name": "China Southern Airlines", "iata": "CZ", "icao": "CSN"}]}, {"destination": {"icao": "ZGGG", "iata": "CAN", "name": "Guangzhou Baiyun", "shortName": "Baiyun", "municipalityName": "Guangzhou", "location": {"lat": 23.3924, "lon": 113.299}, "countryCode": "CN"}, "averageDailyFlights": 0.14, "operators": [{"name": "China Southern Airlines", "iata": "CZ", "icao": "CSN"}]}, {"destination": {"name": "Xi'an"}, "averageDailyFlights": 0.14, "operators": [{"name": "China Eastern Airlines", "iata": "MU", "icao": "CES"}]}]}