{"routes": [{"destination": {"icao": "ZWWW", "iata": "URC", "name": "\u00dcr\u00fcmqi Diwopu", "shortName": "Diwopu", "municipalityName": "\u00dcr\u00fcmqi", "location": {"lat": 43.9071, "lon": 87.4742}, "countryCode": "CN"}, "averageDailyFlights": 4.29, "operators": [{"name": "Tianjin Airlines", "iata": "GS", "icao": "GCR"}, {"name": "China Southern Airlines", "iata": "CZ", "icao": "CSN"}, {"name": "Hainan Airlines", "iata": "HU", "icao": "CHH"}]}, {"destination": {"icao": "ZWYN", "iata": "YIN", "name": "Yining ", "shortName": "Yining", "municipalityName": "Yining", "location": {"lat": 43.9558, "lon": 81.3303}, "countryCode": "CN"}, "averageDailyFlights": 3.0, "operators": [{"name": "China Express Airlines", "iata": "G5", "icao": "HXA"}, {"name": "Chengdu Airlines", "iata": "EU", "icao": "UEA"}]}, {"destination": {"icao": "ZWSH", "iata": "KHG", "name": "Kashgar ", "shortName": "Kashgar", "municipalityName": "Kashgar", "location": {"lat": 39.5429, "lon": 76.02}, "countryCode": "CN"}, "averageDailyFlights": 2.29, "operators": [{"name": "China Express Airlines", "iata": "G5", "icao": "HXA"}]}, {"destination": {"icao": "ZWAK", "iata": "AKU", "name": "Aksu ", "shortName": "Aksu", "municipalityName": "Aksu", "location": {"lat": 41.2625, "lon": 80.2917}, "countryCode": "CN"}, "averageDailyFlights": 2.14, "operators": [{"name": "China Express Airlines", "iata": "G5", "icao": "HXA"}]}, {"destination": {"name": "Chengdu"}, "averageDailyFlights": 2.14, "operators": [{"name": "Air China", "iata": "CA", "icao": "CCA"}, {"name": "Sichuan Airlines", "iata": "3U", "icao": "CSC"}]}, {"destination": {"icao": "ZWAT", "iata": "AAT", "name": "Altay Air Base", "shortName": "Air Base", "municipalityName": "Altay", "location": {"lat": 47.749886, "lon": 88.08581}, "countryCode": "CN"}, "averageDailyFlights": 1.14, "operators": [{"name": "China Express Airlines", "iata": "G5", "icao": "HXA"}]}, {"destination": {"icao": "ZWTN", "iata": "HTN", "name": "Hotan ", "shortName": "Hotan", "municipalityName": "Hotan", "location": {"lat": 37.0385, "lon": 79.8649}, "countryCode": "CN"}, "averageDailyFlights": 1.14, "operators": [{"name": "China Express Airlines", "iata": "G5", "icao": "HXA"}]}, {"destination": {"icao": "ZWKL", "iata": "KRL", "name": "Korla ", "shortName": "Korla", "municipalityName": "Korla", "location": {"lat": 41.6978, "lon": 86.1289}, "countryCode": "CN"}, "averageDailyFlights": 1.14, "operators": [{"name": "China Express Airlines", "iata": "G5", "icao": "HXA"}]}, {"destination": {"icao": "ZWTP", "iata": "TLQ", "name": "Turfan Turpan Jiaohe", "shortName": "Turpan Jiaohe", "municipalityName": "Turfan", "location": {"lat": 43.0308, "lon": 89.0987}, "countryCode": "CN"}, "averageDailyFlights": 1.14, "operators": [{"name": "Chengdu Airlines", "iata": "EU", "icao": "UEA"}]}, {"destination": {"name": "Shankhayguan"}, "averageDailyFlights": 1.0, "operators": [{"name": "China Express Airlines", "iata": "G5", "icao": "HXA"}]}, {"destination": {"icao": "ZWKM", "iata": "KRY", "name": "Karamay ", "shortName": "Karamay", "municipalityName": "Karamay", "location": {"lat": 45.46655, "lon": 84.9527}, "countryCode": "CN"}, "averageDailyFlights": 0.71, "operators": [{"name": "Chengdu Airlines", "iata": "EU", "icao": "UEA"}]}, {"destination": {"icao": "ZWCM", "iata": "IQM", "name": "Qiemo ", "shortName": "Qiemo", "municipalityName": "Qiemo", "location": {"lat": 38.1494, "lon": 85.5328}, "countryCode": "CN"}, "averageDailyFlights": 0.71, "operators": [{"name": "Chengdu Airlines", "iata": "EU", "icao": "UEA"}]}, {"destination": {"name": "Boro-Tala"}, "averageDailyFlights": 0.71, "operators": [{"name": "Chengdu Airlines", "iata": "EU", "icao": "UEA"}]}, {"destination": {"name": "Qingdao"}, "averageDailyFlights": 0.71, "operators": [{"name": "Qingdao Airlines", "iata": "QW", "icao": "QDA"}]}, {"destination": {"name": "Tumshuk"}, "averageDailyFlights": 0.71, "operators": [{"name": "Chengdu Airlines", "iata": "EU", "icao": "UEA"}]}, {"destination": {"name": "Nalati"}, "averageDailyFlights": 0.43, "operators": [{"name": "Chengdu Airlines", "iata": "EU", "icao": "UEA"}]}, {"destination": {"name": "Ningbo"}, "averageDailyFlights": 0.43, "operators": [{"name": "China Eastern Airlines", "iata": "MU", "icao": "CES"}]}, {"destination": {"icao": "ZLXY", "iata": "XIY", "name": "Xianyang Xi'an", "shortName": "Xi'an", "municipalityName": "Xianyang", "location": {"lat": 34.4471, "lon": 108.752}, "countryCode": "CN"}, "averageDailyFlights": 0.29, "operators": [{"name": "China Eastern Airlines", "iata": "MU", "icao": "CES"}]}, {"destination": {"name": "Aqs\u016b"}, "averageDailyFlights": 0.14, "operators": [{"name": "China Express Airlines", "iata": "G5", "icao": "HXA"}]}]}