{"routes": [{"destination": {"icao": "CYHZ", "iata": "YHZ", "name": "Halifax Stanfield", "shortName": "Stanfield", "municipalityName": "Halifax", "location": {"lat": 44.8808, "lon": -63.5086}, "countryCode": "CA"}, "averageDailyFlights": 7.14, "operators": [{"name": "Air Canada", "iata": "AC", "icao": "ACA"}, {"name": "PAL Airlines", "iata": "PB", "icao": "PVL"}, {"name": "Porter Airlines", "iata": "PD", "icao": "POE"}]}, {"destination": {"icao": "CYYZ", "iata": "YYZ", "name": "Toronto Pearson", "shortName": "Pearson", "municipalityName": "Toronto", "location": {"lat": 43.6772, "lon": -79.6306}, "countryCode": "CA"}, "averageDailyFlights": 6.0, "operators": [{"name": "Air Canada", "iata": "AC", "icao": "ACA"}, {"name": "Porter Airlines", "iata": "PD", "icao": "POE"}, {"name": "WestJet", "iata": "WS", "icao": "WJA"}]}, {"destination": {"icao": "CYDF", "iata": "YDF", "name": "Deer Lake ", "shortName": "Deer Lake", "municipalityName": "Deer Lake", "location": {"lat": 49.2108, "lon": -57.3914}, "countryCode": "CA"}, "averageDailyFlights": 2.57, "operators": [{"name": "PAL Airlines", "iata": "PB", "icao": "PVL"}]}, {"destination": {"icao": "CYUL", "iata": "YUL", "name": "Montreal Trudeau", "shortName": "Trudeau", "municipalityName": "Montreal", "location": {"lat": 45.4706, "lon": -73.7408}, "countryCode": "CA"}, "averageDailyFlights": 2.29, "operators": [{"name": "Air Canada", "iata": "AC", "icao": "ACA"}]}, {"destination": {"icao": "CYQX", "iata": "YQX", "name": "Gander ", "shortName": "Gander", "municipalityName": "Gander", "location": {"lat": 48.9369, "lon": -54.5681}, "countryCode": "CA"}, "averageDailyFlights": 0.86, "operators": [{"name": "PAL Airlines", "iata": "PB", "icao": "PVL"}]}, {"destination": {"icao": "CYYC", "iata": "YYC", "name": "Calgary ", "shortName": "Calgary", "municipalityName": "Calgary", "location": {"lat": 51.1139, "lon": -114.02}, "countryCode": "CA"}, "averageDailyFlights": 0.43, "operators": [{"name": "WestJet", "iata": "WS", "icao": "WJA"}]}, {"destination": {"icao": "CYBX", "iata": "YBX", "name": "Lourdes-De-Blanc-Sablon Lourdes de Blanc Sablon", "shortName": "Lourdes de Blanc Sablon", "municipalityName": "Lourdes-De-Blanc-Sablon", "location": {"lat": 51.4436, "lon": -57.1853}, "countryCode": "CA"}, "averageDailyFlights": 0.29, "operators": [{"name": "PAL Airlines", "iata": "PB", "icao": "PVL"}]}, {"destination": {"icao": "CYAY", "iata": "YAY", "name": "St. Anthony ", "shortName": "St. Anthony", "municipalityName": "St. Anthony", "location": {"lat": 51.3919, "lon": -56.0831}, "countryCode": "CA"}, "averageDailyFlights": 0.29, "operators": [{"name": "PAL Airlines", "iata": "PB", "icao": "PVL"}]}, {"destination": {"icao": "KDFW", "iata": "DFW", "name": "Dallas-Fort Worth ", "shortName": "Dallas-Fort Worth", "municipalityName": "Dallas-Fort Worth", "location": {"lat": 32.8968, "lon": -97.038}, "countryCode": "US"}, "averageDailyFlights": 0.14, "operators": [{"name": "American Airlines", "iata": "AA", "icao": "AAL"}]}, {"destination": {"icao": "CYYR", "iata": "YYR", "name": "Goose Bay ", "shortName": "Goose Bay", "municipalityName": "Goose Bay", "location": {"lat": 53.3192, "lon": -60.4258}, "countryCode": "CA"}, "averageDailyFlights": 0.14, "operators": [{"name": "PAL Airlines", "iata": "PB", "icao": "PVL"}]}, {"destination": {"icao": "KMCO", "iata": "MCO", "name": "Orlando ", "shortName": "Orlando", "municipalityName": "Orlando", "location": {"lat": 28.4294, "lon": -81.309}, "countryCode": "US"}, "averageDailyFlights": 0.14, "operators": [{"name": "WestJet", "iata": "WS", "icao": "WJA"}]}]}