{"routes": [{"destination": {"icao": "DAAG", "iata": "ALG", "name": "Algiers Houari Boumediene", "shortName": "Houari Boumediene", "municipalityName": "Algiers", "location": {"lat": 36.691, "lon": 3.215409}, "countryCode": "DZ"}, "averageDailyFlights": 1.71, "operators": [{"name": "Air Algerie", "iata": "AH", "icao": "DAH"}, {"name": "Tassili Airlines", "iata": "SF", "icao": "DTH"}]}, {"destination": {"icao": "DABC", "iata": "CZL", "name": "Constantine Mohamed Boudiaf", "shortName": "Mohamed Boudiaf", "municipalityName": "Constantine", "location": {"lat": 36.276, "lon": 6.620389}, "countryCode": "DZ"}, "averageDailyFlights": 0.43, "operators": [{"name": "Air Algerie", "iata": "AH", "icao": "DAH"}]}, {"destination": {"icao": "DAOO", "iata": "ORN", "name": "Oran Es Senia", "shortName": "Es Senia", "municipalityName": "Oran", "location": {"lat": 35.6239, "lon": -0.621182}, "countryCode": "DZ"}, "averageDailyFlights": 0.43, "operators": [{"name": "Air Algerie", "iata": "AH", "icao": "DAH"}]}, {"destination": {"icao": "DAAP", "iata": "VVZ", "name": "Illizi Takhamalt", "shortName": "Takhamalt", "municipalityName": "Illizi", "location": {"lat": 26.7235, "lon": 8.62265}, "countryCode": "DZ"}, "averageDailyFlights": 0.29, "operators": [{"name": "Air Algerie", "iata": "AH", "icao": "DAH"}]}, {"destination": {"icao": "DABB", "iata": "AAE", "name": "Annabah Annaba", "shortName": "Annaba", "municipalityName": "Annabah", "location": {"lat": 36.8222, "lon": 7.809169}, "countryCode": "DZ"}, "averageDailyFlights": 0.14, "operators": [{"name": "Tassili Airlines", "iata": "SF", "icao": "DTH"}]}, {"destination": {"icao": "DAAJ", "iata": "DJG", "name": "Djanet Inedbirene", "shortName": "Inedbirene", "municipalityName": "Djanet", "location": {"lat": 24.2928, "lon": 9.45244}, "countryCode": "DZ"}, "averageDailyFlights": 0.14, "operators": [{"name": "Air Algerie", "iata": "AH", "icao": "DAH"}]}, {"destination": {"icao": "LFPG", "iata": "CDG", "name": "Paris Charles de Gaulle", "shortName": "Charles de Gaulle", "municipalityName": "Paris", "location": {"lat": 49.0128, "lon": 2.549999}, "countryCode": "FR"}, "averageDailyFlights": 0.14, "operators": [{"name": "Air Algerie", "iata": "AH", "icao": "DAH"}]}, {"destination": {"icao": "DAAT", "iata": "TMR", "name": "Tamanghasset Aguenar \u2013 Hadj Bey Akhamok", "shortName": "Aguenar \u2013 Hadj Bey Akhamok", "municipalityName": "Tamanghasset", "location": {"lat": 22.8115, "lon": 5.451079}, "countryCode": "DZ"}, "averageDailyFlights": 0.14, "operators": [{"name": "Air Algerie", "iata": "AH", "icao": "DAH"}]}]}