{"routes": [{"destination": {"icao": "EIDW", "iata": "DUB", "name": "Dublin ", "shortName": "Dublin", "municipalityName": "Dublin", "location": {"lat": 53.4213, "lon": -6.27007}, "countryCode": "IE"}, "averageDailyFlights": 10.29, "operators": [{"name": "Ryanair", "iata": "FR", "icao": "RYR"}, {"name": "Aer Lingus", "iata": "EI", "icao": "EIN"}, {"name": "EAI"}]}, {"destination": {"icao": "EHAM", "iata": "AMS", "name": "Amsterdam Schiphol", "shortName": "Schiphol", "municipalityName": "Amsterdam", "location": {"lat": 52.3086, "lon": 4.763889}, "countryCode": "NL"}, "averageDailyFlights": 4.71, "operators": [{"name": "KLM", "iata": "KL", "icao": "KLM"}, {"name": "easyJet", "iata": "U2", "icao": "EZY"}]}, {"destination": {"icao": "EGLC", "iata": "LCY", "name": "London City", "shortName": "City", "municipalityName": "London", "location": {"lat": 51.5053, "lon": 0.055277}, "countryCode": "GB"}, "averageDailyFlights": 4.43, "operators": [{"name": "British Airways", "iata": "BA", "icao": "BAW"}]}, {"destination": {"icao": "EGHI", "iata": "SOU", "name": "Southampton ", "shortName": "Southampton", "municipalityName": "Southampton", "location": {"lat": 50.9503, "lon": -1.356799}, "countryCode": "GB"}, "averageDailyFlights": 4.0, "operators": [{"name": "Loganair", "iata": "LM", "icao": "LOG"}, {"name": "easyJet", "iata": "U2", "icao": "EZY"}]}, {"destination": {"icao": "EGAA", "iata": "BFS", "name": "Belfast ", "shortName": "Belfast", "municipalityName": "Belfast", "location": {"lat": 54.6575, "lon": -6.215829}, "countryCode": "GB"}, "averageDailyFlights": 3.86, "operators": [{"name": "easyJet", "iata": "U2", "icao": "EZY"}]}, {"destination": {"icao": "EGGD", "iata": "BRS", "name": "Bristol ", "shortName": "Bristol", "municipalityName": "Bristol", "location": {"lat": 51.3827, "lon": -2.719089}, "countryCode": "GB"}, "averageDailyFlights": 3.0, "operators": [{"name": "easyJet", "iata": "U2", "icao": "EZY"}]}, {"destination": {"icao": "GCTS", "iata": "TFS", "name": "Tenerife Island Tenerife South", "shortName": "Tenerife South", "municipalityName": "Tenerife Island", "location": {"lat": 28.0445, "lon": -16.5725}, "countryCode": "ES"}, "averageDailyFlights": 2.89, "operators": [{"name": "Jet2", "iata": "LS", "icao": "EXS"}, {"name": "TUI Airways", "iata": "BY", "icao": "TOM"}, {"name": "easyJet", "iata": "U2", "icao": "EZY"}]}, {"destination": {"icao": "EGAC", "iata": "BHD", "name": "Belfast George Best  City", "shortName": "George Best  City", "municipalityName": "Belfast", "location": {"lat": 54.6181, "lon": -5.872499}, "countryCode": "GB"}, "averageDailyFlights": 2.86, "operators": [{"name": "Aer Lingus", "iata": "EI", "icao": "EIN"}, {"name": "EAG"}]}, {"destination": {"icao": "EGPO", "iata": "SYY", "name": "Stornoway ", "shortName": "Stornoway", "municipalityName": "Stornoway", "location": {"lat": 58.2156, "lon": -6.33111}, "countryCode": "GB"}, "averageDailyFlights": 2.86, "operators": [{"name": "Loganair", "iata": "LM", "icao": "LOG"}]}, {"destination": {"icao": "LEAL", "iata": "ALC", "name": "Alicante ", "shortName": "Alicante", "municipalityName": "Alicante", "location": {"lat": 38.2822, "lon": -0.558156}, "countryCode": "ES"}, "averageDailyFlights": 2.14, "operators": [{"name": "TUI Airways", "iata": "BY", "icao": "TOM"}, {"name": "Jet2", "iata": "LS", "icao": "EXS"}, {"name": "easyJet", "iata": "U2", "icao": "EZY"}, {"name": "Ryanair", "iata": "FR", "icao": "RYR"}]}, {"destination": {"icao": "EGPR", "iata": "BRR", "name": "Eoligarry Barra", "shortName": "Barra", "municipalityName": "Eoligarry", "location": {"lat": 57.0228, "lon": -7.443059}, "countryCode": "GB"}, "averageDailyFlights": 2.14, "operators": [{"name": "Loganair", "iata": "LM", "icao": "LOG"}]}, {"destination": {"icao": "EGSS", "iata": "STN", "name": "London Stansted", "shortName": "Stansted", "municipalityName": "London", "location": {"lat": 51.885, "lon": 0.234999}, "countryCode": "GB"}, "averageDailyFlights": 2.14, "operators": [{"name": "easyJet", "iata": "U2", "icao": "EZY"}]}, {"destination": {"icao": "EGPU", "iata": "TRE", "name": "Balemartine Tiree", "shortName": "Tiree", "municipalityName": "Balemartine", "location": {"lat": 56.4992, "lon": -6.86917}, "countryCode": "GB"}, "averageDailyFlights": 2.0, "operators": [{"name": "Loganair", "iata": "LM", "icao": "LOG"}]}, {"destination": {"icao": "LFPG", "iata": "CDG", "name": "Paris Charles de Gaulle", "shortName": "Charles de Gaulle", "municipalityName": "Paris", "location": {"lat": 49.0128, "lon": 2.549999}, "countryCode": "FR"}, "averageDailyFlights": 2.0, "operators": [{"name": "easyJet", "iata": "U2", "icao": "EZY"}]}, {"destination": {"icao": "EDDF", "iata": "FRA", "name": "Frankfurt-am-Main ", "shortName": "Frankfurt-am-Main", "municipalityName": "Frankfurt-am-Main", "location": {"lat": 50.0264, "lon": 8.543129}, "countryCode": "DE"}, "averageDailyFlights": 1.86, "operators": [{"name": "Lufthansa", "iata": "LH", "icao": "DLH"}]}, {"destination": {"icao": "EGEC", "iata": "CAL", "name": "Campbeltown ", "shortName": "Campbeltown", "municipalityName": "Campbeltown", "location": {"lat": 55.4372, "lon": -5.686389}, "countryCode": "GB"}, "averageDailyFlights": 1.71, "operators": [{"name": "Loganair", "iata": "LM", "icao": "LOG"}]}, {"destination": {"icao": "BIKF", "iata": "KEF", "name": "Reykjavik Keflavik", "shortName": "Keflavik", "municipalityName": "Reykjavik", "location": {"lat": 63.985, "lon": -22.6056}, "countryCode": "IS"}, "averageDailyFlights": 1.71, "operators": [{"name": "Icelandair", "iata": "FI", "icao": "ICE"}, {"name": "Ghodawat Enterprises", "iata": "OG", "icao": "SDG"}, {"name": "FPY"}]}, {"destination": {"icao": "LEMG", "iata": "AGP", "name": "M\u00e1laga ", "shortName": "M\u00e1laga", "municipalityName": "M\u00e1laga", "location": {"lat": 36.6749, "lon": -4.49911}, "countryCode": "ES"}, "averageDailyFlights": 1.57, "operators": [{"name": "easyJet", "iata": "U2", "icao": "EZY"}, {"name": "Ryanair", "iata": "FR", "icao": "RYR"}, {"name": "Jet2", "iata": "LS", "icao": "EXS"}, {"name": "TUI Airways", "iata": "BY", "icao": "TOM"}]}, {"destination": {"icao": "EGBB", "iata": "BHX", "name": "Birmingham ", "shortName": "Birmingham", "municipalityName": "Birmingham", "location": {"lat": 52.4539, "lon": -1.748029}, "countryCode": "GB"}, "averageDailyFlights": 1.29, "operators": [{"name": "easyJet", "iata": "U2", "icao": "EZY"}]}, {"destination": {"icao": "OMDB", "iata": "DXB", "name": "Dubai ", "shortName": "Dubai", "municipalityName": "Dubai", "location": {"lat": 25.252798, "lon": 55.3644}, "countryCode": "AE"}, "averageDailyFlights": 1.14, "operators": [{"name": "Emirates", "iata": "EK", "icao": "UAE"}]}, {"destination": {"icao": "LTAI", "iata": "AYT", "name": "Antalya ", "shortName": "Antalya", "municipalityName": "Antalya", "location": {"lat": 36.8987, "lon": 30.8005}, "countryCode": "TR"}, "averageDailyFlights": 1.0, "operators": [{"name": "Jet2", "iata": "LS", "icao": "EXS"}, {"name": "Corendon Air", "iata": "XC", "icao": "CAI"}]}, {"destination": {"icao": "LPFR", "iata": "FAO", "name": "Faro ", "shortName": "Faro", "municipalityName": "Faro", "location": {"lat": 37.0144, "lon": -7.965909}, "countryCode": "PT"}, "averageDailyFlights": 1.0, "operators": [{"name": "easyJet", "iata": "U2", "icao": "EZY"}, {"name": "Jet2", "iata": "LS", "icao": "EXS"}]}, {"destination": {"icao": "GCLP", "iata": "LPA", "name": "Gran Canaria Island Gran Canaria", "shortName": "Gran Canaria", "municipalityName": "Gran Canaria Island", "location": {"lat": 27.9319, "lon": -15.386599}, "countryCode": "ES"}, "averageDailyFlights": 1.0, "operators": [{"name": "Jet2", "iata": "LS", "icao": "EXS"}, {"name": "TUI Airways", "iata": "BY", "icao": "TOM"}]}, {"destination": {"icao": "GCRR", "iata": "ACE", "name": "Lanzarote Island Lanzarote", "shortName": "Lanzarote", "municipalityName": "Lanzarote Island", "location": {"lat": 28.9455, "lon": -13.605199}, "countryCode": "ES"}, "averageDailyFlights": 1.0, "operators": [{"name": "Jet2", "iata": "LS", "icao": "EXS"}, {"name": "TUI Airways", "iata": "BY", "icao": "TOM"}]}, {"destination": {"icao": "LEPA", "iata": "PMI", "name": "Palma De Mallorca ", "shortName": "Palma De Mallorca", "municipalityName": "Palma De Mallorca", "location": {"lat": 39.5517, "lon": 2.73881}, "countryCode": "ES"}, "averageDailyFlights": 0.86, "operators": [{"name": "easyJet", "iata": "U2", "icao": "EZY"}, {"name": "Jet2", "iata": "LS", "icao": "EXS"}]}, {"destination": {"icao": "LTBS", "iata": "DLM", "name": "Dalaman ", "shortName": "Dalaman", "municipalityName": "Dalaman", "location": {"lat": 36.7131, "lon": 28.7925}, "countryCode": "TR"}, "averageDailyFlights": 0.71, "operators": [{"name": "easyJet", "iata": "U2", "icao": "EZY"}, {"name": "Jet2", "iata": "LS", "icao": "EXS"}]}, {"destination": {"icao": "EGAE", "iata": "LDY", "name": "Derry City City of Derry", "shortName": "City of Derry", "municipalityName": "Derry City", "location": {"lat": 55.0428, "lon": -7.161109}, "countryCode": "GB"}, "averageDailyFlights": 0.57, "operators": [{"name": "Loganair", "iata": "LM", "icao": "LOG"}]}, {"destination": {"icao": "EPKK", "iata": "KRK", "name": "Krak\u00f3w John Paul II   -Balice", "shortName": "John Paul II   -Balice", "municipalityName": "Krak\u00f3w", "location": {"lat": 50.0777, "lon": 19.7848}, "countryCode": "PL"}, "averageDailyFlights": 0.57, "operators": [{"name": "Jet2", "iata": "LS", "icao": "EXS"}, {"name": "Ryanair", "iata": "FR", "icao": "RYR"}]}, {"destination": {"icao": "EGJJ", "iata": "JER", "name": "St Helier Jersey", "shortName": "Jersey", "municipalityName": "St Helier", "location": {"lat": 49.2079, "lon": -2.195509}, "countryCode": "JE"}, "averageDailyFlights": 0.57, "operators": [{"name": "easyJet", "iata": "U2", "icao": "EZY"}]}, {"destination": {"icao": "CYYZ", "iata": "YYZ", "name": "Toronto Pearson", "shortName": "Pearson", "municipalityName": "Toronto", "location": {"lat": 43.6772, "lon": -79.6306}, "countryCode": "CA"}, "averageDailyFlights": 0.57, "operators": [{"name": "Air Transat", "iata": "TS", "icao": "TSC"}]}, {"destination": {"icao": "EDDB", "iata": "BER", "name": "Berlin Brandenburg", "shortName": "Brandenburg", "municipalityName": "Berlin", "location": {"lat": 52.35139, "lon": 13.493889}, "countryCode": "DE"}, "averageDailyFlights": 0.43, "operators": [{"name": "easyJet", "iata": "U2", "icao": "EZY"}, {"name": "IFA"}]}, {"destination": {"icao": "GCFV", "iata": "FUE", "name": "Fuerteventura Island Fuerteventura", "shortName": "Fuerteventura", "municipalityName": "Fuerteventura Island", "location": {"lat": 28.4527, "lon": -13.8638}, "countryCode": "ES"}, "averageDailyFlights": 0.43, "operators": [{"name": "Jet2", "iata": "LS", "icao": "EXS"}]}, {"destination": {"icao": "LPPT", "iata": "LIS", "name": "Lisbon Portela", "shortName": "Portela", "municipalityName": "Lisbon", "location": {"lat": 38.7813, "lon": -9.135919}, "countryCode": "PT"}, "averageDailyFlights": 0.43, "operators": [{"name": "easyJet", "iata": "U2", "icao": "EZY"}]}, {"destination": {"icao": "GMAD", "iata": "AGA", "name": "Agadir Al Massira", "shortName": "Al Massira", "municipalityName": "Agadir", "location": {"lat": 30.325, "lon": -9.413069}, "countryCode": "MA"}, "averageDailyFlights": 0.29, "operators": [{"name": "easyJet", "iata": "U2", "icao": "EZY"}]}, {"destination": {"icao": "EGPL", "iata": "BEB", "name": "Balivanich Benbecula", "shortName": "Benbecula", "municipalityName": "Balivanich", "location": {"lat": 57.4811, "lon": -7.36278}, "countryCode": "GB"}, "averageDailyFlights": 0.29, "operators": [{"name": "Loganair", "iata": "LM", "icao": "LOG"}]}, {"destination": {"icao": "LEBL", "iata": "BCN", "name": "Barcelona ", "shortName": "Barcelona", "municipalityName": "Barcelona", "location": {"lat": 41.2971, "lon": 2.078459}, "countryCode": "ES"}, "averageDailyFlights": 0.29, "operators": [{"name": "easyJet", "iata": "U2", "icao": "EZY"}]}, {"destination": {"icao": "EGTE", "iata": "EXT", "name": "Exeter ", "shortName": "Exeter", "municipalityName": "Exeter", "location": {"lat": 50.7344, "lon": -3.413889}, "countryCode": "GB"}, "averageDailyFlights": 0.29, "operators": [{"name": "Loganair", "iata": "LM", "icao": "LOG"}]}, {"destination": {"icao": "LCPH", "iata": "PFO", "name": "Paphos ", "shortName": "Paphos", "municipalityName": "Paphos", "location": {"lat": 34.718, "lon": 32.4857}, "countryCode": "CY"}, "averageDailyFlights": 0.29, "operators": [{"name": "Jet2", "iata": "LS", "icao": "EXS"}, {"name": "TUI Airways", "iata": "BY", "icao": "TOM"}]}, {"destination": {"icao": "LKPR", "iata": "PRG", "name": "Prague Ruzyn\u011b", "shortName": "Ruzyn\u011b", "municipalityName": "Prague", "location": {"lat": 50.1008, "lon": 14.26}, "countryCode": "CZ"}, "averageDailyFlights": 0.29, "operators": [{"name": "Jet2", "iata": "LS", "icao": "EXS"}]}, {"destination": {"icao": "LGRP", "iata": "RHO", "name": "Rodes Island Diagoras", "shortName": "Diagoras", "municipalityName": "Rodes Island", "location": {"lat": 36.4054, "lon": 28.0862}, "countryCode": "GR"}, "averageDailyFlights": 0.29, "operators": [{"name": "TUI Airways", "iata": "BY", "icao": "TOM"}, {"name": "Jet2", "iata": "LS", "icao": "EXS"}]}, {"destination": {"icao": "LIRF", "iata": "FCO", "name": "Rome Leonardo da Vinci\u2013Fiumicino", "shortName": "Leonardo da Vinci\u2013Fiumicino", "municipalityName": "Rome", "location": {"lat": 41.8045, "lon": 12.2508}, "countryCode": "IT"}, "averageDailyFlights": 0.29, "operators": [{"name": "Jet2", "iata": "LS", "icao": "EXS"}]}, {"destination": {"icao": "LPMA", "iata": "FNC", "name": "Funchal Madeira", "shortName": "Madeira", "municipalityName": "Funchal", "location": {"lat": 32.6979, "lon": -16.7745}, "countryCode": "PT"}, "averageDailyFlights": 0.14, "operators": [{"name": "Jet2", "iata": "LS", "icao": "EXS"}]}, {"destination": {"icao": "LGIR", "iata": "HER", "name": "Heraklion Nikos Kazantzakis", "shortName": "Nikos Kazantzakis", "municipalityName": "Heraklion", "location": {"lat": 35.3397, "lon": 25.1803}, "countryCode": "GR"}, "averageDailyFlights": 0.14, "operators": [{"name": "Jet2", "iata": "LS", "icao": "EXS"}]}, {"destination": {"icao": "LCLK", "iata": "LCA", "name": "Larnarca Larnaca", "shortName": "Larnaca", "municipalityName": "Larnarca", "location": {"lat": 34.8751, "lon": 33.6249}, "countryCode": "CY"}, "averageDailyFlights": 0.14, "operators": [{"name": "Jet2", "iata": "LS", "icao": "EXS"}]}, {"destination": {"icao": "LEMD", "iata": "MAD", "name": "Madrid Adolfo Su\u00e1rez \u2013Barajas", "shortName": "Adolfo Su\u00e1rez \u2013Barajas", "municipalityName": "Madrid", "location": {"lat": 40.4936, "lon": -3.56676}, "countryCode": "ES"}, "averageDailyFlights": 0.14, "operators": [{"name": "Air Horizont", "iata": "HT", "icao": "HAT"}]}]}