{"routes": [{"destination": {"icao": "ENGM", "iata": "OSL", "name": "Oslo Gardermoen", "shortName": "Gardermoen", "municipalityName": "Oslo", "location": {"lat": 60.1939, "lon": 11.100399}, "countryCode": "NO"}, "averageDailyFlights": 5.86, "operators": [{"name": "SAS", "iata": "SK", "icao": "SAS"}, {"name": "Norwegian Air Shuttle", "iata": "DY", "icao": "NOZ"}]}, {"destination": {"icao": "ENBR", "iata": "BGO", "name": "Bergen Flesland", "shortName": "Flesland", "municipalityName": "Bergen", "location": {"lat": 60.2934, "lon": 5.21814}, "countryCode": "NO"}, "averageDailyFlights": 5.29, "operators": [{"name": "Wideroe", "iata": "WF", "icao": "WIF"}]}, {"destination": {"icao": "EHAM", "iata": "AMS", "name": "Amsterdam Schiphol", "shortName": "Schiphol", "municipalityName": "Amsterdam", "location": {"lat": 52.3086, "lon": 4.763889}, "countryCode": "NL"}, "averageDailyFlights": 1.86, "operators": [{"name": "KLM", "iata": "KL", "icao": "KLM"}]}, {"destination": {"icao": "EKCH", "iata": "CPH", "name": "Copenhagen Kastrup", "shortName": "Kastrup", "municipalityName": "Copenhagen", "location": {"lat": 55.6179, "lon": 12.656}, "countryCode": "DK"}, "averageDailyFlights": 1.57, "operators": [{"name": "SAS", "iata": "SK", "icao": "SAS"}]}, {"destination": {"icao": "GCLP", "iata": "LPA", "name": "Gran Canaria Island Gran Canaria", "shortName": "Gran Canaria", "municipalityName": "Gran Canaria Island", "location": {"lat": 27.9319, "lon": -15.386599}, "countryCode": "ES"}, "averageDailyFlights": 0.29, "operators": [{"name": "Jettime"}, {"name": "SAS", "iata": "SK", "icao": "SAS"}]}, {"destination": {"icao": "LEAL", "iata": "ALC", "name": "Alicante ", "shortName": "Alicante", "municipalityName": "Alicante", "location": {"lat": 38.2822, "lon": -0.558156}, "countryCode": "ES"}, "averageDailyFlights": 0.14, "operators": [{"name": "SAS", "iata": "SK", "icao": "SAS"}]}, {"destination": {"icao": "EKBI", "iata": "BLL", "name": "Billund ", "shortName": "Billund", "municipalityName": "Billund", "location": {"lat": 55.7403, "lon": 9.15178}, "countryCode": "DK"}, "averageDailyFlights": 0.14, "operators": [{"name": "Braathens International"}]}]}