{"routes": [{"destination": {"icao": "GCLP", "iata": "LPA", "name": "Gran Canaria Island Gran Canaria", "shortName": "Gran Canaria", "municipalityName": "Gran Canaria Island", "location": {"lat": 27.9319, "lon": -15.386599}, "countryCode": "ES"}, "averageDailyFlights": 19.29, "operators": [{"name": "Binter Canarias", "iata": "NT", "icao": "IBB"}, {"name": "Canaryfly", "iata": "PM", "icao": "CNF"}]}, {"destination": {"icao": "GCXO", "iata": "TFN", "name": "Tenerife Island Tenerife Norte", "shortName": "Tenerife Norte", "municipalityName": "Tenerife Island", "location": {"lat": 28.4827, "lon": -16.3415}, "countryCode": "ES"}, "averageDailyFlights": 10.0, "operators": [{"name": "Binter Canarias", "iata": "NT", "icao": "IBB"}, {"name": "Canaryfly", "iata": "PM", "icao": "CNF"}]}, {"destination": {"icao": "LEMD", "iata": "MAD", "name": "Madrid Adolfo Su\u00e1rez \u2013Barajas", "shortName": "Adolfo Su\u00e1rez \u2013Barajas", "municipalityName": "Madrid", "location": {"lat": 40.4936, "lon": -3.56676}, "countryCode": "ES"}, "averageDailyFlights": 5.43, "operators": [{"name": "Cathay Pacific", "iata": "CX", "icao": "CPA"}, {"name": "Ryanair", "iata": "FR", "icao": "RYR"}, {"name": "Iberia Express", "iata": "I2", "icao": "IBS"}, {"name": "Air Europa", "iata": "UX", "icao": "AEA"}]}, {"destination": {"icao": "EIDW", "iata": "DUB", "name": "Dublin ", "shortName": "Dublin", "municipalityName": "Dublin", "location": {"lat": 53.4213, "lon": -6.27007}, "countryCode": "IE"}, "averageDailyFlights": 4.43, "operators": [{"name": "Aer Lingus", "iata": "EI", "icao": "EIN"}, {"name": "Ryanair", "iata": "FR", "icao": "RYR"}]}, {"destination": {"icao": "EGCC", "iata": "MAN", "name": "Manchester ", "shortName": "Manchester", "municipalityName": "Manchester", "location": {"lat": 53.3537, "lon": -2.27495}, "countryCode": "GB"}, "averageDailyFlights": 4.14, "operators": [{"name": "Ryanair", "iata": "FR", "icao": "RYR"}, {"name": "Jet2", "iata": "LS", "icao": "EXS"}, {"name": "Ryanair UK", "iata": "RK", "icao": "RUK"}, {"name": "easyJet", "iata": "U2", "icao": "EZY"}, {"name": "TUI Airways", "iata": "BY", "icao": "TOM"}]}, {"destination": {"icao": "EGKK", "iata": "LGW", "name": "London Gatwick", "shortName": "Gatwick", "municipalityName": "London", "location": {"lat": 51.1481, "lon": -0.190277}, "countryCode": "GB"}, "averageDailyFlights": 3.43, "operators": [{"name": "easyJet", "iata": "U2", "icao": "EZY"}, {"name": "TUI Airways", "iata": "BY", "icao": "TOM"}, {"name": "Vueling", "iata": "VY", "icao": "VLG"}, {"name": "British Airways", "iata": "BA", "icao": "BAW"}]}, {"destination": {"icao": "EGGD", "iata": "BRS", "name": "Bristol ", "shortName": "Bristol", "municipalityName": "Bristol", "location": {"lat": 51.3827, "lon": -2.719089}, "countryCode": "GB"}, "averageDailyFlights": 3.29, "operators": [{"name": "easyJet", "iata": "U2", "icao": "EZY"}, {"name": "Jet2", "iata": "LS", "icao": "EXS"}, {"name": "Ryanair", "iata": "FR", "icao": "RYR"}, {"name": "TUI Airways", "iata": "BY", "icao": "TOM"}]}, {"destination": {"icao": "EGSS", "iata": "STN", "name": "London Stansted", "shortName": "Stansted", "municipalityName": "London", "location": {"lat": 51.885, "lon": 0.234999}, "countryCode": "GB"}, "averageDailyFlights": 2.71, "operators": [{"name": "Jet2", "iata": "LS", "icao": "EXS"}, {"name": "Ryanair", "iata": "FR", "icao": "RYR"}]}, {"destination": {"icao": "EGBB", "iata": "BHX", "name": "Birmingham ", "shortName": "Birmingham", "municipalityName": "Birmingham", "location": {"lat": 52.4539, "lon": -1.748029}, "countryCode": "GB"}, "averageDailyFlights": 2.43, "operators": [{"name": "Jet2", "iata": "LS", "icao": "EXS"}, {"name": "Ryanair", "iata": "FR", "icao": "RYR"}, {"name": "TUI Airways", "iata": "BY", "icao": "TOM"}]}, {"destination": {"icao": "LEBL", "iata": "BCN", "name": "Barcelona ", "shortName": "Barcelona", "municipalityName": "Barcelona", "location": {"lat": 41.2971, "lon": 2.078459}, "countryCode": "ES"}, "averageDailyFlights": 2.29, "operators": [{"name": "Vueling", "iata": "VY", "icao": "VLG"}, {"name": "Ryanair", "iata": "FR", "icao": "RYR"}]}, {"destination": {"icao": "EGNX", "iata": "EMA", "name": "Nottingham East Midlands", "shortName": "East Midlands", "municipalityName": "Nottingham", "location": {"lat": 52.8311, "lon": -1.32806}, "countryCode": "GB"}, "averageDailyFlights": 2.14, "operators": [{"name": "Jet2", "iata": "LS", "icao": "EXS"}, {"name": "Ryanair", "iata": "FR", "icao": "RYR"}, {"name": "TUI Airways", "iata": "BY", "icao": "TOM"}]}, {"destination": {"icao": "EGPH", "iata": "EDI", "name": "Edinburgh ", "shortName": "Edinburgh", "municipalityName": "Edinburgh", "location": {"lat": 55.95, "lon": -3.372499}, "countryCode": "GB"}, "averageDailyFlights": 2.0, "operators": [{"name": "Ryanair", "iata": "FR", "icao": "RYR"}, {"name": "Jet2", "iata": "LS", "icao": "EXS"}, {"name": "easyJet", "iata": "U2", "icao": "EZY"}]}, {"destination": {"icao": "EGNM", "iata": "LBA", "name": "Leeds Bradford", "shortName": "Bradford", "municipalityName": "Leeds", "location": {"lat": 53.8659, "lon": -1.66057}, "countryCode": "GB"}, "averageDailyFlights": 1.71, "operators": [{"name": "Jet2", "iata": "LS", "icao": "EXS"}, {"name": "Ryanair", "iata": "FR", "icao": "RYR"}]}, {"destination": {"icao": "EHAM", "iata": "AMS", "name": "Amsterdam Schiphol", "shortName": "Schiphol", "municipalityName": "Amsterdam", "location": {"lat": 52.3086, "lon": 4.763889}, "countryCode": "NL"}, "averageDailyFlights": 1.57, "operators": [{"name": "easyJet", "iata": "U2", "icao": "EZY"}, {"name": "Transavia", "iata": "HV", "icao": "TRA"}, {"name": "TUI Airlines Nederland (Netherlands)", "iata": "OR", "icao": "TFL"}]}, {"destination": {"icao": "EDDB", "iata": "BER", "name": "Berlin Brandenburg", "shortName": "Brandenburg", "municipalityName": "Berlin", "location": {"lat": 52.35139, "lon": 13.493889}, "countryCode": "DE"}, "averageDailyFlights": 1.57, "operators": [{"name": "Ryanair", "iata": "FR", "icao": "RYR"}, {"name": "Eurowings", "iata": "EW", "icao": "EWG"}, {"name": "easyJet", "iata": "U2", "icao": "EZY"}]}, {"destination": {"icao": "EGAA", "iata": "BFS", "name": "Belfast ", "shortName": "Belfast", "municipalityName": "Belfast", "location": {"lat": 54.6575, "lon": -6.215829}, "countryCode": "GB"}, "averageDailyFlights": 1.43, "operators": [{"name": "Jet2", "iata": "LS", "icao": "EXS"}, {"name": "easyJet", "iata": "U2", "icao": "EZY"}, {"name": "Ryanair UK", "iata": "RK", "icao": "RUK"}]}, {"destination": {"icao": "EGGP", "iata": "LPL", "name": "Liverpool John Lennon", "shortName": "John Lennon", "municipalityName": "Liverpool", "location": {"lat": 53.3336, "lon": -2.84972}, "countryCode": "GB"}, "averageDailyFlights": 1.43, "operators": [{"name": "Ryanair", "iata": "FR", "icao": "RYR"}, {"name": "easyJet", "iata": "U2", "icao": "EZY"}]}, {"destination": {"icao": "EGNT", "iata": "NCL", "name": "Newcastle upon Tyne Newcastle", "shortName": "Newcastle", "municipalityName": "Newcastle upon Tyne", "location": {"lat": 55.0375, "lon": -1.691669}, "countryCode": "GB"}, "averageDailyFlights": 1.43, "operators": [{"name": "Jet2", "iata": "LS", "icao": "EXS"}, {"name": "Ryanair", "iata": "FR", "icao": "RYR"}, {"name": "TUI Airways", "iata": "BY", "icao": "TOM"}]}, {"destination": {"icao": "EICK", "iata": "ORK", "name": "Cork ", "shortName": "Cork", "municipalityName": "Cork", "location": {"lat": 51.8413, "lon": -8.491109}, "countryCode": "IE"}, "averageDailyFlights": 1.29, "operators": [{"name": "Aer Lingus", "iata": "EI", "icao": "EIN"}, {"name": "Ryanair", "iata": "FR", "icao": "RYR"}]}, {"destination": {"icao": "LEBB", "iata": "BIO", "name": "Bilbao ", "shortName": "Bilbao", "municipalityName": "Bilbao", "location": {"lat": 43.3011, "lon": -2.910609}, "countryCode": "ES"}, "averageDailyFlights": 1.14, "operators": [{"name": "Vueling", "iata": "VY", "icao": "VLG"}, {"name": "Air Europa", "iata": "UX", "icao": "AEA"}]}, {"destination": {"icao": "EDDL", "iata": "DUS", "name": "Duesseldorf D\u00fcsseldorf", "shortName": "D\u00fcsseldorf", "municipalityName": "Duesseldorf", "location": {"lat": 51.2895, "lon": 6.766779}, "countryCode": "DE"}, "averageDailyFlights": 1.14, "operators": [{"name": "Condor", "iata": "DE", "icao": "CFG"}, {"name": "Eurowings", "iata": "EW", "icao": "EWG"}, {"name": "Corendon Airlines Europe", "iata": "XR", "icao": "CXI"}]}, {"destination": {"icao": "EDDF", "iata": "FRA", "name": "Frankfurt-am-Main ", "shortName": "Frankfurt-am-Main", "municipalityName": "Frankfurt-am-Main", "location": {"lat": 50.0264, "lon": 8.543129}, "countryCode": "DE"}, "averageDailyFlights": 1.14, "operators": [{"name": "Condor", "iata": "DE", "icao": "CFG"}, {"name": "TUIfly", "iata": "X3", "icao": "TUI"}, {"name": "Discover Airlines"}]}, {"destination": {"icao": "EGPF", "iata": "GLA", "name": "Glasgow ", "shortName": "Glasgow", "municipalityName": "Glasgow", "location": {"lat": 55.8719, "lon": -4.43306}, "countryCode": "GB"}, "averageDailyFlights": 1.14, "operators": [{"name": "Jet2", "iata": "LS", "icao": "EXS"}, {"name": "TUI Airways", "iata": "BY", "icao": "TOM"}]}, {"destination": {"icao": "EDDH", "iata": "HAM", "name": "Hamburg ", "shortName": "Hamburg", "municipalityName": "Hamburg", "location": {"lat": 53.6304, "lon": 9.988229}, "countryCode": "DE"}, "averageDailyFlights": 1.0, "operators": [{"name": "Eurowings", "iata": "EW", "icao": "EWG"}, {"name": "Marabu Airline OU"}, {"name": "Condor", "iata": "DE", "icao": "CFG"}]}, {"destination": {"icao": "LIME", "iata": "BGY", "name": "Bergamo Orio al Serio", "shortName": "Orio al Serio", "municipalityName": "Bergamo", "location": {"lat": 45.6739, "lon": 9.70417}, "countryCode": "IT"}, "averageDailyFlights": 0.86, "operators": [{"name": "Ryanair", "iata": "FR", "icao": "RYR"}]}, {"destination": {"icao": "EBBR", "iata": "BRU", "name": "Brussels ", "shortName": "Brussels", "municipalityName": "Brussels", "location": {"lat": 50.9014, "lon": 4.484439}, "countryCode": "BE"}, "averageDailyFlights": 0.86, "operators": [{"name": "Brussels Airlines", "iata": "SN", "icao": "BEL"}, {"name": "TUI Airlines Belgium", "iata": "TB", "icao": "JAF"}]}, {"destination": {"icao": "LFRS", "iata": "NTE", "name": "Nantes Atlantique", "shortName": "Atlantique", "municipalityName": "Nantes", "location": {"lat": 47.1532, "lon": -1.61073}, "countryCode": "FR"}, "averageDailyFlights": 0.86, "operators": [{"name": "easyJet", "iata": "U2", "icao": "EZY"}, {"name": "Enter Air", "iata": "E4", "icao": "ENT"}, {"name": "Volotea", "iata": "V7", "icao": "VOE"}, {"name": "Transavia France", "iata": "TO", "icao": "TVF"}]}, {"destination": {"icao": "LEST", "iata": "SCQ", "name": "Santiago de Compostela ", "shortName": "Santiago de Compostela", "municipalityName": "Santiago de Compostela", "location": {"lat": 42.8963, "lon": -8.41514}, "countryCode": "ES"}, "averageDailyFlights": 0.86, "operators": [{"name": "Ryanair", "iata": "FR", "icao": "RYR"}, {"name": "Vueling", "iata": "VY", "icao": "VLG"}]}, {"destination": {"icao": "LFBD", "iata": "BOD", "name": "Bordeaux/M\u00e9rignac Bordeaux-M\u00e9rignac", "shortName": "Bordeaux-M\u00e9rignac", "municipalityName": "Bordeaux/M\u00e9rignac", "location": {"lat": 44.8283, "lon": -0.715556}, "countryCode": "FR"}, "averageDailyFlights": 0.71, "operators": [{"name": "easyJet", "iata": "U2", "icao": "EZY"}, {"name": "Volotea", "iata": "V7", "icao": "VOE"}]}, {"destination": {"icao": "EBCI", "iata": "CRL", "name": "Brussels South Charleroi", "shortName": "South Charleroi", "municipalityName": "Brussels", "location": {"lat": 50.4592, "lon": 4.45382}, "countryCode": "BE"}, "averageDailyFlights": 0.71, "operators": [{"name": "Ryanair", "iata": "FR", "icao": "RYR"}]}, {"destination": {"icao": "EDDK", "iata": "CGN", "name": "Cologne Bonn", "shortName": "Bonn", "municipalityName": "Cologne", "location": {"lat": 50.8659, "lon": 7.142739}, "countryCode": "DE"}, "averageDailyFlights": 0.71, "operators": [{"name": "Eurowings", "iata": "EW", "icao": "EWG"}, {"name": "Ryanair", "iata": "FR", "icao": "RYR"}]}, {"destination": {"icao": "LIMC", "iata": "MXP", "name": "Milan Malpensa", "shortName": "Malpensa", "municipalityName": "Milan", "location": {"lat": 45.6306, "lon": 8.72811}, "countryCode": "IT"}, "averageDailyFlights": 0.71, "operators": [{"name": "easyJet", "iata": "U2", "icao": "EZY"}, {"name": "Ryanair", "iata": "FR", "icao": "RYR"}, {"name": "Neos", "iata": "NO", "icao": "NOS"}]}, {"destination": {"icao": "EDDM", "iata": "MUC", "name": "Munich ", "shortName": "Munich", "municipalityName": "Munich", "location": {"lat": 48.3538, "lon": 11.7861}, "countryCode": "DE"}, "averageDailyFlights": 0.71, "operators": [{"name": "Condor", "iata": "DE", "icao": "CFG"}, {"name": "Lufthansa", "iata": "LH", "icao": "DLH"}, {"name": "TUIfly", "iata": "X3", "icao": "TUI"}]}, {"destination": {"icao": "LFPO", "iata": "ORY", "name": "Paris -Orly", "shortName": "-Orly", "municipalityName": "Paris", "location": {"lat": 48.7253, "lon": 2.35944}, "countryCode": "FR"}, "averageDailyFlights": 0.71, "operators": [{"name": "Vueling", "iata": "VY", "icao": "VLG"}, {"name": "Transavia France", "iata": "TO", "icao": "TVF"}]}, {"destination": {"icao": "LFPG", "iata": "CDG", "name": "Paris Charles de Gaulle", "shortName": "Charles de Gaulle", "municipalityName": "Paris", "location": {"lat": 49.0128, "lon": 2.549999}, "countryCode": "FR"}, "averageDailyFlights": 0.71, "operators": [{"name": "easyJet", "iata": "U2", "icao": "EZY"}, {"name": "Enter Air", "iata": "E4", "icao": "ENT"}]}, {"destination": {"icao": "LEZL", "iata": "SVQ", "name": "Seville Sevilla", "shortName": "Sevilla", "municipalityName": "Seville", "location": {"lat": 37.418, "lon": -5.893109}, "countryCode": "ES"}, "averageDailyFlights": 0.71, "operators": [{"name": "Vueling", "iata": "VY", "icao": "VLG"}, {"name": "Ryanair", "iata": "FR", "icao": "RYR"}]}, {"destination": {"icao": "LFSB", "iata": "BSL", "name": "B\u00e2le/Mulhouse Euro Basel-Mulhouse-Freiburg", "shortName": "Euro Basel-Mulhouse-Freiburg", "municipalityName": "B\u00e2le/Mulhouse", "location": {"lat": 47.5896, "lon": 7.52991}, "countryCode": "FR"}, "averageDailyFlights": 0.57, "operators": [{"name": "easyJet", "iata": "U2", "icao": "EZY"}]}, {"destination": {"icao": "EHEH", "iata": "EIN", "name": "Eindhoven ", "shortName": "Eindhoven", "municipalityName": "Eindhoven", "location": {"lat": 51.4501, "lon": 5.374529}, "countryCode": "NL"}, "averageDailyFlights": 0.57, "operators": [{"name": "Transavia", "iata": "HV", "icao": "TRA"}]}, {"destination": {"icao": "EDDV", "iata": "HAJ", "name": "Hanover Hannover", "shortName": "Hannover", "municipalityName": "Hanover", "location": {"lat": 52.4611, "lon": 9.685079}, "countryCode": "DE"}, "averageDailyFlights": 0.57, "operators": [{"name": "TUIfly", "iata": "X3", "icao": "TUI"}, {"name": "Corendon Airlines Europe", "iata": "XR", "icao": "CXI"}]}, {"destination": {"icao": "EINN", "iata": "SNN", "name": "Limerick city Shannon", "shortName": "Shannon", "municipalityName": "Limerick city", "location": {"lat": 52.702, "lon": -8.924819}, "countryCode": "IE"}, "averageDailyFlights": 0.57, "operators": [{"name": "Ryanair", "iata": "FR", "icao": "RYR"}]}, {"destination": {"icao": "ELLX", "iata": "LUX", "name": "Luxembourg -Findel", "shortName": "-Findel", "municipalityName": "Luxembourg", "location": {"lat": 49.6266, "lon": 6.21152}, "countryCode": "LU"}, "averageDailyFlights": 0.57, "operators": [{"name": "Luxair", "iata": "LG", "icao": "LGL"}]}, {"destination": {"icao": "LEMG", "iata": "AGP", "name": "M\u00e1laga ", "shortName": "M\u00e1laga", "municipalityName": "M\u00e1laga", "location": {"lat": 36.6749, "lon": -4.49911}, "countryCode": "ES"}, "averageDailyFlights": 0.57, "operators": [{"name": "Vueling", "iata": "VY", "icao": "VLG"}, {"name": "Ryanair", "iata": "FR", "icao": "RYR"}]}, {"destination": {"icao": "EDDS", "iata": "STR", "name": "Stuttgart ", "shortName": "Stuttgart", "municipalityName": "Stuttgart", "location": {"lat": 48.6899, "lon": 9.22196}, "countryCode": "DE"}, "averageDailyFlights": 0.57, "operators": [{"name": "Condor", "iata": "DE", "icao": "CFG"}, {"name": "Eurowings", "iata": "EW", "icao": "EWG"}, {"name": "TUIfly", "iata": "X3", "icao": "TUI"}]}, {"destination": {"icao": "LSZH", "iata": "ZRH", "name": "Zurich Kloten", "shortName": "Kloten", "municipalityName": "Zurich", "location": {"lat": 47.4647, "lon": 8.549169}, "countryCode": "CH"}, "averageDailyFlights": 0.57, "operators": [{"name": "Edelweiss Air", "iata": "WK", "icao": "EDW"}]}, {"destination": {"icao": "EDDW", "iata": "BRE", "name": "Bremen ", "shortName": "Bremen", "municipalityName": "Bremen", "location": {"lat": 53.0475, "lon": 8.786669}, "countryCode": "DE"}, "averageDailyFlights": 0.43, "operators": [{"name": "Ryanair", "iata": "FR", "icao": "RYR"}]}, {"destination": {"icao": "EKCH", "iata": "CPH", "name": "Copenhagen Kastrup", "shortName": "Kastrup", "municipalityName": "Copenhagen", "location": {"lat": 55.6179, "lon": 12.656}, "countryCode": "DK"}, "averageDailyFlights": 0.43, "operators": [{"name": "Jet Time A/S"}, {"name": "Sunclass Airlines", "iata": "DK", "icao": "VKG"}]}, {"destination": {"icao": "EFHK", "iata": "HEL", "name": "Helsinki Vantaa", "shortName": "Vantaa", "municipalityName": "Helsinki", "location": {"lat": 60.3172, "lon": 24.9633}, "countryCode": "FI"}, "averageDailyFlights": 0.43, "operators": [{"name": "Jet Time A/S"}, {"name": "Finnair", "iata": "AY", "icao": "FIN"}]}, {"destination": {"icao": "LFLL", "iata": "LYS", "name": "Lyon Saint-Exup\u00e9ry", "shortName": "Saint-Exup\u00e9ry", "municipalityName": "Lyon", "location": {"lat": 45.7264, "lon": 5.090829}, "countryCode": "FR"}, "averageDailyFlights": 0.43, "operators": [{"name": "easyJet", "iata": "U2", "icao": "EZY"}, {"name": "Volotea", "iata": "V7", "icao": "VOE"}]}, {"destination": {"icao": "EDDN", "iata": "NUE", "name": "Nuremberg ", "shortName": "Nuremberg", "municipalityName": "Nuremberg", "location": {"lat": 49.4987, "lon": 11.0669}, "countryCode": "DE"}, "averageDailyFlights": 0.43, "operators": [{"name": "Ryanair", "iata": "FR", "icao": "RYR"}, {"name": "Corendon Airlines Europe", "iata": "XR", "icao": "CXI"}]}, {"destination": {"icao": "LEVC", "iata": "VLC", "name": "Valencia ", "shortName": "Valencia", "municipalityName": "Valencia", "location": {"lat": 39.4893, "lon": -0.481624}, "countryCode": "ES"}, "averageDailyFlights": 0.43, "operators": [{"name": "Ryanair", "iata": "FR", "icao": "RYR"}]}, {"destination": {"icao": "LEAL", "iata": "ALC", "name": "Alicante ", "shortName": "Alicante", "municipalityName": "Alicante", "location": {"lat": 38.2822, "lon": -0.558156}, "countryCode": "ES"}, "averageDailyFlights": 0.29, "operators": [{"name": "Ryanair", "iata": "FR", "icao": "RYR"}]}, {"destination": {"icao": "LIPE", "iata": "BLQ", "name": "Bologna Guglielmo Marconi", "shortName": "Guglielmo Marconi", "municipalityName": "Bologna", "location": {"lat": 44.5354, "lon": 11.2887}, "countryCode": "IT"}, "averageDailyFlights": 0.29, "operators": [{"name": "Ryanair", "iata": "FR", "icao": "RYR"}]}, {"destination": {"icao": "EGHH", "iata": "BOH", "name": "Bournemouth ", "shortName": "Bournemouth", "municipalityName": "Bournemouth", "location": {"lat": 50.78, "lon": -1.842499}, "countryCode": "GB"}, "averageDailyFlights": 0.29, "operators": [{"name": "TUI Airways", "iata": "BY", "icao": "TOM"}, {"name": "Ryanair", "iata": "FR", "icao": "RYR"}]}, {"destination": {"icao": "EGFF", "iata": "CWL", "name": "Cardiff ", "shortName": "Cardiff", "municipalityName": "Cardiff", "location": {"lat": 51.3967, "lon": -3.343329}, "countryCode": "GB"}, "averageDailyFlights": 0.29, "operators": [{"name": "TUI Airways", "iata": "BY", "icao": "TOM"}]}, {"destination": {"icao": "EGTE", "iata": "EXT", "name": "Exeter ", "shortName": "Exeter", "municipalityName": "Exeter", "location": {"lat": 50.7344, "lon": -3.413889}, "countryCode": "GB"}, "averageDailyFlights": 0.29, "operators": [{"name": "TUI Airways", "iata": "BY", "icao": "TOM"}]}, {"destination": {"icao": "LPFR", "iata": "FAO", "name": "Faro ", "shortName": "Faro", "municipalityName": "Faro", "location": {"lat": 37.0144, "lon": -7.965909}, "countryCode": "PT"}, "averageDailyFlights": 0.29, "operators": [{"name": "British Airways", "iata": "BA", "icao": "BAW"}, {"name": "Finnair", "iata": "AY", "icao": "FIN"}]}, {"destination": {"icao": "GCFV", "iata": "FUE", "name": "Fuerteventura Island Fuerteventura", "shortName": "Fuerteventura", "municipalityName": "Fuerteventura Island", "location": {"lat": 28.4527, "lon": -13.8638}, "countryCode": "ES"}, "averageDailyFlights": 0.29, "operators": [{"name": "TUI Airlines Belgium", "iata": "TB", "icao": "JAF"}, {"name": "Corendon Airlines Europe", "iata": "XR", "icao": "CXI"}]}, {"destination": {"icao": "EGPK", "iata": "PIK", "name": "Glasgow Prestwick", "shortName": "Prestwick", "municipalityName": "Glasgow", "location": {"lat": 55.5094, "lon": -4.586669}, "countryCode": "GB"}, "averageDailyFlights": 0.29, "operators": [{"name": "Ryanair", "iata": "FR", "icao": "RYR"}]}, {"destination": {"icao": "EDDP", "iata": "LEJ", "name": "Leipzig Halle", "shortName": "Halle", "municipalityName": "Leipzig", "location": {"lat": 51.4324, "lon": 12.2416}, "countryCode": "DE"}, "averageDailyFlights": 0.29, "operators": [{"name": "Condor", "iata": "DE", "icao": "CFG"}]}, {"destination": {"icao": "LFQQ", "iata": "LIL", "name": "Lille/Lesquin Lille-Lesquin", "shortName": "Lille-Lesquin", "municipalityName": "Lille/Lesquin", "location": {"lat": 50.5619, "lon": 3.08944}, "countryCode": "FR"}, "averageDailyFlights": 0.29, "operators": [{"name": "Volotea", "iata": "V7", "icao": "VOE"}, {"name": "Enter Air", "iata": "E4", "icao": "ENT"}]}, {"destination": {"icao": "LFML", "iata": "MRS", "name": "Marseille Provence", "shortName": "Provence", "municipalityName": "Marseille", "location": {"lat": 43.43927, "lon": 5.221424}, "countryCode": "FR"}, "averageDailyFlights": 0.29, "operators": [{"name": "Ryanair", "iata": "FR", "icao": "RYR"}, {"name": "Volotea", "iata": "V7", "icao": "VOE"}]}, {"destination": {"icao": "LKPR", "iata": "PRG", "name": "Prague Ruzyn\u011b", "shortName": "Ruzyn\u011b", "municipalityName": "Prague", "location": {"lat": 50.1008, "lon": 14.26}, "countryCode": "CZ"}, "averageDailyFlights": 0.29, "operators": [{"name": "Smartwings Hungary Kft", "iata": "7O", "icao": "TVL"}, {"name": "SmartWings", "iata": "QS", "icao": "TVS"}]}, {"destination": {"icao": "LEAS", "iata": "OVD", "name": "Ran\u00f3n Asturias", "shortName": "Asturias", "municipalityName": "Ran\u00f3n", "location": {"lat": 43.5636, "lon": -6.034619}, "countryCode": "ES"}, "averageDailyFlights": 0.29, "operators": [{"name": "Volotea", "iata": "V7", "icao": "VOE"}, {"name": "Vueling", "iata": "VY", "icao": "VLG"}]}, {"destination": {"icao": "EHRD", "iata": "RTM", "name": "Rotterdam The Hague", "shortName": "The Hague", "municipalityName": "Rotterdam", "location": {"lat": 51.9569, "lon": 4.43722}, "countryCode": "NL"}, "averageDailyFlights": 0.29, "operators": [{"name": "TUI Airlines Nederland (Netherlands)", "iata": "OR", "icao": "TFL"}]}, {"destination": {"icao": "GCLA", "iata": "SPC", "name": "Sta Cruz de la Palma, La Palma Island La Palma", "shortName": "La Palma", "municipalityName": "Sta Cruz de la Palma, La Palma Island", "location": {"lat": 28.6265, "lon": -17.755598}, "countryCode": "ES"}, "averageDailyFlights": 0.29, "operators": [{"name": "Binter Canarias", "iata": "NT", "icao": "IBB"}]}, {"destination": {"icao": "LIMF", "iata": "TRN", "name": "Torino Turin", "shortName": "Turin", "municipalityName": "Torino", "location": {"lat": 45.2008, "lon": 7.64963}, "countryCode": "IT"}, "averageDailyFlights": 0.29, "operators": [{"name": "Ryanair", "iata": "FR", "icao": "RYR"}]}, {"destination": {"icao": "EPWA", "iata": "WAW", "name": "Warsaw Chopin", "shortName": "Chopin", "municipalityName": "Warsaw", "location": {"lat": 52.1657, "lon": 20.9671}, "countryCode": "PL"}, "averageDailyFlights": 0.29, "operators": [{"name": "Enter Air", "iata": "E4", "icao": "ENT"}]}, {"destination": {"icao": "LFOB", "iata": "BVA", "name": "Beauvais/Till\u00e9 Paris Beauvais Till\u00e9", "shortName": "Paris Beauvais Till\u00e9", "municipalityName": "Beauvais/Till\u00e9", "location": {"lat": 49.4544, "lon": 2.11278}, "countryCode": "FR"}, "averageDailyFlights": 0.14, "operators": [{"name": "Ryanair", "iata": "FR", "icao": "RYR"}]}, {"destination": {"icao": "ENBR", "iata": "BGO", "name": "Bergen Flesland", "shortName": "Flesland", "municipalityName": "Bergen", "location": {"lat": 60.2934, "lon": 5.21814}, "countryCode": "NO"}, "averageDailyFlights": 0.14, "operators": [{"name": "Wideroe", "iata": "WF", "icao": "WIF"}]}, {"destination": {"icao": "EKBI", "iata": "BLL", "name": "Billund ", "shortName": "Billund", "municipalityName": "Billund", "location": {"lat": 55.7403, "lon": 9.15178}, "countryCode": "DK"}, "averageDailyFlights": 0.14, "operators": [{"name": "Jet Time A/S"}]}, {"destination": {"icao": "LZIB", "iata": "BTS", "name": "Bratislava M. R. \u0160tef\u00e1nik", "shortName": "M. R. \u0160tef\u00e1nik", "municipalityName": "Bratislava", "location": {"lat": 48.1702, "lon": 17.2127}, "countryCode": "SK"}, "averageDailyFlights": 0.14, "operators": [{"name": "Ryanair", "iata": "FR", "icao": "RYR"}]}, {"destination": {"icao": "LHBP", "iata": "BUD", "name": "Budapest Ferenc Liszt", "shortName": "Ferenc Liszt", "municipalityName": "Budapest", "location": {"lat": 47.4369, "lon": 19.255598}, "countryCode": "HU"}, "averageDailyFlights": 0.14, "operators": [{"name": "Ryanair", "iata": "FR", "icao": "RYR"}]}, {"destination": {"icao": "EIKN", "iata": "NOC", "name": "Charleston Ireland West Knock", "shortName": "Ireland West Knock", "municipalityName": "Charleston", "location": {"lat": 53.9103, "lon": -8.81849}, "countryCode": "IE"}, "averageDailyFlights": 0.14, "operators": [{"name": "Ryanair", "iata": "FR", "icao": "RYR"}]}, {"destination": {"icao": "LSGG", "iata": "GVA", "name": "Geneva Cointrin", "shortName": "Cointrin", "municipalityName": "Geneva", "location": {"lat": 46.2381, "lon": 6.10895}, "countryCode": "CH"}, "averageDailyFlights": 0.14, "operators": [{"name": "easyJet", "iata": "U2", "icao": "EZY"}]}, {"destination": {"icao": "GMAG", "iata": "GLN", "name": "Goulimime ", "shortName": "Goulimime", "municipalityName": "Goulimime", "location": {"lat": 29.0267, "lon": -10.050299}, "countryCode": "MA"}, "averageDailyFlights": 0.14, "operators": [{"name": "Binter Canarias", "iata": "NT", "icao": "IBB"}]}, {"destination": {"icao": "EPKT", "iata": "KTW", "name": "Katowice ", "shortName": "Katowice", "municipalityName": "Katowice", "location": {"lat": 50.4743, "lon": 19.08}, "countryCode": "PL"}, "averageDailyFlights": 0.14, "operators": [{"name": "Enter Air", "iata": "E4", "icao": "ENT"}]}, {"destination": {"icao": "GCRR", "iata": "ACE", "name": "Lanzarote Island Lanzarote", "shortName": "Lanzarote", "municipalityName": "Lanzarote Island", "location": {"lat": 28.9455, "lon": -13.605199}, "countryCode": "ES"}, "averageDailyFlights": 0.14, "operators": [{"name": "TUIfly", "iata": "X3", "icao": "TUI"}]}, {"destination": {"icao": "EDJA", "iata": "FMM", "name": "Memmingen Allgau", "shortName": "Allgau", "municipalityName": "Memmingen", "location": {"lat": 47.9888, "lon": 10.2395}, "countryCode": "DE"}, "averageDailyFlights": 0.14, "operators": [{"name": "Ryanair", "iata": "FR", "icao": "RYR"}]}, {"destination": {"icao": "ENGM", "iata": "OSL", "name": "Oslo Gardermoen", "shortName": "Gardermoen", "municipalityName": "Oslo", "location": {"lat": 60.1939, "lon": 11.100399}, "countryCode": "NO"}, "averageDailyFlights": 0.14, "operators": [{"name": "Norwegian Air Shuttle", "iata": "DY", "icao": "NOZ"}]}, {"destination": {"icao": "LIRF", "iata": "FCO", "name": "Rome Leonardo da Vinci\u2013Fiumicino", "shortName": "Leonardo da Vinci\u2013Fiumicino", "municipalityName": "Rome", "location": {"lat": 41.8045, "lon": 12.2508}, "countryCode": "IT"}, "averageDailyFlights": 0.14, "operators": [{"name": "Ryanair", "iata": "FR", "icao": "RYR"}]}, {"destination": {"icao": "ESSA", "iata": "ARN", "name": "Stockholm -Arlanda", "shortName": "-Arlanda", "municipalityName": "Stockholm", "location": {"lat": 59.6519, "lon": 17.9186}, "countryCode": "SE"}, "averageDailyFlights": 0.14, "operators": [{"name": "TUIfly Nordic", "iata": "6B", "icao": "BLX"}]}, {"destination": {"icao": "LFBO", "iata": "TLS", "name": "Toulouse-Blagnac ", "shortName": "Toulouse-Blagnac", "municipalityName": "Toulouse-Blagnac", "location": {"lat": 43.6291, "lon": 1.363819}, "countryCode": "FR"}, "averageDailyFlights": 0.14, "operators": [{"name": "Volotea", "iata": "V7", "icao": "VOE"}]}, {"destination": {"icao": "LIPZ", "iata": "VCE", "name": "Venice Marco Polo", "shortName": "Marco Polo", "municipalityName": "Venice", "location": {"lat": 45.5053, "lon": 12.3519}, "countryCode": "IT"}, "averageDailyFlights": 0.14, "operators": [{"name": "Ryanair", "iata": "FR", "icao": "RYR"}]}, {"destination": {"icao": "LOWW", "iata": "VIE", "name": "Vienna Schwechat", "shortName": "Schwechat", "municipalityName": "Vienna", "location": {"lat": 48.1103, "lon": 16.5697}, "countryCode": "AT"}, "averageDailyFlights": 0.14, "operators": [{"name": "Ryanair", "iata": "FR", "icao": "RYR"}]}, {"destination": {"icao": "EPMO", "iata": "WMI", "name": "Warsaw Modlin", "shortName": "Modlin", "municipalityName": "Warsaw", "location": {"lat": 52.4511, "lon": 20.6518}, "countryCode": "PL"}, "averageDailyFlights": 0.14, "operators": [{"name": "Ryanair", "iata": "FR", "icao": "RYR"}]}, {"destination": {"icao": "EDLV", "iata": "NRN", "name": "Weeze Niederrhein", "shortName": "Niederrhein", "municipalityName": "Weeze", "location": {"lat": 51.6024, "lon": 6.142169}, "countryCode": "DE"}, "averageDailyFlights": 0.14, "operators": [{"name": "Ryanair", "iata": "FR", "icao": "RYR"}]}, {"destination": {"icao": "LDZA", "iata": "ZAG", "name": "Zagreb ", "shortName": "Zagreb", "municipalityName": "Zagreb", "location": {"lat": 45.7429, "lon": 16.068798}, "countryCode": "HR"}, "averageDailyFlights": 0.14, "operators": [{"name": "Ryanair", "iata": "FR", "icao": "RYR"}]}]}