{"routes": [{"destination": {"icao": "KDEN", "iata": "DEN", "name": "Denver ", "shortName": "Denver", "municipalityName": "Denver", "location": {"lat": 39.8617, "lon": -104.673}, "countryCode": "US"}, "averageDailyFlights": 2.14, "operators": [{"name": "United Airlines", "iata": "UA", "icao": "UAL"}]}, {"destination": {"icao": "KBIL", "iata": "BIL", "name": "Billings Metropolitan Area Billings Logan", "shortName": "Billings Logan", "municipalityName": "Billings Metropolitan Area", "location": {"lat": 45.8077, "lon": -108.543}, "countryCode": "US"}, "averageDailyFlights": 0.86, "operators": [{"name": "Alpine Air Express", "iata": "5A", "icao": "AIP"}]}, {"destination": {"icao": "KRAP", "iata": "RAP", "name": "Rapid City Regional", "shortName": "Regional", "municipalityName": "Rapid City", "location": {"lat": 44.0453, "lon": -103.057}, "countryCode": "US"}, "averageDailyFlights": 0.43, "operators": [{"name": "Libyan Airlines", "iata": "LN", "icao": "LAA"}]}, {"destination": {"icao": "KCPR", "iata": "CPR", "name": "Casper -Natrona County", "shortName": "-Natrona County", "municipalityName": "Casper", "location": {"lat": 42.908, "lon": -106.464}, "countryCode": "US"}, "averageDailyFlights": 0.29, "operators": [{"name": "Libyan Airlines", "iata": "LN", "icao": "LAA"}, {"name": "IJA"}]}, {"destination": {"icao": "KSHR", "iata": "SHR", "name": "Sheridan County", "shortName": "County", "municipalityName": "Sheridan", "location": {"lat": 44.7692, "lon": -106.98}, "countryCode": "US"}, "averageDailyFlights": 0.29, "operators": [{"name": "United Airlines", "iata": "UA", "icao": "UAL"}, {"name": "Alpine Air Express", "iata": "5A", "icao": "AIP"}]}, {"destination": {"icao": "KLND", "iata": "LND", "name": "Lander Hunt Field", "shortName": "Hunt Field", "municipalityName": "Lander", "location": {"lat": 42.8152, "lon": -108.73}, "countryCode": "US"}, "averageDailyFlights": 0.14, "operators": [{"name": "Libyan Airlines", "iata": "LN", "icao": "LAA"}]}, {"destination": {"icao": "KSLN", "iata": "SLN", "name": "Salina Municipal", "shortName": "Municipal", "municipalityName": "Salina", "location": {"lat": 38.791, "lon": -97.6522}, "countryCode": "US"}, "averageDailyFlights": 0.14, "operators": [{"name": "LXJ"}]}, {"destination": {"icao": "KSNA", "iata": "SNA", "name": "Santa Ana John Wayne -Orange County", "shortName": "John Wayne -Orange County", "municipalityName": "Santa Ana", "location": {"lat": 33.6757, "lon": -117.868}, "countryCode": "US"}, "averageDailyFlights": 0.14, "operators": [{"name": "Jet Linx Aviation", "iata": "JL", "icao": "JTL"}]}]}