{"routes": [{"destination": {"icao": "KIAH", "iata": "IAH", "name": "Houston George Bush", "shortName": "George Bush", "municipalityName": "Houston", "location": {"lat": 29.9844, "lon": -95.3414}, "countryCode": "US"}, "averageDailyFlights": 6.29, "operators": [{"name": "United Airlines", "iata": "UA", "icao": "UAL"}]}, {"destination": {"icao": "KHOU", "iata": "HOU", "name": "Houston William P Hobby", "shortName": "William P Hobby", "municipalityName": "Houston", "location": {"lat": 29.6454, "lon": -95.2789}, "countryCode": "US"}, "averageDailyFlights": 4.43, "operators": [{"name": "Southwest Airlines", "iata": "WN", "icao": "SWA"}]}, {"destination": {"icao": "KDFW", "iata": "DFW", "name": "Dallas-Fort Worth ", "shortName": "Dallas-Fort Worth", "municipalityName": "Dallas-Fort Worth", "location": {"lat": 32.8968, "lon": -97.038}, "countryCode": "US"}, "averageDailyFlights": 4.29, "operators": [{"name": "Envoy Air", "iata": "MQ", "icao": "ENY"}]}, {"destination": {"icao": "KAUS", "iata": "AUS", "name": "Austin Bergstrom", "shortName": "Bergstrom", "municipalityName": "Austin", "location": {"lat": 30.194498, "lon": -97.6699}, "countryCode": "US"}, "averageDailyFlights": 2.43, "operators": [{"name": "Southwest Airlines", "iata": "WN", "icao": "SWA"}, {"name": "LXJ"}]}, {"destination": {"icao": "KCVG", "iata": "CVG", "name": "Cincinnati Northern Kentucky", "shortName": "Northern Kentucky", "municipalityName": "Cincinnati", "location": {"lat": 39.0488, "lon": -84.6678}, "countryCode": "US"}, "averageDailyFlights": 1.57, "operators": [{"name": "KII"}]}, {"destination": {"icao": "KMSP", "iata": "MSP", "name": "Minneapolis Wold-Chamberlain", "shortName": "Wold-Chamberlain", "municipalityName": "Minneapolis", "location": {"lat": 44.882, "lon": -93.2218}, "countryCode": "US"}, "averageDailyFlights": 1.43, "operators": [{"name": "Delta Air Lines", "iata": "DL", "icao": "DAL"}, {"name": "Sun Country Airlines", "iata": "SY", "icao": "SCX"}]}, {"destination": {"icao": "KAEX", "iata": "AEX", "name": "Alexandria ", "shortName": "Alexandria", "municipalityName": "Alexandria", "location": {"lat": 31.3274, "lon": -92.5498}, "countryCode": "US"}, "averageDailyFlights": 0.71, "operators": [{"name": "iAero Airways", "iata": "WQ", "icao": "SWQ"}]}, {"destination": {"icao": "MHLM", "iata": "SAP", "name": "La Mesa Ram\u00f3n Villeda Morales", "shortName": "Ram\u00f3n Villeda Morales", "municipalityName": "La Mesa", "location": {"lat": 15.452599, "lon": -87.9236}, "countryCode": "HN"}, "averageDailyFlights": 0.29, "operators": [{"name": "iAero Airways", "iata": "WQ", "icao": "SWQ"}]}, {"destination": {"icao": "MSLP", "iata": "SAL", "name": "Santa Clara El Salvador", "shortName": "El Salvador", "municipalityName": "Santa Clara", "location": {"lat": 13.440899, "lon": -89.0557}, "countryCode": "SV"}, "averageDailyFlights": 0.29, "operators": [{"name": "iAero Airways", "iata": "WQ", "icao": "SWQ"}]}, {"destination": {"icao": "KTOL", "iata": "TOL", "name": "Toledo Express", "shortName": "Express", "municipalityName": "Toledo", "location": {"lat": 41.5868, "lon": -83.8078}, "countryCode": "US"}, "averageDailyFlights": 0.29, "operators": [{"name": "iAero Airways", "iata": "WQ", "icao": "SWQ"}]}, {"destination": {"icao": "KORD", "iata": "ORD", "name": "Chicago O'Hare", "shortName": "O'Hare", "municipalityName": "Chicago", "location": {"lat": 41.9786, "lon": -87.9048}, "countryCode": "US"}, "averageDailyFlights": 0.14, "operators": [{"name": "iAero Airways", "iata": "WQ", "icao": "SWQ"}]}, {"destination": {"icao": "KCSG", "iata": "CSG", "name": "Columbus Metropolitan", "shortName": "Metropolitan", "municipalityName": "Columbus", "location": {"lat": 32.5163, "lon": -84.9389}, "countryCode": "US"}, "averageDailyFlights": 0.14, "operators": [{"name": "iAero Airways", "iata": "WQ", "icao": "SWQ"}]}, {"destination": {"icao": "MWCR", "iata": "GCM", "name": "Georgetown Owen Roberts", "shortName": "Owen Roberts", "municipalityName": "Georgetown", "location": {"lat": 19.2928, "lon": -81.3577}, "countryCode": "KY"}, "averageDailyFlights": 0.14, "operators": [{"name": "LXJ"}]}, {"destination": {"icao": "MGGT", "iata": "GUA", "name": "Guatemala City La Aurora", "shortName": "La Aurora", "municipalityName": "Guatemala City", "location": {"lat": 14.583299, "lon": -90.5275}, "countryCode": "GT"}, "averageDailyFlights": 0.14, "operators": [{"name": "iAero Airways", "iata": "WQ", "icao": "SWQ"}]}, {"destination": {"icao": "KMDT", "iata": "MDT", "name": "Harrisburg ", "shortName": "Harrisburg", "municipalityName": "Harrisburg", "location": {"lat": 40.1935, "lon": -76.7634}, "countryCode": "US"}, "averageDailyFlights": 0.14, "operators": [{"name": "iAero Airways", "iata": "WQ", "icao": "SWQ"}]}, {"destination": {"icao": "KLRD", "iata": "LRD", "name": "Laredo ", "shortName": "Laredo", "municipalityName": "Laredo", "location": {"lat": 27.5438, "lon": -99.4616}, "countryCode": "US"}, "averageDailyFlights": 0.14, "operators": [{"name": "iAero Airways", "iata": "WQ", "icao": "SWQ"}]}, {"destination": {"icao": "KMIA", "iata": "MIA", "name": "Miami ", "shortName": "Miami", "municipalityName": "Miami", "location": {"lat": 25.7932, "lon": -80.2906}, "countryCode": "US"}, "averageDailyFlights": 0.14, "operators": [{"name": "GXA"}]}, {"destination": {"icao": "KICT", "iata": "ICT", "name": "Wichita Mid Continent", "shortName": "Mid Continent", "municipalityName": "Wichita", "location": {"lat": 37.6499, "lon": -97.4331}, "countryCode": "US"}, "averageDailyFlights": 0.14, "operators": [{"name": "iAero Airways", "iata": "WQ", "icao": "SWQ"}]}]}