{"routes": [{"destination": {"icao": "KSFO", "iata": "SFO", "name": "San Francisco ", "shortName": "San Francisco", "municipalityName": "San Francisco", "location": {"lat": 37.619, "lon": -122.375}, "countryCode": "US"}, "averageDailyFlights": 1.29, "operators": [{"name": "United Airlines", "iata": "UA", "icao": "UAL"}, {"name": "NetJets Aviation", "iata": "1I", "icao": "EJA"}]}, {"destination": {"icao": "KCVO", "iata": "CVO", "name": "Corvallis Municipal", "shortName": "Municipal", "municipalityName": "Corvallis", "location": {"lat": 44.4972, "lon": -123.29}, "countryCode": "US"}, "averageDailyFlights": 0.86, "operators": [{"name": "Ameriflight", "iata": "A8", "icao": "AMF"}]}, {"destination": {"icao": "KSLE", "iata": "SLE", "name": "Salem McNary Field", "shortName": "McNary Field", "municipalityName": "Salem", "location": {"lat": 44.9095, "lon": -123.003}, "countryCode": "US"}, "averageDailyFlights": 0.86, "operators": [{"name": "Empire Airlines", "iata": "EM", "icao": "CFS"}]}, {"destination": {"icao": "KCCR", "iata": "CCR", "name": "Concord Buchanan Field", "shortName": "Buchanan Field", "municipalityName": "Concord", "location": {"lat": 37.9897, "lon": -122.057}, "countryCode": "US"}, "averageDailyFlights": 0.57, "operators": [{"name": "XSN"}]}, {"destination": {"icao": "KPDX", "iata": "PDX", "name": "Portland ", "shortName": "Portland", "municipalityName": "Portland", "location": {"lat": 45.5887, "lon": -122.598}, "countryCode": "US"}, "averageDailyFlights": 0.43, "operators": [{"name": "Ameriflight", "iata": "A8", "icao": "AMF"}, {"name": "REH"}]}, {"destination": {"icao": "CYYC", "iata": "YYC", "name": "Calgary ", "shortName": "Calgary", "municipalityName": "Calgary", "location": {"lat": 51.1139, "lon": -114.02}, "countryCode": "CA"}, "averageDailyFlights": 0.29, "operators": [{"name": "SUT"}]}, {"destination": {"icao": "KLNS", "iata": "LNS", "name": "Lancaster ", "shortName": "Lancaster", "municipalityName": "Lancaster", "location": {"lat": 40.1217, "lon": -76.2961}, "countryCode": "US"}, "averageDailyFlights": 0.29, "operators": [{"name": "My Jet Xpress Airlines", "iata": "N7", "icao": "NEP"}]}, {"destination": {"icao": "KOAK", "iata": "OAK", "name": "Oakland Metropolitan", "shortName": "Metropolitan", "municipalityName": "Oakland", "location": {"lat": 37.7213, "lon": -122.221}, "countryCode": "US"}, "averageDailyFlights": 0.29, "operators": [{"name": "JRE"}]}, {"destination": {"icao": "KALW", "iata": "ALW", "name": "Walla Walla Regional", "shortName": "Regional", "municipalityName": "Walla Walla", "location": {"lat": 46.0949, "lon": -118.288}, "countryCode": "US"}, "averageDailyFlights": 0.29, "operators": [{"name": "XSN"}]}, {"destination": {"icao": "KEUG", "iata": "EUG", "name": "Eugene Mahlon Sweet Field", "shortName": "Mahlon Sweet Field", "municipalityName": "Eugene", "location": {"lat": 44.1246, "lon": -123.212}, "countryCode": "US"}, "averageDailyFlights": 0.14, "operators": [{"name": "APC"}]}, {"destination": {"icao": "KSUN", "iata": "SUN", "name": "Hailey Friedman Memorial", "shortName": "Friedman Memorial", "municipalityName": "Hailey", "location": {"lat": 43.5044, "lon": -114.296}, "countryCode": "US"}, "averageDailyFlights": 0.14, "operators": [{"name": "STT"}]}, {"destination": {"icao": "KRBG", "iata": "RBG", "name": "Roseburg Regional", "shortName": "Regional", "municipalityName": "Roseburg", "location": {"lat": 43.2388, "lon": -123.356}, "countryCode": "US"}, "averageDailyFlights": 0.14, "operators": [{"name": "Empire Airlines", "iata": "EM", "icao": "CFS"}]}, {"destination": {"icao": "KSLC", "iata": "SLC", "name": "Salt Lake City ", "shortName": "Salt Lake City", "municipalityName": "Salt Lake City", "location": {"lat": 40.7884, "lon": -111.978}, "countryCode": "US"}, "averageDailyFlights": 0.14, "operators": [{"name": "STT"}]}, {"destination": {"icao": "KSDL", "iata": "SCF", "name": "Scottsdale ", "shortName": "Scottsdale", "municipalityName": "Scottsdale", "location": {"lat": 33.6229, "lon": -111.911}, "countryCode": "US"}, "averageDailyFlights": 0.14, "operators": [{"name": "NetJets Aviation", "iata": "1I", "icao": "EJA"}]}]}