{"routes": [{"destination": {"icao": "KDEN", "iata": "DEN", "name": "Denver ", "shortName": "Denver", "municipalityName": "Denver", "location": {"lat": 39.8617, "lon": -104.673}, "countryCode": "US"}, "averageDailyFlights": 2.14, "operators": [{"name": "United Airlines", "iata": "UA", "icao": "UAL"}]}, {"destination": {"icao": "KBIL", "iata": "BIL", "name": "Billings Metropolitan Area Billings Logan", "shortName": "Billings Logan", "municipalityName": "Billings Metropolitan Area", "location": {"lat": 45.8077, "lon": -108.543}, "countryCode": "US"}, "averageDailyFlights": 1.29, "operators": [{"name": "RCA"}, {"name": "Alpine Air Express", "iata": "5A", "icao": "AIP"}]}, {"destination": {"icao": "KCPR", "iata": "CPR", "name": "Casper -Natrona County", "shortName": "-Natrona County", "municipalityName": "Casper", "location": {"lat": 42.908, "lon": -106.464}, "countryCode": "US"}, "averageDailyFlights": 0.43, "operators": [{"name": "OTA"}]}, {"destination": {"icao": "KSNA", "iata": "SNA", "name": "Santa Ana John Wayne -Orange County", "shortName": "John Wayne -Orange County", "municipalityName": "Santa Ana", "location": {"lat": 33.6757, "lon": -117.868}, "countryCode": "US"}, "averageDailyFlights": 0.43, "operators": [{"name": "OTA"}]}, {"destination": {"icao": "KBLI", "iata": "BLI", "name": "Bellingham ", "shortName": "Bellingham", "municipalityName": "Bellingham", "location": {"lat": 48.7928, "lon": -122.538}, "countryCode": "US"}, "averageDailyFlights": 0.14, "operators": [{"name": "NetJets Aviation", "iata": "1I", "icao": "EJA"}]}, {"destination": {"icao": "KLBB", "iata": "LBB", "name": "Lubbock Preston Smith", "shortName": "Preston Smith", "municipalityName": "Lubbock", "location": {"lat": 33.6636, "lon": -101.823}, "countryCode": "US"}, "averageDailyFlights": 0.14, "operators": [{"name": "NetJets Aviation", "iata": "1I", "icao": "EJA"}]}]}