{"routes": [{"destination": {"icao": "KJFK", "iata": "JFK", "name": "New York John F Kennedy", "shortName": "John F Kennedy", "municipalityName": "New York", "location": {"lat": 40.6398, "lon": -73.7789}, "countryCode": "US"}, "averageDailyFlights": 5.86, "operators": [{"name": "Delta Air Lines", "iata": "DL", "icao": "DAL"}, {"name": "JetBlue Airways", "iata": "B6", "icao": "JBU"}]}, {"destination": {"icao": "KORD", "iata": "ORD", "name": "Chicago O'Hare", "shortName": "O'Hare", "municipalityName": "Chicago", "location": {"lat": 41.9786, "lon": -87.9048}, "countryCode": "US"}, "averageDailyFlights": 5.71, "operators": [{"name": "United Airlines", "iata": "UA", "icao": "UAL"}, {"name": "Envoy Air", "iata": "MQ", "icao": "ENY"}]}, {"destination": {"icao": "KDTW", "iata": "DTW", "name": "Detroit Metropolitan Wayne County", "shortName": "Metropolitan Wayne County", "municipalityName": "Detroit", "location": {"lat": 42.2124, "lon": -83.3534}, "countryCode": "US"}, "averageDailyFlights": 3.71, "operators": [{"name": "Delta Air Lines", "iata": "DL", "icao": "DAL"}]}, {"destination": {"icao": "KEWR", "iata": "EWR", "name": "Newark Liberty", "shortName": "Liberty", "municipalityName": "Newark", "location": {"lat": 40.6925, "lon": -74.1687}, "countryCode": "US"}, "averageDailyFlights": 3.57, "operators": [{"name": "United Airlines", "iata": "UA", "icao": "UAL"}]}, {"destination": {"icao": "KBWI", "iata": "BWI", "name": "Baltimore Washington  Thurgood Marshall", "shortName": "Washington  Thurgood Marshall", "municipalityName": "Baltimore", "location": {"lat": 39.1754, "lon": -76.6683}, "countryCode": "US"}, "averageDailyFlights": 3.29, "operators": [{"name": "Southwest Airlines", "iata": "WN", "icao": "SWA"}]}, {"destination": {"icao": "KCLT", "iata": "CLT", "name": "Charlotte Douglas", "shortName": "Douglas", "municipalityName": "Charlotte", "location": {"lat": 35.214, "lon": -80.9431}, "countryCode": "US"}, "averageDailyFlights": 3.29, "operators": [{"name": "American Airlines", "iata": "AA", "icao": "AAL"}]}, {"destination": {"icao": "KDCA", "iata": "DCA", "name": "District of Columbia Ronald Reagan Washington National", "shortName": "Ronald Reagan Washington National", "municipalityName": "District of Columbia", "location": {"lat": 38.8521, "lon": -77.0377}, "countryCode": "US"}, "averageDailyFlights": 3.29, "operators": [{"name": "American Airlines", "iata": "AA", "icao": "AAL"}]}, {"destination": {"icao": "KMCO", "iata": "MCO", "name": "Orlando ", "shortName": "Orlando", "municipalityName": "Orlando", "location": {"lat": 28.4294, "lon": -81.309}, "countryCode": "US"}, "averageDailyFlights": 3.29, "operators": [{"name": "Frontier Airlines", "iata": "F9", "icao": "FFT"}, {"name": "Southwest Airlines", "iata": "WN", "icao": "SWA"}, {"name": "JetBlue Airways", "iata": "B6", "icao": "JBU"}]}, {"destination": {"icao": "KIAD", "iata": "IAD", "name": "District of Columbia Washington Dulles", "shortName": "Washington Dulles", "municipalityName": "District of Columbia", "location": {"lat": 38.9445, "lon": -77.4558}, "countryCode": "US"}, "averageDailyFlights": 2.86, "operators": [{"name": "LXJ"}, {"name": "STY"}, {"name": "United Airlines", "iata": "UA", "icao": "UAL"}]}, {"destination": {"icao": "KPHL", "iata": "PHL", "name": "Philadelphia ", "shortName": "Philadelphia", "municipalityName": "Philadelphia", "location": {"lat": 39.8719, "lon": -75.2411}, "countryCode": "US"}, "averageDailyFlights": 2.57, "operators": [{"name": "American Airlines", "iata": "AA", "icao": "AAL"}, {"name": "NetJets Aviation", "iata": "1I", "icao": "EJA"}]}, {"destination": {"icao": "KATL", "iata": "ATL", "name": "Atlanta Hartsfield Jackson", "shortName": "Hartsfield Jackson", "municipalityName": "Atlanta", "location": {"lat": 33.6367, "lon": -84.4281}, "countryCode": "US"}, "averageDailyFlights": 2.43, "operators": [{"name": "Delta Air Lines", "iata": "DL", "icao": "DAL"}]}, {"destination": {"icao": "KBOS", "iata": "BOS", "name": "Boston General Edward Lawrence Logan", "shortName": "General Edward Lawrence Logan", "municipalityName": "Boston", "location": {"lat": 42.3643, "lon": -71.0052}, "countryCode": "US"}, "averageDailyFlights": 2.43, "operators": [{"name": "JetBlue Airways", "iata": "B6", "icao": "JBU"}, {"name": "American Airlines", "iata": "AA", "icao": "AAL"}, {"name": "NetJets Aviation", "iata": "1I", "icao": "EJA"}, {"name": "Delta Air Lines", "iata": "DL", "icao": "DAL"}]}, {"destination": {"icao": "KTEB", "iata": "TEB", "name": "Teterboro ", "shortName": "Teterboro", "municipalityName": "Teterboro", "location": {"lat": 40.8501, "lon": -74.0608}, "countryCode": "US"}, "averageDailyFlights": 2.0, "operators": [{"name": "NetJets Aviation", "iata": "1I", "icao": "EJA"}, {"name": "STY"}, {"name": "FWK"}, {"name": "PJC"}, {"name": "FFL"}]}, {"destination": {"icao": "KDFW", "iata": "DFW", "name": "Dallas-Fort Worth ", "shortName": "Dallas-Fort Worth", "municipalityName": "Dallas-Fort Worth", "location": {"lat": 32.8968, "lon": -97.038}, "countryCode": "US"}, "averageDailyFlights": 1.14, "operators": [{"name": "American Airlines", "iata": "AA", "icao": "AAL"}]}, {"destination": {"icao": "KDEN", "iata": "DEN", "name": "Denver ", "shortName": "Denver", "municipalityName": "Denver", "location": {"lat": 39.8617, "lon": -104.673}, "countryCode": "US"}, "averageDailyFlights": 1.14, "operators": [{"name": "United Airlines", "iata": "UA", "icao": "UAL"}]}, {"destination": {"icao": "KROC", "iata": "ROC", "name": "Rochester Greater", "shortName": "Greater", "municipalityName": "Rochester", "location": {"lat": 43.1189, "lon": -77.6724}, "countryCode": "US"}, "averageDailyFlights": 0.86, "operators": [{"name": "LBQ"}]}, {"destination": {"icao": "KBNA", "iata": "BNA", "name": "Nashville ", "shortName": "Nashville", "municipalityName": "Nashville", "location": {"lat": 36.1245, "lon": -86.6782}, "countryCode": "US"}, "averageDailyFlights": 0.71, "operators": [{"name": "Allegiant Air", "iata": "G4", "icao": "AAY"}, {"name": "STY"}]}, {"destination": {"icao": "KLAS", "iata": "LAS", "name": "Las Vegas McCarran", "shortName": "McCarran", "municipalityName": "Las Vegas", "location": {"lat": 36.0801, "lon": -115.152}, "countryCode": "US"}, "averageDailyFlights": 0.57, "operators": [{"name": "Breeze Airways", "iata": "MX", "icao": "MXY"}, {"name": "STY"}]}, {"destination": {"icao": "KPIE", "iata": "PIE", "name": "St Petersburg-Clearwater St Petersburg Clearwater", "shortName": "St Petersburg Clearwater", "municipalityName": "St Petersburg-Clearwater", "location": {"lat": 27.9102, "lon": -82.6874}, "countryCode": "US"}, "averageDailyFlights": 0.57, "operators": [{"name": "Allegiant Air", "iata": "G4", "icao": "AAY"}]}, {"destination": {"icao": "KBED", "iata": "BED", "name": "Bedford Laurence G Hanscom Field", "shortName": "Laurence G Hanscom Field", "municipalityName": "Bedford", "location": {"lat": 42.47, "lon": -71.289}, "countryCode": "US"}, "averageDailyFlights": 0.43, "operators": [{"name": "TWY"}, {"name": "EJM"}]}, {"destination": {"icao": "KLUK", "iata": "LUK", "name": "Cincinnati Municipal  Lunken Field", "shortName": "Municipal  Lunken Field", "municipalityName": "Cincinnati", "location": {"lat": 39.1033, "lon": -84.4186}, "countryCode": "US"}, "averageDailyFlights": 0.43, "operators": [{"name": "NetJets Aviation", "iata": "1I", "icao": "EJA"}, {"name": "EDG"}]}, {"destination": {"icao": "KAPF", "iata": "APF", "name": "Naples Municipal", "shortName": "Municipal", "municipalityName": "Naples", "location": {"lat": 26.1526, "lon": -81.7753}, "countryCode": "US"}, "averageDailyFlights": 0.43, "operators": [{"name": "STY"}]}, {"destination": {"icao": "KTPA", "iata": "TPA", "name": "Tampa ", "shortName": "Tampa", "municipalityName": "Tampa", "location": {"lat": 27.9755, "lon": -82.5332}, "countryCode": "US"}, "averageDailyFlights": 0.43, "operators": [{"name": "Breeze Airways", "iata": "MX", "icao": "MXY"}, {"name": "Southwest Airlines", "iata": "WN", "icao": "SWA"}]}, {"destination": {"icao": "KHPN", "iata": "HPN", "name": "White Plains Westchester County", "shortName": "Westchester County", "municipalityName": "White Plains", "location": {"lat": 41.067, "lon": -73.7076}, "countryCode": "US"}, "averageDailyFlights": 0.43, "operators": [{"name": "NetJets Aviation", "iata": "1I", "icao": "EJA"}, {"name": "VJA"}]}, {"destination": {"icao": "KCHS", "iata": "CHS", "name": "Charleston Air Force Base-", "shortName": "Air Force Base-", "municipalityName": "Charleston", "location": {"lat": 32.8986, "lon": -80.0405}, "countryCode": "US"}, "averageDailyFlights": 0.29, "operators": [{"name": "Breeze Airways", "iata": "MX", "icao": "MXY"}]}, {"destination": {"icao": "KMDW", "iata": "MDW", "name": "Chicago Midway", "shortName": "Midway", "municipalityName": "Chicago", "location": {"lat": 41.786, "lon": -87.7524}, "countryCode": "US"}, "averageDailyFlights": 0.29, "operators": [{"name": "STY"}]}, {"destination": {"icao": "KCLE", "iata": "CLE", "name": "Cleveland Hopkins", "shortName": "Hopkins", "municipalityName": "Cleveland", "location": {"lat": 41.4117, "lon": -81.8498}, "countryCode": "US"}, "averageDailyFlights": 0.29, "operators": [{"name": "ERY"}, {"name": "NetJets Aviation", "iata": "1I", "icao": "EJA"}]}, {"destination": {"icao": "KFLL", "iata": "FLL", "name": "Fort Lauderdale Hollywood", "shortName": "Hollywood", "municipalityName": "Fort Lauderdale", "location": {"lat": 26.0726, "lon": -80.1527}, "countryCode": "US"}, "averageDailyFlights": 0.29, "operators": [{"name": "Allegiant Air", "iata": "G4", "icao": "AAY"}]}, {"destination": {"icao": "KHGR", "iata": "HGR", "name": "Hagerstown Regional Richard A Henson Field", "shortName": "Regional Richard A Henson Field", "municipalityName": "Hagerstown", "location": {"lat": 39.7079, "lon": -77.7295}, "countryCode": "US"}, "averageDailyFlights": 0.29, "operators": [{"name": "Vuela El Salvador", "iata": "N3", "icao": "VOS"}]}, {"destination": {"icao": "KHYA", "iata": "HYA", "name": "Hyannis Barnstable Municipal Boardman Polando Field", "shortName": "Barnstable Municipal Boardman Polando Field", "municipalityName": "Hyannis", "location": {"lat": 41.6693, "lon": -70.2804}, "countryCode": "US"}, "averageDailyFlights": 0.29, "operators": [{"name": "STY"}]}, {"destination": {"icao": "KSWF", "iata": "SWF", "name": "Newburgh Stewart", "shortName": "Stewart", "municipalityName": "Newburgh", "location": {"lat": 41.5041, "lon": -74.1048}, "countryCode": "US"}, "averageDailyFlights": 0.29, "operators": [{"name": "STY"}, {"name": "XSR"}]}, {"destination": {"icao": "KIAG", "iata": "IAG", "name": "Niagara Falls ", "shortName": "Niagara Falls", "municipalityName": "Niagara Falls", "location": {"lat": 43.1073, "lon": -78.9462}, "countryCode": "US"}, "averageDailyFlights": 0.29, "operators": [{"name": "LBQ"}]}, {"destination": {"icao": "KSFB", "iata": "SFB", "name": "Orlando Sanford", "shortName": "Sanford", "municipalityName": "Orlando", "location": {"lat": 28.7776, "lon": -81.2375}, "countryCode": "US"}, "averageDailyFlights": 0.29, "operators": [{"name": "Allegiant Air", "iata": "G4", "icao": "AAY"}]}, {"destination": {"icao": "KRDU", "iata": "RDU", "name": "Raleigh/Durham Raleigh Durham", "shortName": "Raleigh Durham", "municipalityName": "Raleigh/Durham", "location": {"lat": 35.8776, "lon": -78.7875}, "countryCode": "US"}, "averageDailyFlights": 0.29, "operators": [{"name": "Frontier Airlines", "iata": "F9", "icao": "FFT"}]}, {"destination": {"icao": "KSRQ", "iata": "SRQ", "name": "Sarasota/Bradenton Sarasota Bradenton", "shortName": "Sarasota Bradenton", "municipalityName": "Sarasota/Bradenton", "location": {"lat": 27.3954, "lon": -82.5544}, "countryCode": "US"}, "averageDailyFlights": 0.29, "operators": [{"name": "Allegiant Air", "iata": "G4", "icao": "AAY"}]}, {"destination": {"icao": "KTOL", "iata": "TOL", "name": "Toledo Express", "shortName": "Express", "municipalityName": "Toledo", "location": {"lat": 41.5868, "lon": -83.8078}, "countryCode": "US"}, "averageDailyFlights": 0.29, "operators": [{"name": "JCY"}]}, {"destination": {"icao": "KAUS", "iata": "AUS", "name": "Austin Bergstrom", "shortName": "Bergstrom", "municipalityName": "Austin", "location": {"lat": 30.194498, "lon": -97.6699}, "countryCode": "US"}, "averageDailyFlights": 0.14, "operators": [{"name": "Jet Linx Aviation", "iata": "JL", "icao": "JTL"}]}, {"destination": {"icao": "KBKL", "iata": "BKL", "name": "Cleveland Burke Lakefront", "shortName": "Burke Lakefront", "municipalityName": "Cleveland", "location": {"lat": 41.5175, "lon": -81.6833}, "countryCode": "US"}, "averageDailyFlights": 0.14, "operators": [{"name": "NUS"}]}, {"destination": {"icao": "KFRG", "iata": "FRG", "name": "Farmingdale Republic", "shortName": "Republic", "municipalityName": "Farmingdale", "location": {"lat": 40.7288, "lon": -73.4134}, "countryCode": "US"}, "averageDailyFlights": 0.14, "operators": [{"name": "LXJ"}]}, {"destination": {"icao": "KGON", "iata": "GON", "name": "Groton (New London) Groton New London", "shortName": "Groton New London", "municipalityName": "Groton (New London)", "location": {"lat": 41.3301, "lon": -72.0451}, "countryCode": "US"}, "averageDailyFlights": 0.14, "operators": [{"name": "Tradewind Aviation", "iata": "TJ", "icao": "GPD"}]}, {"destination": {"icao": "KHXD", "iata": "HHH", "name": "Hilton Head ", "shortName": "Hilton Head", "municipalityName": "Hilton Head", "location": {"lat": 32.2244, "lon": -80.6975}, "countryCode": "US"}, "averageDailyFlights": 0.14, "operators": [{"name": "NUS"}]}, {"destination": {"icao": "KMSS", "iata": "MSS", "name": "Massena Richards Field", "shortName": "Richards Field", "municipalityName": "Massena", "location": {"lat": 44.9358, "lon": -74.8456}, "countryCode": "US"}, "averageDailyFlights": 0.14, "operators": [{"name": "CVU"}]}, {"destination": {"icao": "KMMU", "iata": "MMU", "name": "Morristown Municipal", "shortName": "Municipal", "municipalityName": "Morristown", "location": {"lat": 40.7994, "lon": -74.4149}, "countryCode": "US"}, "averageDailyFlights": 0.14, "operators": [{"name": "JRE"}]}, {"destination": {"icao": "KORF", "iata": "ORF", "name": "Norfolk ", "shortName": "Norfolk", "municipalityName": "Norfolk", "location": {"lat": 36.8946, "lon": -76.2012}, "countryCode": "US"}, "averageDailyFlights": 0.14, "operators": [{"name": "NetJets Aviation", "iata": "1I", "icao": "EJA"}]}, {"destination": {"icao": "KPIT", "iata": "PIT", "name": "Pittsburgh ", "shortName": "Pittsburgh", "municipalityName": "Pittsburgh", "location": {"lat": 40.4915, "lon": -80.2329}, "countryCode": "US"}, "averageDailyFlights": 0.14, "operators": [{"name": "STY"}]}, {"destination": {"icao": "KPSM", "iata": "PSM", "name": "Portsmouth at Pease", "shortName": "at Pease", "municipalityName": "Portsmouth", "location": {"lat": 43.0779, "lon": -70.8233}, "countryCode": "US"}, "averageDailyFlights": 0.14, "operators": [{"name": "CNS"}]}, {"destination": {"icao": "KPBI", "iata": "PBI", "name": "West Palm Beach Palm Beach", "shortName": "Palm Beach", "municipalityName": "West Palm Beach", "location": {"lat": 26.6832, "lon": -80.0956}, "countryCode": "US"}, "averageDailyFlights": 0.14, "operators": [{"name": "DPJ"}]}]}