{"routes": [{"destination": {"icao": "EGGW", "iata": "LTN", "name": "London Luton", "shortName": "Luton", "municipalityName": "London", "location": {"lat": 51.8747, "lon": -0.368333}, "countryCode": "GB"}, "averageDailyFlights": 2.0, "operators": [{"name": "Wizz Air UK", "iata": "W9", "icao": "WUK"}]}, {"destination": {"icao": "LROP", "iata": "OTP", "name": "Bucharest Henri Coand\u0103", "shortName": "Henri Coand\u0103", "municipalityName": "Bucharest", "location": {"lat": 44.5722, "lon": 26.1022}, "countryCode": "RO"}, "averageDailyFlights": 1.43, "operators": [{"name": "TAROM", "iata": "RO", "icao": "ROT"}]}, {"destination": {"icao": "LIMC", "iata": "MXP", "name": "Milan Malpensa", "shortName": "Malpensa", "municipalityName": "Milan", "location": {"lat": 45.6306, "lon": 8.72811}, "countryCode": "IT"}, "averageDailyFlights": 0.57, "operators": [{"name": "Wizz Air Malta", "iata": "W4", "icao": "WMT"}]}, {"destination": {"icao": "LIRF", "iata": "FCO", "name": "Rome Leonardo da Vinci\u2013Fiumicino", "shortName": "Leonardo da Vinci\u2013Fiumicino", "municipalityName": "Rome", "location": {"lat": 41.8045, "lon": 12.2508}, "countryCode": "IT"}, "averageDailyFlights": 0.57, "operators": [{"name": "Wizz Air Malta", "iata": "W4", "icao": "WMT"}]}, {"destination": {"icao": "EDDK", "iata": "CGN", "name": "Cologne Bonn", "shortName": "Bonn", "municipalityName": "Cologne", "location": {"lat": 50.8659, "lon": 7.142739}, "countryCode": "DE"}, "averageDailyFlights": 0.29, "operators": [{"name": "Wizz Air"}]}, {"destination": {"icao": "EDJA", "iata": "FMM", "name": "Memmingen Allgau", "shortName": "Allgau", "municipalityName": "Memmingen", "location": {"lat": 47.9888, "lon": 10.2395}, "countryCode": "DE"}, "averageDailyFlights": 0.29, "operators": [{"name": "Wizz Air Malta", "iata": "W4", "icao": "WMT"}]}, {"destination": {"icao": "HESH", "iata": "SSH", "name": "Sharm el Sheikh ", "shortName": "Sharm el Sheikh", "municipalityName": "Sharm el Sheikh", "location": {"lat": 27.9773, "lon": 34.395}, "countryCode": "EG"}, "averageDailyFlights": 0.14, "operators": [{"name": "Aura Airlines"}]}]}