{"routes": [{"destination": {"icao": "MMMX", "iata": "MEX", "name": "Mexico City Licenciado Benito Juarez", "shortName": "Licenciado Benito Juarez", "municipalityName": "Mexico City", "location": {"lat": 19.4363, "lon": -99.0721}, "countryCode": "MX"}, "averageDailyFlights": 6.14, "operators": [{"name": "Aeromexico", "iata": "AM", "icao": "AMX"}, {"name": "VivaAerobus", "iata": "VB", "icao": "VIV"}]}, {"destination": {"icao": "MMMY", "iata": "MTY", "name": "Monterrey General Mariano Escobedo", "shortName": "General Mariano Escobedo", "municipalityName": "Monterrey", "location": {"lat": 25.7785, "lon": -100.107}, "countryCode": "MX"}, "averageDailyFlights": 1.86, "operators": [{"name": "VivaAerobus", "iata": "VB", "icao": "VIV"}, {"name": "TAR Aerolineas", "iata": "YQ", "icao": "LCT"}]}, {"destination": {"icao": "KIAH", "iata": "IAH", "name": "Houston George Bush", "shortName": "George Bush", "municipalityName": "Houston", "location": {"lat": 29.9844, "lon": -95.3414}, "countryCode": "US"}, "averageDailyFlights": 1.0, "operators": [{"name": "United Airlines", "iata": "UA", "icao": "UAL"}]}, {"destination": {"icao": "MMCE", "iata": "CME", "name": "Ciudad del Carmen ", "shortName": "Ciudad del Carmen", "municipalityName": "Ciudad del Carmen", "location": {"lat": 18.6537, "lon": -91.799}, "countryCode": "MX"}, "averageDailyFlights": 0.86, "operators": [{"name": "TAR Aerolineas", "iata": "YQ", "icao": "LCT"}]}, {"destination": {"icao": "MMUN", "iata": "CUN", "name": "Canc\u00fan ", "shortName": "Canc\u00fan", "municipalityName": "Canc\u00fan", "location": {"lat": 21.0365, "lon": -86.8771}, "countryCode": "MX"}, "averageDailyFlights": 0.43, "operators": [{"name": "VivaAerobus", "iata": "VB", "icao": "VIV"}]}]}