{"routes": [{"destination": {"icao": "RKPC", "iata": "CJU", "name": "Jeju City Jeju", "shortName": "Jeju", "municipalityName": "Jeju City", "location": {"lat": 33.5113, "lon": 126.493}, "countryCode": "KR"}, "averageDailyFlights": 99.14, "operators": [{"name": "Asiana Airlines", "iata": "OZ", "icao": "AAR"}, {"name": "Air Busan", "iata": "BX", "icao": "ABL"}, {"name": "Korean Air", "iata": "KE", "icao": "KAL"}, {"name": "Jeju Air", "iata": "7C", "icao": "JJA"}, {"name": "EASTAR JET", "iata": "ZE", "icao": "ESR"}, {"name": "Jin Air", "iata": "LJ", "icao": "JNA"}, {"name": "Air Seoul", "iata": "RS", "icao": "ASV"}]}, {"destination": {"icao": "RKPK", "iata": "PUS", "name": "Busan-si Gimhae", "shortName": "Gimhae", "municipalityName": "Busan-si", "location": {"lat": 35.1795, "lon": 128.938}, "countryCode": "KR"}, "averageDailyFlights": 25.29, "operators": [{"name": "Korean Air", "iata": "KE", "icao": "KAL"}, {"name": "Jeju Air", "iata": "7C", "icao": "JJA"}, {"name": "Air Busan", "iata": "BX", "icao": "ABL"}, {"name": "Jin Air", "iata": "LJ", "icao": "JNA"}]}, {"destination": {"icao": "RJTT", "iata": "HND", "name": "Tokyo ", "shortName": "Tokyo", "municipalityName": "Tokyo", "location": {"lat": 35.5523, "lon": 139.78}, "countryCode": "JP"}, "averageDailyFlights": 13.43, "operators": [{"name": "ANA", "iata": "NH", "icao": "ANA"}, {"name": "JAL", "iata": "JL", "icao": "JAL"}, {"name": "Asiana Airlines", "iata": "OZ", "icao": "AAR"}, {"name": "Korean Air", "iata": "KE", "icao": "KAL"}]}, {"destination": {"icao": "RJBB", "iata": "KIX", "name": "Osaka Kansai", "shortName": "Kansai", "municipalityName": "Osaka", "location": {"lat": 34.4273, "lon": 135.244}, "countryCode": "JP"}, "averageDailyFlights": 6.86, "operators": [{"name": "Jeju Air", "iata": "7C", "icao": "JJA"}, {"name": "Asiana Airlines", "iata": "OZ", "icao": "AAR"}, {"name": "Korean Air", "iata": "KE", "icao": "KAL"}]}, {"destination": {"icao": "ZSSS", "iata": "SHA", "name": "Shanghai Hongqiao", "shortName": "Hongqiao", "municipalityName": "Shanghai", "location": {"lat": 31.1979, "lon": 121.336}, "countryCode": "CN"}, "averageDailyFlights": 4.57, "operators": [{"name": "China Eastern Airlines", "iata": "MU", "icao": "CES"}, {"name": "Korean Air", "iata": "KE", "icao": "KAL"}, {"name": "Asiana Airlines", "iata": "OZ", "icao": "AAR"}, {"name": "Shanghai Airlines", "iata": "FM", "icao": "CSH"}]}, {"destination": {"icao": "RKPU", "iata": "USN", "name": "Ulsan-si Ulsan", "shortName": "Ulsan", "municipalityName": "Ulsan-si", "location": {"lat": 35.5935, "lon": 129.352}, "countryCode": "KR"}, "averageDailyFlights": 3.43, "operators": [{"name": "Korean Air", "iata": "KE", "icao": "KAL"}, {"name": "Jin Air", "iata": "LJ", "icao": "JNA"}]}, {"destination": {"icao": "RKJY", "iata": "RSU", "name": "Yeosu ", "shortName": "Yeosu", "municipalityName": "Yeosu", "location": {"lat": 34.8423, "lon": 127.617}, "countryCode": "KR"}, "averageDailyFlights": 3.43, "operators": [{"name": "Jin Air", "iata": "LJ", "icao": "JNA"}, {"name": "Asiana Airlines", "iata": "OZ", "icao": "AAR"}]}, {"destination": {"icao": "ZBAA", "iata": "PEK", "name": "Beijing Capital", "shortName": "Capital", "municipalityName": "Beijing", "location": {"lat": 40.0801, "lon": 116.585}, "countryCode": "CN"}, "averageDailyFlights": 2.29, "operators": [{"name": "Korean Air", "iata": "KE", "icao": "KAL"}, {"name": "Air China", "iata": "CA", "icao": "CCA"}]}, {"destination": {"icao": "RKJJ", "iata": "KWJ", "name": "Gwangju ", "shortName": "Gwangju", "municipalityName": "Gwangju", "location": {"lat": 35.1264, "lon": 126.809}, "countryCode": "KR"}, "averageDailyFlights": 2.29, "operators": [{"name": "Asiana Airlines", "iata": "OZ", "icao": "AAR"}]}, {"destination": {"icao": "RCSS", "iata": "TSA", "name": "Taipei City Taipei Songshan", "shortName": "Taipei Songshan", "municipalityName": "Taipei City", "location": {"lat": 25.0694, "lon": 121.552}, "countryCode": "TW"}, "averageDailyFlights": 2.29, "operators": [{"name": "EASTAR JET", "iata": "ZE", "icao": "ESR"}, {"name": "EVA Air", "iata": "BR", "icao": "EVA"}, {"name": "T'Way Air", "iata": "TW", "icao": "TWB"}, {"name": "China Airlines", "iata": "CI", "icao": "CAL"}]}, {"destination": {"name": "Chindzhu"}, "averageDailyFlights": 2.29, "operators": [{"name": "Jin Air", "iata": "LJ", "icao": "JNA"}]}, {"destination": {"icao": "ZBAD", "iata": "PKX", "name": "Beijing Daxing", "shortName": "Daxing", "municipalityName": "Beijing", "location": {"lat": 39.509167, "lon": 116.41055}, "countryCode": "CN"}, "averageDailyFlights": 1.86, "operators": [{"name": "China Southern Airlines", "iata": "CZ", "icao": "CSN"}, {"name": "Asiana Airlines", "iata": "OZ", "icao": "AAR"}]}, {"destination": {"icao": "RCKH", "iata": "KHH", "name": "Kaohsiung City Kaohsiung", "shortName": "Kaohsiung", "municipalityName": "Kaohsiung City", "location": {"lat": 22.5771, "lon": 120.35}, "countryCode": "TW"}, "averageDailyFlights": 1.14, "operators": [{"name": "China Airlines", "iata": "CI", "icao": "CAL"}, {"name": "Tigerair Taiwan", "iata": "IT", "icao": "TTW"}]}, {"destination": {"icao": "RKTH", "iata": "KPO", "name": "Pohang ", "shortName": "Pohang", "municipalityName": "Pohang", "location": {"lat": 35.9879, "lon": 129.42}, "countryCode": "KR"}, "averageDailyFlights": 1.14, "operators": [{"name": "Jin Air", "iata": "LJ", "icao": "JNA"}]}]}