{"routes": [{"destination": {"icao": "SBRJ", "iata": "SDU", "name": "Rio de Janeiro Santos Dumont", "shortName": "Santos Dumont", "municipalityName": "Rio de Janeiro", "location": {"lat": -22.9105, "lon": -43.1631}, "countryCode": "BR"}, "averageDailyFlights": 6.0, "operators": [{"name": "Gol"}, {"name": "LATAM", "iata": "LA", "icao": "LAN"}]}, {"destination": {"icao": "SBSP", "iata": "CGH", "name": "S\u00e3o Paulo Congonhas", "shortName": "Congonhas", "municipalityName": "S\u00e3o Paulo", "location": {"lat": -23.62611, "lon": -46.656387}, "countryCode": "BR"}, "averageDailyFlights": 5.29, "operators": [{"name": "LATAM", "iata": "LA", "icao": "LAN"}]}, {"destination": {"icao": "SBCF", "iata": "CNF", "name": "Belo Horizonte Tancredo Neves", "shortName": "Tancredo Neves", "municipalityName": "Belo Horizonte", "location": {"lat": -19.624443, "lon": -43.971943}, "countryCode": "BR"}, "averageDailyFlights": 4.43, "operators": [{"name": "Azul", "iata": "AD", "icao": "AZU"}]}, {"destination": {"icao": "SBKP", "iata": "VCP", "name": "Campinas Viracopos", "shortName": "Viracopos", "municipalityName": "Campinas", "location": {"lat": -23.0074, "lon": -47.1345}, "countryCode": "BR"}, "averageDailyFlights": 4.0, "operators": [{"name": "Azul", "iata": "AD", "icao": "AZU"}]}, {"destination": {"icao": "SBBR", "iata": "BSB", "name": "Bras\u00edlia Presidente Juscelino Kubistschek", "shortName": "Presidente Juscelino Kubistschek", "municipalityName": "Bras\u00edlia", "location": {"lat": -15.869167, "lon": -47.920834}, "countryCode": "BR"}, "averageDailyFlights": 2.14, "operators": [{"name": "Gol"}, {"name": "LATAM", "iata": "LA", "icao": "LAN"}]}, {"destination": {"icao": "SBGR", "iata": "GRU", "name": "S\u00e3o Paulo Guarulhos - Governador Andr\u00e9 Franco Montoro", "shortName": "Guarulhos - Governador Andr\u00e9 Franco Montoro", "municipalityName": "S\u00e3o Paulo", "location": {"lat": -23.435556, "lon": -46.473057}, "countryCode": "BR"}, "averageDailyFlights": 1.71, "operators": [{"name": "Gol", "iata": "G3", "icao": "GLO"}]}, {"destination": {"icao": "SBRF", "iata": "REC", "name": "Recife Guararapes - Gilberto Freyre", "shortName": "Guararapes - Gilberto Freyre", "municipalityName": "Recife", "location": {"lat": -8.126489, "lon": -34.9236}, "countryCode": "BR"}, "averageDailyFlights": 0.71, "operators": [{"name": "Azul", "iata": "AD", "icao": "AZU"}]}, {"destination": {"icao": "SBSV", "iata": "SSA", "name": "Salvador Deputado Luiz Eduardo Magalh\u00e3es", "shortName": "Deputado Luiz Eduardo Magalh\u00e3es", "municipalityName": "Salvador", "location": {"lat": -12.908611, "lon": -38.3225}, "countryCode": "BR"}, "averageDailyFlights": 0.71, "operators": [{"name": "Gol"}]}, {"destination": {"icao": "SBPS", "iata": "BPS", "name": "Porto Seguro ", "shortName": "Porto Seguro", "municipalityName": "Porto Seguro", "location": {"lat": -16.4386, "lon": -39.0809}, "countryCode": "BR"}, "averageDailyFlights": 0.14, "operators": [{"name": "Gol"}]}]}