{"routes": [{"destination": {"icao": "SKBO", "iata": "BOG", "name": "Bogot\u00e1 El Dorado", "shortName": "El Dorado", "municipalityName": "Bogot\u00e1", "location": {"lat": 4.70159, "lon": -74.1469}, "countryCode": "CO"}, "averageDailyFlights": 39.86, "operators": [{"name": "Avianca", "iata": "AV", "icao": "AVA"}, {"name": "LATAM", "iata": "LA", "icao": "LAN"}, {"name": "Copa Airlines Colombia", "iata": "P5", "icao": "RPB"}]}, {"destination": {"icao": "SKRG", "iata": "MDE", "name": "Rionegro Jose Maria C\u00f3rdova", "shortName": "Jose Maria C\u00f3rdova", "municipalityName": "Rionegro", "location": {"lat": 6.16454, "lon": -75.4231}, "countryCode": "CO"}, "averageDailyFlights": 7.71, "operators": [{"name": "Avianca", "iata": "AV", "icao": "AVA"}, {"name": "LATAM", "iata": "LA", "icao": "LAN"}]}, {"destination": {"icao": "MPTO", "iata": "PTY", "name": "Tocumen ", "shortName": "Tocumen", "municipalityName": "Tocumen", "location": {"lat": 9.071359, "lon": -79.3835}, "countryCode": "PA"}, "averageDailyFlights": 4.0, "operators": [{"name": "Copa Airlines", "iata": "CM", "icao": "CMP"}]}, {"destination": {"icao": "SKPS", "iata": "PSO", "name": "Pasto Antonio Narino", "shortName": "Antonio Narino", "municipalityName": "Pasto", "location": {"lat": 1.39625, "lon": -77.2915}, "countryCode": "CO"}, "averageDailyFlights": 2.57, "operators": [{"name": "Avianca", "iata": "AV", "icao": "AVA"}, {"name": "LATAM", "iata": "LA", "icao": "LAN"}, {"name": "EasyFly", "iata": "VE", "icao": "EFY"}]}, {"destination": {"icao": "SKGP", "iata": "GPI", "name": "Guapi Juan Casiano", "shortName": "Juan Casiano", "municipalityName": "Guapi", "location": {"lat": 2.57013, "lon": -77.8986}, "countryCode": "CO"}, "averageDailyFlights": 2.14, "operators": [{"name": "SATENA", "iata": "9R", "icao": "NSE"}, {"name": "EasyFly", "iata": "VE", "icao": "EFY"}]}, {"destination": {"icao": "SKCO", "iata": "TCO", "name": "Tumaco La Florida", "shortName": "La Florida", "municipalityName": "Tumaco", "location": {"lat": 1.81442, "lon": -78.7492}, "countryCode": "CO"}, "averageDailyFlights": 2.0, "operators": [{"name": "EasyFly", "iata": "VE", "icao": "EFY"}, {"name": "SATENA", "iata": "9R", "icao": "NSE"}]}, {"destination": {"icao": "SKCG", "iata": "CTG", "name": "Cartagena de Indias Rafael Nu\u00f1ez", "shortName": "Rafael Nu\u00f1ez", "municipalityName": "Cartagena de Indias", "location": {"lat": 10.4424, "lon": -75.513}, "countryCode": "CO"}, "averageDailyFlights": 1.71, "operators": [{"name": "LATAM", "iata": "LA", "icao": "LAN"}, {"name": "Avianca", "iata": "AV", "icao": "AVA"}]}, {"destination": {"icao": "SKSP", "iata": "ADZ", "name": "San Andr\u00e9s Gustavo Rojas Pinilla", "shortName": "Gustavo Rojas Pinilla", "municipalityName": "San Andr\u00e9s", "location": {"lat": 12.5836, "lon": -81.7112}, "countryCode": "CO"}, "averageDailyFlights": 1.57, "operators": [{"name": "LATAM", "iata": "LA", "icao": "LAN"}, {"name": "Avianca", "iata": "AV", "icao": "AVA"}]}, {"destination": {"icao": "SKMD", "iata": "EOH", "name": "Medell\u00edn Enrique Olaya Herrera", "shortName": "Enrique Olaya Herrera", "municipalityName": "Medell\u00edn", "location": {"lat": 6.220549, "lon": -75.59058}, "countryCode": "CO"}, "averageDailyFlights": 1.29, "operators": [{"name": "EasyFly", "iata": "VE", "icao": "EFY"}]}, {"destination": {"icao": "KFLL", "iata": "FLL", "name": "Fort Lauderdale Hollywood", "shortName": "Hollywood", "municipalityName": "Fort Lauderdale", "location": {"lat": 26.0726, "lon": -80.1527}, "countryCode": "US"}, "averageDailyFlights": 1.14, "operators": [{"name": "Spirit Airlines", "iata": "NK", "icao": "NKS"}]}, {"destination": {"icao": "KMIA", "iata": "MIA", "name": "Miami ", "shortName": "Miami", "municipalityName": "Miami", "location": {"lat": 25.7932, "lon": -80.2906}, "countryCode": "US"}, "averageDailyFlights": 1.0, "operators": [{"name": "American Airlines", "iata": "AA", "icao": "AAL"}]}, {"destination": {"icao": "SKSM", "iata": "SMR", "name": "Santa Marta Sim\u00f3n Bol\u00edvar", "shortName": "Sim\u00f3n Bol\u00edvar", "municipalityName": "Santa Marta", "location": {"lat": 11.1196, "lon": -74.2306}, "countryCode": "CO"}, "averageDailyFlights": 0.86, "operators": [{"name": "LATAM", "iata": "LA", "icao": "LAN"}, {"name": "Avianca", "iata": "AV", "icao": "AVA"}]}, {"destination": {"icao": "SCFA", "iata": "ANF", "name": "Antofagasta Cerro Moreno", "shortName": "Cerro Moreno", "municipalityName": "Antofagasta", "location": {"lat": -23.444498, "lon": -70.4451}, "countryCode": "CL"}, "averageDailyFlights": 0.57, "operators": [{"name": "JetSMART", "iata": "JA", "icao": "JAT"}]}, {"destination": {"icao": "SKBQ", "iata": "BAQ", "name": "Barranquilla Ernesto Cortissoz", "shortName": "Ernesto Cortissoz", "municipalityName": "Barranquilla", "location": {"lat": 10.8896, "lon": -74.7808}, "countryCode": "CO"}, "averageDailyFlights": 0.57, "operators": [{"name": "Avianca", "iata": "AV", "icao": "AVA"}]}, {"destination": {"icao": "LEMD", "iata": "MAD", "name": "Madrid Adolfo Su\u00e1rez \u2013Barajas", "shortName": "Adolfo Su\u00e1rez \u2013Barajas", "municipalityName": "Madrid", "location": {"lat": 40.4936, "lon": -3.56676}, "countryCode": "ES"}, "averageDailyFlights": 0.57, "operators": [{"name": "Avianca", "iata": "AV", "icao": "AVA"}]}, {"destination": {"icao": "SCEL", "iata": "SCL", "name": "Santiago Comodoro Arturo Merino Ben\u00edtez", "shortName": "Comodoro Arturo Merino Ben\u00edtez", "municipalityName": "Santiago", "location": {"lat": -33.393, "lon": -70.7858}, "countryCode": "CL"}, "averageDailyFlights": 0.57, "operators": [{"name": "JetSMART", "iata": "JA", "icao": "JAT"}]}, {"destination": {"icao": "SKFL", "iata": "FLA", "name": "Florencia Gustavo Artunduaga Paredes", "shortName": "Gustavo Artunduaga Paredes", "municipalityName": "Florencia", "location": {"lat": 1.58919, "lon": -75.5644}, "countryCode": "CO"}, "averageDailyFlights": 0.43, "operators": [{"name": "SATENA", "iata": "9R", "icao": "NSE"}, {"name": "EasyFly", "iata": "VE", "icao": "EFY"}]}, {"destination": {"icao": "MPPA", "iata": "BLB", "name": "Panam\u00e1 City Panama Pacific", "shortName": "Panama Pacific", "municipalityName": "Panam\u00e1 City", "location": {"lat": 8.91479, "lon": -79.5996}, "countryCode": "PA"}, "averageDailyFlights": 0.43, "operators": [{"name": "Copa Airlines Colombia", "iata": "P5", "icao": "RPB"}]}, {"destination": {"icao": "SKAS", "iata": "PUU", "name": "Puerto As\u00eds Tres De Mayo", "shortName": "Tres De Mayo", "municipalityName": "Puerto As\u00eds", "location": {"lat": 0.505228, "lon": -76.5008}, "countryCode": "CO"}, "averageDailyFlights": 0.43, "operators": [{"name": "EasyFly", "iata": "VE", "icao": "EFY"}]}, {"destination": {"icao": "SKIP", "iata": "IPI", "name": "Ipiales San Luis", "shortName": "San Luis", "municipalityName": "Ipiales", "location": {"lat": 0.861925, "lon": -77.6718}, "countryCode": "CO"}, "averageDailyFlights": 0.29, "operators": [{"name": "SATENA", "iata": "9R", "icao": "NSE"}]}, {"destination": {"icao": "SKUI", "iata": "UIB", "name": "Quibd\u00f3 El Cara\u00f1o", "shortName": "El Cara\u00f1o", "municipalityName": "Quibd\u00f3", "location": {"lat": 5.69076, "lon": -76.6412}, "countryCode": "CO"}, "averageDailyFlights": 0.29, "operators": [{"name": "EasyFly", "iata": "VE", "icao": "EFY"}]}, {"destination": {"icao": "MDSD", "iata": "SDQ", "name": "Santo Domingo City Las Am\u00e9ricas", "shortName": "Las Am\u00e9ricas", "municipalityName": "Santo Domingo City", "location": {"lat": 18.4297, "lon": -69.6689}, "countryCode": "DO"}, "averageDailyFlights": 0.29, "operators": [{"name": "Starlink Aviation"}]}, {"destination": {"icao": "SKVV", "iata": "VVC", "name": "Villavicencio Vanguardia", "shortName": "Vanguardia", "municipalityName": "Villavicencio", "location": {"lat": 4.16787, "lon": -73.6138}, "countryCode": "CO"}, "averageDailyFlights": 0.14, "operators": [{"name": "EasyFly", "iata": "VE", "icao": "EFY"}]}]}