{"routes": [{"destination": {"icao": "TFFR", "iata": "PTP", "name": "Pointe-\u00e0-Pitre Le Raizet ", "shortName": "Pointe-\u00e0-Pitre Le Raizet", "municipalityName": "Pointe-\u00e0-Pitre Le Raizet", "location": {"lat": 16.2653, "lon": -61.5318}, "countryCode": "GP"}, "averageDailyFlights": 7.71, "operators": [{"name": "Air Caraibes", "iata": "TX", "icao": "FWI"}, {"name": "Air France", "iata": "AF", "icao": "AFR"}]}, {"destination": {"icao": "LFPO", "iata": "ORY", "name": "Paris -Orly", "shortName": "-Orly", "municipalityName": "Paris", "location": {"lat": 48.7253, "lon": 2.35944}, "countryCode": "FR"}, "averageDailyFlights": 4.0, "operators": [{"name": "Air France", "iata": "AF", "icao": "AFR"}, {"name": "Air Caraibes", "iata": "TX", "icao": "FWI"}, {"name": "Corsair", "iata": "SS", "icao": "CRL"}]}, {"destination": {"icao": "SOCA", "iata": "CAY", "name": "Cayenne / Rochambeau Cayenne-Rochambeau", "shortName": "Cayenne-Rochambeau", "municipalityName": "Cayenne / Rochambeau", "location": {"lat": 4.819809, "lon": -52.3604}, "countryCode": "GF"}, "averageDailyFlights": 1.43, "operators": [{"name": "Air France", "iata": "AF", "icao": "AFR"}]}, {"destination": {"icao": "KMIA", "iata": "MIA", "name": "Miami ", "shortName": "Miami", "municipalityName": "Miami", "location": {"lat": 25.7932, "lon": -80.2906}, "countryCode": "US"}, "averageDailyFlights": 0.43, "operators": [{"name": "Envoy Air", "iata": "MQ", "icao": "ENY"}, {"name": "American Airlines", "iata": "AA", "icao": "AAL"}]}, {"destination": {"name": "Santo Domingo City"}, "averageDailyFlights": 0.43, "operators": [{"name": "Sky High Aviation", "iata": "DO", "icao": "SHH"}]}, {"destination": {"icao": "CYUL", "iata": "YUL", "name": "Montreal Trudeau", "shortName": "Trudeau", "municipalityName": "Montreal", "location": {"lat": 45.4706, "lon": -73.7408}, "countryCode": "CA"}, "averageDailyFlights": 0.29, "operators": [{"name": "Air Transat", "iata": "TS", "icao": "TSC"}, {"name": "Air Canada", "iata": "AC", "icao": "ACA"}]}]}