{"routes": [{"destination": {"icao": "VIDP", "iata": "DEL", "name": "New Delhi Indira Gandhi", "shortName": "Indira Gandhi", "municipalityName": "New Delhi", "location": {"lat": 28.5665, "lon": 77.1031}, "countryCode": "IN"}, "averageDailyFlights": 6.76, "operators": [{"name": "AirAsia India", "iata": "I5", "icao": "IAD"}, {"name": "Vistara", "iata": "UK", "icao": "VTI"}, {"name": "IndiGo", "iata": "6E", "icao": "IGO"}, {"name": "SpiceJet", "iata": "SG", "icao": "SEJ"}]}, {"destination": {"icao": "VECC", "iata": "CCU", "name": "Kolkata Netaji Subhash Chandra Bose", "shortName": "Netaji Subhash Chandra Bose", "municipalityName": "Kolkata", "location": {"lat": 22.6547, "lon": 88.4467}, "countryCode": "IN"}, "averageDailyFlights": 6.71, "operators": [{"name": "SpiceJet", "iata": "SG", "icao": "SEJ"}, {"name": "IndiGo", "iata": "6E", "icao": "IGO"}]}, {"destination": {"icao": "VOBL", "iata": "BLR", "name": "Bangalore Bengaluru", "shortName": "Bengaluru", "municipalityName": "Bangalore", "location": {"lat": 13.197899, "lon": 77.7063}, "countryCode": "IN"}, "averageDailyFlights": 5.71, "operators": [{"name": "IndiGo", "iata": "6E", "icao": "IGO"}, {"name": "AirAsia India", "iata": "I5", "icao": "IAD"}, {"name": "SpiceJet", "iata": "SG", "icao": "SEJ"}, {"name": "Akasa Air"}]}, {"destination": {"icao": "VABB", "iata": "BOM", "name": "Mumbai Chhatrapati Shivaji", "shortName": "Chhatrapati Shivaji", "municipalityName": "Mumbai", "location": {"lat": 19.0887, "lon": 72.8679}, "countryCode": "IN"}, "averageDailyFlights": 3.29, "operators": [{"name": "IndiGo", "iata": "6E", "icao": "IGO"}, {"name": "SpiceJet", "iata": "SG", "icao": "SEJ"}, {"name": "Akasa Air"}]}, {"destination": {"icao": "VAAH", "iata": "AMD", "name": "Ahmedabad Sardar Vallabhbhai Patel", "shortName": "Sardar Vallabhbhai Patel", "municipalityName": "Ahmedabad", "location": {"lat": 23.0772, "lon": 72.6347}, "countryCode": "IN"}, "averageDailyFlights": 1.14, "operators": [{"name": "SpiceJet", "iata": "SG", "icao": "SEJ"}]}, {"destination": {"icao": "VOMM", "iata": "MAA", "name": "Chennai ", "shortName": "Chennai", "municipalityName": "Chennai", "location": {"lat": 12.990005, "lon": 80.1693}, "countryCode": "IN"}, "averageDailyFlights": 1.14, "operators": [{"name": "IndiGo", "iata": "6E", "icao": "IGO"}]}, {"destination": {"icao": "VEMN", "iata": "DIB", "name": "Dibrugarh ", "shortName": "Dibrugarh", "municipalityName": "Dibrugarh", "location": {"lat": 27.4839, "lon": 95.0169}, "countryCode": "IN"}, "averageDailyFlights": 1.14, "operators": [{"name": "Vistara", "iata": "UK", "icao": "VTI"}]}, {"destination": {"icao": "VEGT", "iata": "GAU", "name": "Guwahati Lokpriya Gopinath Bordoloi", "shortName": "Lokpriya Gopinath Bordoloi", "municipalityName": "Guwahati", "location": {"lat": 26.1061, "lon": 91.5859}, "countryCode": "IN"}, "averageDailyFlights": 1.14, "operators": [{"name": "SpiceJet", "iata": "SG", "icao": "SEJ"}]}, {"destination": {"icao": "VOHS", "iata": "HYD", "name": "Hyderabad Rajiv Gandhi", "shortName": "Rajiv Gandhi", "municipalityName": "Hyderabad", "location": {"lat": 17.231318, "lon": 78.429855}, "countryCode": "IN"}, "averageDailyFlights": 1.14, "operators": [{"name": "IndiGo", "iata": "6E", "icao": "IGO"}]}, {"destination": {"name": "Goa"}, "averageDailyFlights": 1.14, "operators": [{"name": "AirAsia India", "iata": "I5", "icao": "IAD"}]}, {"destination": {"name": "Kalkutta"}, "averageDailyFlights": 1.14, "operators": [{"name": "AirAsia India", "iata": "I5", "icao": "IAD"}]}, {"destination": {"icao": "VQPR", "iata": "PBH", "name": "Paro ", "shortName": "Paro", "municipalityName": "Paro", "location": {"lat": 27.4032, "lon": 89.4246}, "countryCode": "BT"}, "averageDailyFlights": 0.43, "operators": [{"name": "Drukair", "iata": "KB", "icao": "DRK"}]}, {"destination": {"icao": "VTBS", "iata": "BKK", "name": "Bangkok Suvarnabhumi", "shortName": "Suvarnabhumi", "municipalityName": "Bangkok", "location": {"lat": 13.681099, "lon": 100.747}, "countryCode": "TH"}, "averageDailyFlights": 0.29, "operators": [{"name": "Drukair", "iata": "KB", "icao": "DRK"}]}, {"destination": {"name": "Tokyo"}, "averageDailyFlights": 0.14, "operators": [{"name": "ASL Airlines France", "iata": "5O", "icao": "FPO"}]}]}