{"routes": [{"destination": {"icao": "VGCB", "iata": "CXB", "name": "Cox's Bazar ", "shortName": "Cox's Bazar", "municipalityName": "Cox's Bazar", "location": {"lat": 21.4522, "lon": 91.9639}, "countryCode": "BD"}, "averageDailyFlights": 16.1, "operators": [{"name": "Novoair", "iata": "VQ", "icao": "NVQ"}, {"name": "Biman Bangladesh Airlines", "iata": "BG", "icao": "BBC"}, {"name": "US-Bangla Airlines", "iata": "BS", "icao": "UBG"}]}, {"destination": {"icao": "VGSY", "iata": "ZYL", "name": "Sylhet Osmany", "shortName": "Osmany", "municipalityName": "Sylhet", "location": {"lat": 24.9632, "lon": 91.8668}, "countryCode": "BD"}, "averageDailyFlights": 15.86, "operators": [{"name": "US-Bangla Airlines", "iata": "BS", "icao": "UBG"}, {"name": "Biman Bangladesh Airlines", "iata": "BG", "icao": "BBC"}, {"name": "Novoair", "iata": "VQ", "icao": "NVQ"}]}, {"destination": {"icao": "VGEG", "iata": "CGP", "name": "Chittagong Shah Amanat", "shortName": "Shah Amanat", "municipalityName": "Chittagong", "location": {"lat": 22.2496, "lon": 91.8133}, "countryCode": "BD"}, "averageDailyFlights": 14.86, "operators": [{"name": "US-Bangla Airlines", "iata": "BS", "icao": "UBG"}, {"name": "Biman Bangladesh Airlines", "iata": "BG", "icao": "BBC"}, {"name": "Novoair", "iata": "VQ", "icao": "NVQ"}]}, {"destination": {"icao": "WMKK", "iata": "KUL", "name": "Kuala Lumpur ", "shortName": "Kuala Lumpur", "municipalityName": "Kuala Lumpur", "location": {"lat": 2.745579, "lon": 101.71}, "countryCode": "MY"}, "averageDailyFlights": 9.0, "operators": [{"name": "AirAsia", "iata": "AK", "icao": "AXM"}, {"name": "Malaysia Airlines", "iata": "MH", "icao": "MAS"}, {"name": "US-Bangla Airlines", "iata": "BS", "icao": "UBG"}, {"name": "Biman Bangladesh Airlines", "iata": "BG", "icao": "BBC"}, {"name": "Malindo Air", "iata": "OD", "icao": "MXD"}]}, {"destination": {"icao": "VGSD", "iata": "SPD", "name": "Saidpur ", "shortName": "Saidpur", "municipalityName": "Saidpur", "location": {"lat": 25.7592, "lon": 88.9089}, "countryCode": "BD"}, "averageDailyFlights": 8.86, "operators": [{"name": "Novoair", "iata": "VQ", "icao": "NVQ"}, {"name": "Biman Bangladesh Airlines", "iata": "BG", "icao": "BBC"}, {"name": "US-Bangla Airlines", "iata": "BS", "icao": "UBG"}]}, {"destination": {"icao": "VECC", "iata": "CCU", "name": "Kolkata Netaji Subhash Chandra Bose", "shortName": "Netaji Subhash Chandra Bose", "municipalityName": "Kolkata", "location": {"lat": 22.6547, "lon": 88.4467}, "countryCode": "IN"}, "averageDailyFlights": 7.29, "operators": [{"name": "Biman Bangladesh Airlines", "iata": "BG", "icao": "BBC"}, {"name": "US-Bangla Airlines", "iata": "BS", "icao": "UBG"}, {"name": "Novoair", "iata": "VQ", "icao": "NVQ"}, {"name": "IndiGo", "iata": "6E", "icao": "IGO"}, {"name": "Air India", "iata": "AI", "icao": "AIC"}]}, {"destination": {"icao": "OMDB", "iata": "DXB", "name": "Dubai ", "shortName": "Dubai", "municipalityName": "Dubai", "location": {"lat": 25.252798, "lon": 55.3644}, "countryCode": "AE"}, "averageDailyFlights": 6.43, "operators": [{"name": "Emirates", "iata": "EK", "icao": "UAE"}, {"name": "flydubai", "iata": "FZ", "icao": "FDB"}, {"name": "US-Bangla Airlines", "iata": "BS", "icao": "UBG"}, {"name": "Biman Bangladesh Airlines", "iata": "BG", "icao": "BBC"}]}, {"destination": {"icao": "OMSJ", "iata": "SHJ", "name": "Sharjah ", "shortName": "Sharjah", "municipalityName": "Sharjah", "location": {"lat": 25.3286, "lon": 55.5172}, "countryCode": "AE"}, "averageDailyFlights": 6.0, "operators": [{"name": "Air Arabia", "iata": "G9", "icao": "ABY"}, {"name": "US-Bangla Airlines", "iata": "BS", "icao": "UBG"}, {"name": "Biman Bangladesh Airlines", "iata": "BG", "icao": "BBC"}]}, {"destination": {"icao": "OTHH", "iata": "DOH", "name": "Doha Hamad", "shortName": "Hamad", "municipalityName": "Doha", "location": {"lat": 25.273056, "lon": 51.608055}, "countryCode": "QA"}, "averageDailyFlights": 5.86, "operators": [{"name": "Qatar Airways", "iata": "QR", "icao": "QTR"}, {"name": "US-Bangla Airlines", "iata": "BS", "icao": "UBG"}, {"name": "Biman Bangladesh Airlines", "iata": "BG", "icao": "BBC"}]}, {"destination": {"icao": "VGRJ", "iata": "RJH", "name": "Rajshahi Shah Mokhdum", "shortName": "Shah Mokhdum", "municipalityName": "Rajshahi", "location": {"lat": 24.4372, "lon": 88.6165}, "countryCode": "BD"}, "averageDailyFlights": 5.43, "operators": [{"name": "Novoair", "iata": "VQ", "icao": "NVQ"}, {"name": "US-Bangla Airlines", "iata": "BS", "icao": "UBG"}, {"name": "Biman Bangladesh Airlines", "iata": "BG", "icao": "BBC"}]}, {"destination": {"icao": "OKBK", "iata": "KWI", "name": "Kuwait City Kuwait", "shortName": "Kuwait", "municipalityName": "Kuwait City", "location": {"lat": 29.2266, "lon": 47.9689}, "countryCode": "KW"}, "averageDailyFlights": 4.72, "operators": [{"name": "Kuwait Airways", "iata": "KU", "icao": "KAC"}, {"name": "Jazeera Airways", "iata": "J9", "icao": "JZR"}, {"name": "Biman Bangladesh Airlines", "iata": "BG", "icao": "BBC"}, {"name": "US-Bangla Airlines", "iata": "BS", "icao": "UBG"}]}, {"destination": {"icao": "VGJR", "iata": "JSR", "name": "Jashahor Jessore", "shortName": "Jessore", "municipalityName": "Jashahor", "location": {"lat": 23.1838, "lon": 89.1608}, "countryCode": "BD"}, "averageDailyFlights": 4.57, "operators": [{"name": "US-Bangla Airlines", "iata": "BS", "icao": "UBG"}, {"name": "Novoair", "iata": "VQ", "icao": "NVQ"}, {"name": "Biman Bangladesh Airlines", "iata": "BG", "icao": "BBC"}]}, {"destination": {"icao": "VTBS", "iata": "BKK", "name": "Bangkok Suvarnabhumi", "shortName": "Suvarnabhumi", "municipalityName": "Bangkok", "location": {"lat": 13.681099, "lon": 100.747}, "countryCode": "TH"}, "averageDailyFlights": 4.29, "operators": [{"name": "Thai Airways International", "iata": "TG", "icao": "THA"}, {"name": "Biman Bangladesh Airlines", "iata": "BG", "icao": "BBC"}, {"name": "US-Bangla Airlines", "iata": "BS", "icao": "UBG"}, {"name": "Drukair", "iata": "KB", "icao": "DRK"}]}, {"destination": {"icao": "OOMS", "iata": "MCT", "name": "Muscat ", "shortName": "Muscat", "municipalityName": "Muscat", "location": {"lat": 23.5933, "lon": 58.2844}, "countryCode": "OM"}, "averageDailyFlights": 3.57, "operators": [{"name": "SalamAir", "iata": "OV", "icao": "OMS"}, {"name": "Oman Air", "iata": "WY", "icao": "OMA"}, {"name": "US-Bangla Airlines", "iata": "BS", "icao": "UBG"}, {"name": "Biman Bangladesh Airlines", "iata": "BG", "icao": "BBC"}]}, {"destination": {"icao": "VABB", "iata": "BOM", "name": "Mumbai Chhatrapati Shivaji", "shortName": "Chhatrapati Shivaji", "municipalityName": "Mumbai", "location": {"lat": 19.0887, "lon": 72.8679}, "countryCode": "IN"}, "averageDailyFlights": 3.43, "operators": [{"name": "Vistara", "iata": "UK", "icao": "VTI"}, {"name": "IndiGo", "iata": "6E", "icao": "IGO"}]}, {"destination": {"icao": "VIDP", "iata": "DEL", "name": "New Delhi Indira Gandhi", "shortName": "Indira Gandhi", "municipalityName": "New Delhi", "location": {"lat": 28.5665, "lon": 77.1031}, "countryCode": "IN"}, "averageDailyFlights": 3.43, "operators": [{"name": "Vistara", "iata": "UK", "icao": "VTI"}, {"name": "Biman Bangladesh Airlines", "iata": "BG", "icao": "BBC"}, {"name": "IndiGo", "iata": "6E", "icao": "IGO"}, {"name": "Air India", "iata": "AI", "icao": "AIC"}]}, {"destination": {"icao": "WSSS", "iata": "SIN", "name": "Singapore Changi", "shortName": "Changi", "municipalityName": "Singapore", "location": {"lat": 1.35019, "lon": 103.994}, "countryCode": "SG"}, "averageDailyFlights": 3.43, "operators": [{"name": "Biman Bangladesh Airlines", "iata": "BG", "icao": "BBC"}, {"name": "US-Bangla Airlines", "iata": "BS", "icao": "UBG"}, {"name": "Singapore Airlines", "iata": "SQ", "icao": "SIA"}]}, {"destination": {"icao": "OERK", "iata": "RUH", "name": "Riyadh King Khaled", "shortName": "King Khaled", "municipalityName": "Riyadh", "location": {"lat": 24.9576, "lon": 46.6988}, "countryCode": "SA"}, "averageDailyFlights": 3.0, "operators": [{"name": "Biman Bangladesh Airlines", "iata": "BG", "icao": "BBC"}, {"name": "Saudi Arabian Airlines", "iata": "SV", "icao": "SVA"}]}, {"destination": {"icao": "ZGGG", "iata": "CAN", "name": "Guangzhou Baiyun", "shortName": "Baiyun", "municipalityName": "Guangzhou", "location": {"lat": 23.3924, "lon": 113.299}, "countryCode": "CN"}, "averageDailyFlights": 2.86, "operators": [{"name": "US-Bangla Airlines", "iata": "BS", "icao": "UBG"}, {"name": "Biman Bangladesh Airlines", "iata": "BG", "icao": "BBC"}, {"name": "China Southern Airlines", "iata": "CZ", "icao": "CSN"}]}, {"destination": {"icao": "OEJN", "iata": "JED", "name": "Jeddah King Abdulaziz", "shortName": "King Abdulaziz", "municipalityName": "Jeddah", "location": {"lat": 21.6796, "lon": 39.1565}, "countryCode": "SA"}, "averageDailyFlights": 2.86, "operators": [{"name": "Saudi Arabian Airlines", "iata": "SV", "icao": "SVA"}, {"name": "Biman Bangladesh Airlines", "iata": "BG", "icao": "BBC"}]}, {"destination": {"icao": "VNKT", "iata": "KTM", "name": "Kathmandu Tribhuvan", "shortName": "Tribhuvan", "municipalityName": "Kathmandu", "location": {"lat": 27.696598, "lon": 85.3591}, "countryCode": "NP"}, "averageDailyFlights": 2.29, "operators": [{"name": "Biman Bangladesh Airlines", "iata": "BG", "icao": "BBC"}, {"name": "Himalaya Airlines", "iata": "H9", "icao": "HIM"}]}, {"destination": {"icao": "OMAA", "iata": "AUH", "name": "Abu Dhabi Island and Internal Islands City Abu Dhabi", "shortName": "Abu Dhabi", "municipalityName": "Abu Dhabi Island and Internal Islands City", "location": {"lat": 24.433, "lon": 54.6511}, "countryCode": "AE"}, "averageDailyFlights": 2.0, "operators": [{"name": "Air Arabia Abu Dhabi", "iata": "3L", "icao": "ADY"}, {"name": "Biman Bangladesh Airlines", "iata": "BG", "icao": "BBC"}]}, {"destination": {"icao": "VOMM", "iata": "MAA", "name": "Chennai ", "shortName": "Chennai", "municipalityName": "Chennai", "location": {"lat": 12.990005, "lon": 80.1693}, "countryCode": "IN"}, "averageDailyFlights": 2.0, "operators": [{"name": "US-Bangla Airlines", "iata": "BS", "icao": "UBG"}, {"name": "IndiGo", "iata": "6E", "icao": "IGO"}]}, {"destination": {"icao": "OBBI", "iata": "BAH", "name": "Manama Bahrain", "shortName": "Bahrain", "municipalityName": "Manama", "location": {"lat": 26.2708, "lon": 50.6336}, "countryCode": "BH"}, "averageDailyFlights": 1.57, "operators": [{"name": "Gulf Air"}]}, {"destination": {"icao": "VCBI", "iata": "CMB", "name": "Colombo Bandaranaike", "shortName": "Bandaranaike", "municipalityName": "Colombo", "location": {"lat": 7.180759, "lon": 79.8841}, "countryCode": "LK"}, "averageDailyFlights": 1.14, "operators": [{"name": "SriLankan Airlines", "iata": "UL", "icao": "ALK"}]}, {"destination": {"icao": "VOHS", "iata": "HYD", "name": "Hyderabad Rajiv Gandhi", "shortName": "Rajiv Gandhi", "municipalityName": "Hyderabad", "location": {"lat": 17.231318, "lon": 78.429855}, "countryCode": "IN"}, "averageDailyFlights": 1.14, "operators": [{"name": "IndiGo", "iata": "6E", "icao": "IGO"}]}, {"destination": {"icao": "LTFM", "iata": "IST", "name": "Istanbul ", "shortName": "Istanbul", "municipalityName": "Istanbul", "location": {"lat": 41.275276, "lon": 28.751944}, "countryCode": "TR"}, "averageDailyFlights": 1.14, "operators": [{"name": "Turkish Airlines", "iata": "TK", "icao": "THY"}]}, {"destination": {"icao": "ZPPP", "iata": "KMG", "name": "Kunming Changshui", "shortName": "Changshui", "municipalityName": "Kunming", "location": {"lat": 25.101944, "lon": 102.92917}, "countryCode": "CN"}, "averageDailyFlights": 1.14, "operators": [{"name": "China Eastern Airlines", "iata": "MU", "icao": "CES"}]}, {"destination": {"icao": "VRMM", "iata": "MLE", "name": "Mal\u00e9 ", "shortName": "Mal\u00e9", "municipalityName": "Mal\u00e9", "location": {"lat": 4.19183, "lon": 73.5291}, "countryCode": "MV"}, "averageDailyFlights": 1.14, "operators": [{"name": "US-Bangla Airlines", "iata": "BS", "icao": "UBG"}, {"name": "Maldivian", "iata": "Q2", "icao": "DQA"}]}, {"destination": {"name": "Dzhessore"}, "averageDailyFlights": 1.14, "operators": [{"name": "US-Bangla Airlines", "iata": "BS", "icao": "UBG"}]}, {"destination": {"icao": "OEDF", "iata": "DMM", "name": "Ad Dammam King Fahd", "shortName": "King Fahd", "municipalityName": "Ad Dammam", "location": {"lat": 26.4712, "lon": 49.7979}, "countryCode": "SA"}, "averageDailyFlights": 0.86, "operators": [{"name": "Biman Bangladesh Airlines", "iata": "BG", "icao": "BBC"}]}, {"destination": {"icao": "OEMA", "iata": "MED", "name": "Medina Prince Mohammad Bin Abdulaziz", "shortName": "Prince Mohammad Bin Abdulaziz", "municipalityName": "Medina", "location": {"lat": 24.5534, "lon": 39.7051}, "countryCode": "SA"}, "averageDailyFlights": 0.86, "operators": [{"name": "Saudi Arabian Airlines", "iata": "SV", "icao": "SVA"}, {"name": "Biman Bangladesh Airlines", "iata": "BG", "icao": "BBC"}]}, {"destination": {"icao": "VTBD", "iata": "DMK", "name": "Bangkok Don Mueang", "shortName": "Don Mueang", "municipalityName": "Bangkok", "location": {"lat": 13.912599, "lon": 100.607}, "countryCode": "TH"}, "averageDailyFlights": 0.57, "operators": [{"name": "Thai AirAsia", "iata": "FD", "icao": "AIQ"}]}, {"destination": {"icao": "VHHH", "iata": "HKG", "name": "Hong Kong Chek Lap Kok", "shortName": "Chek Lap Kok", "municipalityName": "Hong Kong", "location": {"lat": 22.3089, "lon": 113.915}, "countryCode": "HK"}, "averageDailyFlights": 0.57, "operators": [{"name": "Cathay Pacific", "iata": "CX", "icao": "CPA"}]}, {"destination": {"icao": "RJAA", "iata": "NRT", "name": "Tokyo Narita", "shortName": "Narita", "municipalityName": "Tokyo", "location": {"lat": 35.7647, "lon": 140.386}, "countryCode": "JP"}, "averageDailyFlights": 0.57, "operators": [{"name": "Biman Bangladesh Airlines", "iata": "BG", "icao": "BBC"}]}, {"destination": {"icao": "VGBR", "iata": "BZL", "name": "Barisal ", "shortName": "Barisal", "municipalityName": "Barisal", "location": {"lat": 22.801, "lon": 90.3012}, "countryCode": "BD"}, "averageDailyFlights": 0.43, "operators": [{"name": "Biman Bangladesh Airlines", "iata": "BG", "icao": "BBC"}]}, {"destination": {"icao": "VVNB", "iata": "HAN", "name": "Hanoi Noi Bai", "shortName": "Noi Bai", "municipalityName": "Hanoi", "location": {"lat": 21.2212, "lon": 105.807}, "countryCode": "VN"}, "averageDailyFlights": 0.43, "operators": [{"name": "Cathay Pacific", "iata": "CX", "icao": "CPA"}]}, {"destination": {"name": "Toronto"}, "averageDailyFlights": 0.43, "operators": [{"name": "Biman Bangladesh Airlines", "iata": "BG", "icao": "BBC"}]}, {"destination": {"icao": "HECA", "iata": "CAI", "name": "Cairo ", "shortName": "Cairo", "municipalityName": "Cairo", "location": {"lat": 30.1219, "lon": 31.4056}, "countryCode": "EG"}, "averageDailyFlights": 0.29, "operators": [{"name": "EgyptAir", "iata": "MS", "icao": "MSR"}]}, {"destination": {"icao": "VQPR", "iata": "PBH", "name": "Paro ", "shortName": "Paro", "municipalityName": "Paro", "location": {"lat": 27.4032, "lon": 89.4246}, "countryCode": "BT"}, "averageDailyFlights": 0.29, "operators": [{"name": "Drukair", "iata": "KB", "icao": "DRK"}]}, {"destination": {"icao": "OMRK", "iata": "RKT", "name": "Ras Al Khaimah ", "shortName": "Ras Al Khaimah", "municipalityName": "Ras Al Khaimah", "location": {"lat": 25.6135, "lon": 55.9388}, "countryCode": "AE"}, "averageDailyFlights": 0.29, "operators": [{"name": "Air Arabia", "iata": "G9", "icao": "ABY"}]}, {"destination": {"icao": "RKSI", "iata": "ICN", "name": "Seoul Incheon", "shortName": "Incheon", "municipalityName": "Seoul", "location": {"lat": 37.4691, "lon": 126.451}, "countryCode": "KR"}, "averageDailyFlights": 0.29, "operators": [{"name": "Air Premia"}]}]}