{"routes": [{"destination": {"icao": "WIII", "iata": "CGK", "name": "Jakarta Soekarno-Hatta", "shortName": "Soekarno-Hatta", "municipalityName": "Jakarta", "location": {"lat": -6.125569, "lon": 106.656}, "countryCode": "ID"}, "averageDailyFlights": 9.0, "operators": [{"name": "Citilink", "iata": "QG", "icao": "CTV"}, {"name": "Super Air Jet", "iata": "IU", "icao": "SJV"}]}, {"destination": {"icao": "WIDD", "iata": "BTH", "name": "Batam Island Hang Nadim", "shortName": "Hang Nadim", "municipalityName": "Batam Island", "location": {"lat": 1.121029, "lon": 104.119}, "countryCode": "ID"}, "averageDailyFlights": 4.43, "operators": [{"name": "Citilink", "iata": "QG", "icao": "CTV"}, {"name": "Lion Air", "iata": "JT", "icao": "LNI"}]}, {"destination": {"icao": "WMKK", "iata": "KUL", "name": "Kuala Lumpur ", "shortName": "Kuala Lumpur", "municipalityName": "Kuala Lumpur", "location": {"lat": 2.745579, "lon": 101.71}, "countryCode": "MY"}, "averageDailyFlights": 2.29, "operators": [{"name": "AirAsia", "iata": "AK", "icao": "AXM"}]}, {"destination": {"icao": "WIHH", "iata": "HLP", "name": "Jakarta Halim Perdanakusuma", "shortName": "Halim Perdanakusuma", "municipalityName": "Jakarta", "location": {"lat": -6.26661, "lon": 106.891}, "countryCode": "ID"}, "averageDailyFlights": 1.73, "operators": [{"name": "Batik Air", "iata": "ID", "icao": "BTK"}, {"name": "Garuda Indonesia", "iata": "GA", "icao": "GIA"}, {"name": "Lion Air", "iata": "JT", "icao": "LNI"}]}, {"destination": {"icao": "OEJN", "iata": "JED", "name": "Jeddah King Abdulaziz", "shortName": "King Abdulaziz", "municipalityName": "Jeddah", "location": {"lat": 21.6796, "lon": 39.1565}, "countryCode": "SA"}, "averageDailyFlights": 0.29, "operators": [{"name": "Lion Air", "iata": "JT", "icao": "LNI"}, {"name": "Citilink", "iata": "QG", "icao": "CTV"}]}, {"destination": {"name": "Medina"}, "averageDailyFlights": 0.29, "operators": [{"name": "Lion Air", "iata": "JT", "icao": "LNI"}]}]}