{"routes": [{"destination": {"icao": "WMKK", "iata": "KUL", "name": "Kuala Lumpur ", "shortName": "Kuala Lumpur", "municipalityName": "Kuala Lumpur", "location": {"lat": 2.745579, "lon": 101.71}, "countryCode": "MY"}, "averageDailyFlights": 38.86, "operators": [{"name": "Malaysia Airlines", "iata": "MH", "icao": "MAS"}, {"name": "Singapore Airlines", "iata": "SQ", "icao": "SIA"}, {"name": "Jetstar Asia", "iata": "3K", "icao": "JSA"}, {"name": "AirAsia", "iata": "AK", "icao": "AXM"}, {"name": "Tibet Airlines", "iata": "TV", "icao": "TBA"}, {"name": "Scoot", "iata": "TR", "icao": "TGW"}, {"name": "Malindo Air", "iata": "OD", "icao": "MXD"}, {"name": "Ethiopian Airlines", "iata": "ET", "icao": "ETH"}]}, {"destination": {"icao": "WIII", "iata": "CGK", "name": "Jakarta Soekarno-Hatta", "shortName": "Soekarno-Hatta", "municipalityName": "Jakarta", "location": {"lat": -6.125569, "lon": 106.656}, "countryCode": "ID"}, "averageDailyFlights": 30.14, "operators": [{"name": "Singapore Airlines", "iata": "SQ", "icao": "SIA"}, {"name": "Jetstar Asia", "iata": "3K", "icao": "JSA"}, {"name": "Garuda Indonesia", "iata": "GA", "icao": "GIA"}, {"name": "Tibet Airlines", "iata": "TV", "icao": "TBA"}, {"name": "Citilink", "iata": "QG", "icao": "CTV"}, {"name": "Scoot", "iata": "TR", "icao": "TGW"}, {"name": "Indonesia AirAsia", "iata": "QZ", "icao": "AWQ"}, {"name": "Batik Air", "iata": "ID", "icao": "BTK"}]}, {"destination": {"icao": "VTBS", "iata": "BKK", "name": "Bangkok Suvarnabhumi", "shortName": "Suvarnabhumi", "municipalityName": "Bangkok", "location": {"lat": 13.681099, "lon": 100.747}, "countryCode": "TH"}, "averageDailyFlights": 22.57, "operators": [{"name": "Tibet Airlines", "iata": "TV", "icao": "TBA"}, {"name": "Jetstar Asia", "iata": "3K", "icao": "JSA"}, {"name": "Singapore Airlines", "iata": "SQ", "icao": "SIA"}, {"name": "Scoot", "iata": "TR", "icao": "TGW"}, {"name": "Thai Vietjet Air", "iata": "VZ", "icao": "TVJ"}, {"name": "Thai Airways International", "iata": "TG", "icao": "THA"}, {"name": "Gulf Air"}]}, {"destination": {"icao": "WADD", "iata": "DPS", "name": "Denpasar-Bali Island Ngurah Rai (Bali)", "shortName": "Ngurah Rai (Bali)", "municipalityName": "Denpasar-Bali Island", "location": {"lat": -8.748169, "lon": 115.167}, "countryCode": "ID"}, "averageDailyFlights": 21.57, "operators": [{"name": "Singapore Airlines", "iata": "SQ", "icao": "SIA"}, {"name": "Jetstar Asia", "iata": "3K", "icao": "JSA"}, {"name": "Tibet Airlines", "iata": "TV", "icao": "TBA"}, {"name": "Scoot", "iata": "TR", "icao": "TGW"}, {"name": "Garuda Indonesia", "iata": "GA", "icao": "GIA"}, {"name": "Indonesia AirAsia", "iata": "QZ", "icao": "AWQ"}, {"name": "Batik Air", "iata": "ID", "icao": "BTK"}, {"name": "KLM", "iata": "KL", "icao": "KLM"}]}, {"destination": {"icao": "RPLL", "iata": "MNL", "name": "Manila Ninoy Aquino", "shortName": "Ninoy Aquino", "municipalityName": "Manila", "location": {"lat": 14.5086, "lon": 121.02}, "countryCode": "PH"}, "averageDailyFlights": 19.14, "operators": [{"name": "Philippine Airlines", "iata": "PR", "icao": "PAL"}, {"name": "Tibet Airlines", "iata": "TV", "icao": "TBA"}, {"name": "Cebu Pacific Air", "iata": "5J", "icao": "CEB"}, {"name": "Jetstar Asia", "iata": "3K", "icao": "JSA"}, {"name": "Singapore Airlines", "iata": "SQ", "icao": "SIA"}, {"name": "Scoot", "iata": "TR", "icao": "TGW"}]}, {"destination": {"icao": "WMKP", "iata": "PEN", "name": "Penang ", "shortName": "Penang", "municipalityName": "Penang", "location": {"lat": 5.29714, "lon": 100.277}, "countryCode": "MY"}, "averageDailyFlights": 18.43, "operators": [{"name": "Singapore Airlines", "iata": "SQ", "icao": "SIA"}, {"name": "Tibet Airlines", "iata": "TV", "icao": "TBA"}, {"name": "Scoot", "iata": "TR", "icao": "TGW"}, {"name": "AirAsia", "iata": "AK", "icao": "AXM"}, {"name": "Jetstar Asia", "iata": "3K", "icao": "JSA"}, {"name": "Firefly", "iata": "FY", "icao": "FFM"}]}, {"destination": {"icao": "VVTS", "iata": "SGN", "name": "Ho Chi Minh City Tan Son Nhat", "shortName": "Tan Son Nhat", "municipalityName": "Ho Chi Minh City", "location": {"lat": 10.818799, "lon": 106.652}, "countryCode": "VN"}, "averageDailyFlights": 14.86, "operators": [{"name": "Tibet Airlines", "iata": "TV", "icao": "TBA"}, {"name": "Singapore Airlines", "iata": "SQ", "icao": "SIA"}, {"name": "VietJetAir", "iata": "VJ", "icao": "VJC"}, {"name": "Scoot", "iata": "TR", "icao": "TGW"}, {"name": "Vietnam Airlines", "iata": "VN", "icao": "HVN"}, {"name": "Bamboo Airways", "iata": "QH", "icao": "BAV"}, {"name": "Jetstar Pacific", "iata": "BL", "icao": "PIC"}]}, {"destination": {"icao": "VTSP", "iata": "HKT", "name": "Phuket ", "shortName": "Phuket", "municipalityName": "Phuket", "location": {"lat": 8.1132, "lon": 98.3169}, "countryCode": "TH"}, "averageDailyFlights": 14.29, "operators": [{"name": "Singapore Airlines", "iata": "SQ", "icao": "SIA"}, {"name": "Tibet Airlines", "iata": "TV", "icao": "TBA"}, {"name": "Scoot", "iata": "TR", "icao": "TGW"}, {"name": "Thai AirAsia", "iata": "FD", "icao": "AIQ"}, {"name": "Jetstar Asia", "iata": "3K", "icao": "JSA"}]}, {"destination": {"icao": "RCTP", "iata": "TPE", "name": "Taipei Taiwan Taoyuan", "shortName": "Taiwan Taoyuan", "municipalityName": "Taipei", "location": {"lat": 25.0777, "lon": 121.233}, "countryCode": "TW"}, "averageDailyFlights": 14.0, "operators": [{"name": "Tibet Airlines", "iata": "TV", "icao": "TBA"}, {"name": "Scoot", "iata": "TR", "icao": "TGW"}, {"name": "China Airlines", "iata": "CI", "icao": "CAL"}, {"name": "Singapore Airlines", "iata": "SQ", "icao": "SIA"}, {"name": "EVA Air", "iata": "BR", "icao": "EVA"}, {"name": "Starlux Airlines", "iata": "JX", "icao": "SJX"}]}, {"destination": {"icao": "VHHH", "iata": "HKG", "name": "Hong Kong Chek Lap Kok", "shortName": "Chek Lap Kok", "municipalityName": "Hong Kong", "location": {"lat": 22.3089, "lon": 113.915}, "countryCode": "HK"}, "averageDailyFlights": 13.0, "operators": [{"name": "Cathay Pacific", "iata": "CX", "icao": "CPA"}, {"name": "Tibet Airlines", "iata": "TV", "icao": "TBA"}, {"name": "Singapore Airlines", "iata": "SQ", "icao": "SIA"}, {"name": "Scoot", "iata": "TR", "icao": "TGW"}]}, {"destination": {"icao": "YMML", "iata": "MEL", "name": "Melbourne City Melbourne", "shortName": "Melbourne", "municipalityName": "Melbourne City", "location": {"lat": -37.6733, "lon": 144.843}, "countryCode": "AU"}, "averageDailyFlights": 11.0, "operators": [{"name": "Singapore Airlines", "iata": "SQ", "icao": "SIA"}, {"name": "Emirates", "iata": "EK", "icao": "UAE"}, {"name": "Scoot", "iata": "TR", "icao": "TGW"}, {"name": "Qantas", "iata": "QF", "icao": "QFA"}, {"name": "Tibet Airlines", "iata": "TV", "icao": "TBA"}, {"name": "Jetstar", "iata": "JQ", "icao": "JST"}, {"name": "Air Atlanta Icelandic", "iata": "CC", "icao": "ABD"}]}, {"destination": {"icao": "RKSI", "iata": "ICN", "name": "Seoul Incheon", "shortName": "Incheon", "municipalityName": "Seoul", "location": {"lat": 37.4691, "lon": 126.451}, "countryCode": "KR"}, "averageDailyFlights": 10.86, "operators": [{"name": "Singapore Airlines", "iata": "SQ", "icao": "SIA"}, {"name": "Asiana Airlines", "iata": "OZ", "icao": "AAR"}, {"name": "Korean Air", "iata": "KE", "icao": "KAL"}, {"name": "Tibet Airlines", "iata": "TV", "icao": "TBA"}]}, {"destination": {"icao": "ZSPD", "iata": "PVG", "name": "Shanghai Pudong", "shortName": "Pudong", "municipalityName": "Shanghai", "location": {"lat": 31.1434, "lon": 121.805}, "countryCode": "CN"}, "averageDailyFlights": 10.71, "operators": [{"name": "Singapore Airlines", "iata": "SQ", "icao": "SIA"}, {"name": "China Eastern Airlines", "iata": "MU", "icao": "CES"}, {"name": "Air China", "iata": "CA", "icao": "CCA"}, {"name": "Juneyao Airlines", "iata": "HO", "icao": "DKH"}]}, {"destination": {"icao": "YSSY", "iata": "SYD", "name": "Sydney City Sydney Kingsford Smith", "shortName": "Sydney Kingsford Smith", "municipalityName": "Sydney City", "location": {"lat": -33.9461, "lon": 151.177}, "countryCode": "AU"}, "averageDailyFlights": 9.71, "operators": [{"name": "Singapore Airlines", "iata": "SQ", "icao": "SIA"}, {"name": "Tibet Airlines", "iata": "TV", "icao": "TBA"}, {"name": "Scoot", "iata": "TR", "icao": "TGW"}, {"name": "Qantas", "iata": "QF", "icao": "QFA"}, {"name": "British Airways", "iata": "BA", "icao": "BAW"}]}, {"destination": {"icao": "WARR", "iata": "SUB", "name": "Surabaya Juanda", "shortName": "Juanda", "municipalityName": "Surabaya", "location": {"lat": -7.379829, "lon": 112.787}, "countryCode": "ID"}, "averageDailyFlights": 8.57, "operators": [{"name": "Tibet Airlines", "iata": "TV", "icao": "TBA"}, {"name": "Singapore Airlines", "iata": "SQ", "icao": "SIA"}, {"name": "Scoot", "iata": "TR", "icao": "TGW"}, {"name": "Jetstar Asia", "iata": "3K", "icao": "JSA"}, {"name": "Garuda Indonesia", "iata": "GA", "icao": "GIA"}, {"name": "Batik Air", "iata": "ID", "icao": "BTK"}]}, {"destination": {"icao": "ZGGG", "iata": "CAN", "name": "Guangzhou Baiyun", "shortName": "Baiyun", "municipalityName": "Guangzhou", "location": {"lat": 23.3924, "lon": 113.299}, "countryCode": "CN"}, "averageDailyFlights": 8.43, "operators": [{"name": "Tibet Airlines", "iata": "TV", "icao": "TBA"}, {"name": "Singapore Airlines", "iata": "SQ", "icao": "SIA"}, {"name": "China Southern Airlines", "iata": "CZ", "icao": "CSN"}, {"name": "Scoot", "iata": "TR", "icao": "TGW"}]}, {"destination": {"icao": "EGLL", "iata": "LHR", "name": "London Heathrow", "shortName": "Heathrow", "municipalityName": "London", "location": {"lat": 51.4706, "lon": -0.461941}, "countryCode": "GB"}, "averageDailyFlights": 8.0, "operators": [{"name": "Singapore Airlines", "iata": "SQ", "icao": "SIA"}, {"name": "British Airways", "iata": "BA", "icao": "BAW"}, {"name": "Qantas", "iata": "QF", "icao": "QFA"}]}, {"destination": {"icao": "RJTT", "iata": "HND", "name": "Tokyo ", "shortName": "Tokyo", "municipalityName": "Tokyo", "location": {"lat": 35.5523, "lon": 139.78}, "countryCode": "JP"}, "averageDailyFlights": 8.0, "operators": [{"name": "JAL", "iata": "JL", "icao": "JAL"}, {"name": "Singapore Airlines", "iata": "SQ", "icao": "SIA"}, {"name": "ANA", "iata": "NH", "icao": "ANA"}]}, {"destination": {"icao": "YPPH", "iata": "PER", "name": "Perth International", "shortName": "International", "municipalityName": "Perth", "location": {"lat": -31.940277, "lon": 115.96694}, "countryCode": "AU"}, "averageDailyFlights": 7.57, "operators": [{"name": "Singapore Airlines", "iata": "SQ", "icao": "SIA"}, {"name": "Tibet Airlines", "iata": "TV", "icao": "TBA"}, {"name": "Scoot", "iata": "TR", "icao": "TGW"}, {"name": "Qantas", "iata": "QF", "icao": "QFA"}]}, {"destination": {"icao": "VOMM", "iata": "MAA", "name": "Chennai ", "shortName": "Chennai", "municipalityName": "Chennai", "location": {"lat": 12.990005, "lon": 80.1693}, "countryCode": "IN"}, "averageDailyFlights": 7.43, "operators": [{"name": "IndiGo", "iata": "6E", "icao": "IGO"}, {"name": "Singapore Airlines", "iata": "SQ", "icao": "SIA"}, {"name": "Air India", "iata": "AI", "icao": "AIC"}, {"name": "Air India Express", "iata": "IX", "icao": "AXB"}, {"name": "Tibet Airlines", "iata": "TV", "icao": "TBA"}, {"name": "Scoot", "iata": "TR", "icao": "TGW"}]}, {"destination": {"icao": "VABB", "iata": "BOM", "name": "Mumbai Chhatrapati Shivaji", "shortName": "Chhatrapati Shivaji", "municipalityName": "Mumbai", "location": {"lat": 19.0887, "lon": 72.8679}, "countryCode": "IN"}, "averageDailyFlights": 7.0, "operators": [{"name": "Singapore Airlines", "iata": "SQ", "icao": "SIA"}, {"name": "Vistara", "iata": "UK", "icao": "VTI"}, {"name": "IndiGo", "iata": "6E", "icao": "IGO"}, {"name": "Air India", "iata": "AI", "icao": "AIC"}]}, {"destination": {"icao": "VIDP", "iata": "DEL", "name": "New Delhi Indira Gandhi", "shortName": "Indira Gandhi", "municipalityName": "New Delhi", "location": {"lat": 28.5665, "lon": 77.1031}, "countryCode": "IN"}, "averageDailyFlights": 6.86, "operators": [{"name": "Singapore Airlines", "iata": "SQ", "icao": "SIA"}, {"name": "Air India", "iata": "AI", "icao": "AIC"}, {"name": "Vistara", "iata": "UK", "icao": "VTI"}, {"name": "IndiGo", "iata": "6E", "icao": "IGO"}]}, {"destination": {"icao": "VTBD", "iata": "DMK", "name": "Bangkok Don Mueang", "shortName": "Don Mueang", "municipalityName": "Bangkok", "location": {"lat": 13.912599, "lon": 100.607}, "countryCode": "TH"}, "averageDailyFlights": 6.43, "operators": [{"name": "Thai AirAsia", "iata": "FD", "icao": "AIQ"}, {"name": "Thai Lion Air", "iata": "SL", "icao": "TLM"}]}, {"destination": {"icao": "VOTR", "iata": "TRZ", "name": "Tiruchirappally Tiruchirapally Civil", "shortName": "Tiruchirapally Civil", "municipalityName": "Tiruchirappally", "location": {"lat": 10.765399, "lon": 78.7097}, "countryCode": "IN"}, "averageDailyFlights": 6.0, "operators": [{"name": "IndiGo", "iata": "6E", "icao": "IGO"}, {"name": "Air India Express", "iata": "IX", "icao": "AXB"}, {"name": "Tibet Airlines", "iata": "TV", "icao": "TBA"}, {"name": "Scoot", "iata": "TR", "icao": "TGW"}]}, {"destination": {"icao": "VVNB", "iata": "HAN", "name": "Hanoi Noi Bai", "shortName": "Noi Bai", "municipalityName": "Hanoi", "location": {"lat": 21.2212, "lon": 105.807}, "countryCode": "VN"}, "averageDailyFlights": 5.71, "operators": [{"name": "Singapore Airlines", "iata": "SQ", "icao": "SIA"}, {"name": "Vietnam Airlines", "iata": "VN", "icao": "HVN"}, {"name": "VietJetAir", "iata": "VJ", "icao": "VJC"}, {"name": "Tibet Airlines", "iata": "TV", "icao": "TBA"}, {"name": "Scoot", "iata": "TR", "icao": "TGW"}]}, {"destination": {"icao": "WMKI", "iata": "IPH", "name": "Ipoh Sultan Azlan Shah", "shortName": "Sultan Azlan Shah", "municipalityName": "Ipoh", "location": {"lat": 4.567969, "lon": 101.092}, "countryCode": "MY"}, "averageDailyFlights": 5.29, "operators": [{"name": "Scoot", "iata": "TR", "icao": "TGW"}, {"name": "AirAsia", "iata": "AK", "icao": "AXM"}, {"name": "Tibet Airlines", "iata": "TV", "icao": "TBA"}]}, {"destination": {"icao": "KSFO", "iata": "SFO", "name": "San Francisco ", "shortName": "San Francisco", "municipalityName": "San Francisco", "location": {"lat": 37.619, "lon": -122.375}, "countryCode": "US"}, "averageDailyFlights": 5.29, "operators": [{"name": "Singapore Airlines", "iata": "SQ", "icao": "SIA"}, {"name": "United Airlines", "iata": "UA", "icao": "UAL"}]}, {"destination": {"icao": "RJBB", "iata": "KIX", "name": "Osaka Kansai", "shortName": "Kansai", "municipalityName": "Osaka", "location": {"lat": 34.4273, "lon": 135.244}, "countryCode": "JP"}, "averageDailyFlights": 5.14, "operators": [{"name": "Singapore Airlines", "iata": "SQ", "icao": "SIA"}, {"name": "Tibet Airlines", "iata": "TV", "icao": "TBA"}, {"name": "Scoot", "iata": "TR", "icao": "TGW"}]}, {"destination": {"icao": "VDPP", "iata": "PNH", "name": "Phnom Penh ", "shortName": "Phnom Penh", "municipalityName": "Phnom Penh", "location": {"lat": 11.5466, "lon": 104.844}, "countryCode": "KH"}, "averageDailyFlights": 5.14, "operators": [{"name": "Singapore Airlines", "iata": "SQ", "icao": "SIA"}, {"name": "Jetstar Asia", "iata": "3K", "icao": "JSA"}, {"name": "Cambodia Airways", "iata": "KR", "icao": "KME"}]}, {"destination": {"icao": "YBBN", "iata": "BNE", "name": "Brisbane City Brisbane", "shortName": "Brisbane", "municipalityName": "Brisbane City", "location": {"lat": -27.3842, "lon": 153.117}, "countryCode": "AU"}, "averageDailyFlights": 4.57, "operators": [{"name": "Singapore Airlines", "iata": "SQ", "icao": "SIA"}, {"name": "Qantas", "iata": "QF", "icao": "QFA"}]}, {"destination": {"icao": "OMDB", "iata": "DXB", "name": "Dubai ", "shortName": "Dubai", "municipalityName": "Dubai", "location": {"lat": 25.252798, "lon": 55.3644}, "countryCode": "AE"}, "averageDailyFlights": 4.57, "operators": [{"name": "Emirates", "iata": "EK", "icao": "UAE"}, {"name": "Singapore Airlines", "iata": "SQ", "icao": "SIA"}]}, {"destination": {"icao": "RPVM", "iata": "CEB", "name": "Lapu-Lapu City Mactan Cebu", "shortName": "Mactan Cebu", "municipalityName": "Lapu-Lapu City", "location": {"lat": 10.307499, "lon": 123.979}, "countryCode": "PH"}, "averageDailyFlights": 4.57, "operators": [{"name": "Cebu Pacific Air", "iata": "5J", "icao": "CEB"}, {"name": "Tibet Airlines", "iata": "TV", "icao": "TBA"}, {"name": "Scoot", "iata": "TR", "icao": "TGW"}, {"name": "Singapore Airlines", "iata": "SQ", "icao": "SIA"}]}, {"destination": {"icao": "RJAA", "iata": "NRT", "name": "Tokyo Narita", "shortName": "Narita", "municipalityName": "Tokyo", "location": {"lat": 35.7647, "lon": 140.386}, "countryCode": "JP"}, "averageDailyFlights": 4.43, "operators": [{"name": "ZIPAIR Tokyo", "iata": "ZG", "icao": "TZP"}, {"name": "Air Japan", "iata": "NQ", "icao": "AJX"}, {"name": "Tibet Airlines", "iata": "TV", "icao": "TBA"}, {"name": "Scoot", "iata": "TR", "icao": "TGW"}]}, {"destination": {"icao": "VYYY", "iata": "RGN", "name": "Yangon ", "shortName": "Yangon", "municipalityName": "Yangon", "location": {"lat": 16.9073, "lon": 96.1332}, "countryCode": "MM"}, "averageDailyFlights": 4.43, "operators": [{"name": "Singapore Airlines", "iata": "SQ", "icao": "SIA"}, {"name": "Myanmar Airways International"}, {"name": "Myanmar National Airlines", "iata": "UB", "icao": "UBA"}]}, {"destination": {"icao": "ZBAA", "iata": "PEK", "name": "Beijing Capital", "shortName": "Capital", "municipalityName": "Beijing", "location": {"lat": 40.0801, "lon": 116.585}, "countryCode": "CN"}, "averageDailyFlights": 4.29, "operators": [{"name": "Singapore Airlines", "iata": "SQ", "icao": "SIA"}, {"name": "Air China", "iata": "CA", "icao": "CCA"}]}, {"destination": {"icao": "VOBL", "iata": "BLR", "name": "Bangalore Bengaluru", "shortName": "Bengaluru", "municipalityName": "Bangalore", "location": {"lat": 13.197899, "lon": 77.7063}, "countryCode": "IN"}, "averageDailyFlights": 4.14, "operators": [{"name": "IndiGo", "iata": "6E", "icao": "IGO"}, {"name": "Air India", "iata": "AI", "icao": "AIC"}, {"name": "Singapore Airlines", "iata": "SQ", "icao": "SIA"}]}, {"destination": {"icao": "LFPG", "iata": "CDG", "name": "Paris Charles de Gaulle", "shortName": "Charles de Gaulle", "municipalityName": "Paris", "location": {"lat": 49.0128, "lon": 2.549999}, "countryCode": "FR"}, "averageDailyFlights": 4.0, "operators": [{"name": "Singapore Airlines", "iata": "SQ", "icao": "SIA"}, {"name": "Air France", "iata": "AF", "icao": "AFR"}]}, {"destination": {"icao": "WBGG", "iata": "KCH", "name": "Kuching ", "shortName": "Kuching", "municipalityName": "Kuching", "location": {"lat": 1.484699, "lon": 110.347}, "countryCode": "MY"}, "averageDailyFlights": 3.86, "operators": [{"name": "AirAsia", "iata": "AK", "icao": "AXM"}, {"name": "Malaysia Airlines", "iata": "MH", "icao": "MAS"}, {"name": "Tibet Airlines", "iata": "TV", "icao": "TBA"}, {"name": "Scoot", "iata": "TR", "icao": "TGW"}]}, {"destination": {"icao": "RPLC", "iata": "CRK", "name": "Angeles City Clark", "shortName": "Clark", "municipalityName": "Angeles City", "location": {"lat": 15.185999, "lon": 120.56}, "countryCode": "PH"}, "averageDailyFlights": 3.43, "operators": [{"name": "Tibet Airlines", "iata": "TV", "icao": "TBA"}, {"name": "Scoot", "iata": "TR", "icao": "TGW"}, {"name": "Cebu Pacific Air", "iata": "5J", "icao": "CEB"}]}, {"destination": {"icao": "NZAA", "iata": "AKL", "name": "Auckland ", "shortName": "Auckland", "municipalityName": "Auckland", "location": {"lat": -37.0081, "lon": 174.792}, "countryCode": "NZ"}, "averageDailyFlights": 3.43, "operators": [{"name": "Singapore Airlines", "iata": "SQ", "icao": "SIA"}, {"name": "Air New Zealand", "iata": "NZ", "icao": "ANZ"}]}, {"destination": {"icao": "VGHS", "iata": "DAC", "name": "Dhaka Hazrat Shahjalal", "shortName": "Hazrat Shahjalal", "municipalityName": "Dhaka", "location": {"lat": 23.843348, "lon": 90.39778}, "countryCode": "BD"}, "averageDailyFlights": 3.43, "operators": [{"name": "US-Bangla Airlines", "iata": "BS", "icao": "UBG"}, {"name": "Biman Bangladesh Airlines", "iata": "BG", "icao": "BBC"}, {"name": "Singapore Airlines", "iata": "SQ", "icao": "SIA"}]}, {"destination": {"icao": "OTHH", "iata": "DOH", "name": "Doha Hamad", "shortName": "Hamad", "municipalityName": "Doha", "location": {"lat": 25.273056, "lon": 51.608055}, "countryCode": "QA"}, "averageDailyFlights": 3.43, "operators": [{"name": "Qatar Airways", "iata": "QR", "icao": "QTR"}]}, {"destination": {"icao": "WBKK", "iata": "BKI", "name": "Kota Kinabalu ", "shortName": "Kota Kinabalu", "municipalityName": "Kota Kinabalu", "location": {"lat": 5.93721, "lon": 116.051}, "countryCode": "MY"}, "averageDailyFlights": 3.43, "operators": [{"name": "Tibet Airlines", "iata": "TV", "icao": "TBA"}, {"name": "Scoot", "iata": "TR", "icao": "TGW"}, {"name": "AirAsia", "iata": "AK", "icao": "AXM"}]}, {"destination": {"icao": "WMKL", "iata": "LGK", "name": "Langkawi ", "shortName": "Langkawi", "municipalityName": "Langkawi", "location": {"lat": 6.32973, "lon": 99.7287}, "countryCode": "MY"}, "averageDailyFlights": 3.43, "operators": [{"name": "Tibet Airlines", "iata": "TV", "icao": "TBA"}, {"name": "Scoot", "iata": "TR", "icao": "TGW"}, {"name": "AirAsia", "iata": "AK", "icao": "AXM"}]}, {"destination": {"icao": "VOHS", "iata": "HYD", "name": "Hyderabad Rajiv Gandhi", "shortName": "Rajiv Gandhi", "municipalityName": "Hyderabad", "location": {"lat": 17.231318, "lon": 78.429855}, "countryCode": "IN"}, "averageDailyFlights": 3.0, "operators": [{"name": "Singapore Airlines", "iata": "SQ", "icao": "SIA"}, {"name": "IndiGo", "iata": "6E", "icao": "IGO"}]}, {"destination": {"icao": "VTCC", "iata": "CNX", "name": "Chiangmai Chiang Mai", "shortName": "Chiang Mai", "municipalityName": "Chiangmai", "location": {"lat": 18.7668, "lon": 98.9626}, "countryCode": "TH"}, "averageDailyFlights": 2.86, "operators": [{"name": "Tibet Airlines", "iata": "TV", "icao": "TBA"}, {"name": "Scoot", "iata": "TR", "icao": "TGW"}]}, {"destination": {"icao": "VVDN", "iata": "DAD", "name": "Da Nang ", "shortName": "Da Nang", "municipalityName": "Da Nang", "location": {"lat": 16.0439, "lon": 108.199}, "countryCode": "VN"}, "averageDailyFlights": 2.86, "operators": [{"name": "VietJetAir", "iata": "VJ", "icao": "VJC"}, {"name": "Singapore Airlines", "iata": "SQ", "icao": "SIA"}]}, {"destination": {"icao": "VMMC", "iata": "MFM", "name": "Taipa Macau", "shortName": "Macau", "municipalityName": "Taipa", "location": {"lat": 22.1496, "lon": 113.592}, "countryCode": "MO"}, "averageDailyFlights": 2.57, "operators": [{"name": "Tibet Airlines", "iata": "TV", "icao": "TBA"}, {"name": "Scoot", "iata": "TR", "icao": "TGW"}, {"name": "Air Macau", "iata": "NX", "icao": "AMU"}]}, {"destination": {"icao": "WBSB", "iata": "BWN", "name": "Bandar Seri Begawan Brunei", "shortName": "Brunei", "municipalityName": "Bandar Seri Begawan", "location": {"lat": 4.9442, "lon": 114.928}, "countryCode": "BN"}, "averageDailyFlights": 2.43, "operators": [{"name": "Singapore Airlines", "iata": "SQ", "icao": "SIA"}, {"name": "Royal Brunei Airlines", "iata": "BI", "icao": "RBA"}]}, {"destination": {"icao": "ZJHK", "iata": "HAK", "name": "Haikou Meilan", "shortName": "Meilan", "municipalityName": "Haikou", "location": {"lat": 19.9349, "lon": 110.459}, "countryCode": "CN"}, "averageDailyFlights": 2.43, "operators": [{"name": "Tibet Airlines", "iata": "TV", "icao": "TBA"}, {"name": "Scoot", "iata": "TR", "icao": "TGW"}, {"name": "Jetstar Asia", "iata": "3K", "icao": "JSA"}, {"name": "Hainan Airlines", "iata": "HU", "icao": "CHH"}]}, {"destination": {"icao": "LTFM", "iata": "IST", "name": "Istanbul ", "shortName": "Istanbul", "municipalityName": "Istanbul", "location": {"lat": 41.275276, "lon": 28.751944}, "countryCode": "TR"}, "averageDailyFlights": 2.43, "operators": [{"name": "Turkish Airlines", "iata": "TK", "icao": "THY"}, {"name": "Singapore Airlines", "iata": "SQ", "icao": "SIA"}]}, {"destination": {"name": "Yogyakarta"}, "averageDailyFlights": 2.43, "operators": [{"name": "Tibet Airlines", "iata": "TV", "icao": "TBA"}, {"name": "Batik Air", "iata": "ID", "icao": "BTK"}, {"name": "Indonesia AirAsia", "iata": "QZ", "icao": "AWQ"}]}, {"destination": {"icao": "EDDF", "iata": "FRA", "name": "Frankfurt-am-Main ", "shortName": "Frankfurt-am-Main", "municipalityName": "Frankfurt-am-Main", "location": {"lat": 50.0264, "lon": 8.543129}, "countryCode": "DE"}, "averageDailyFlights": 2.29, "operators": [{"name": "Singapore Airlines", "iata": "SQ", "icao": "SIA"}, {"name": "Lufthansa", "iata": "LH", "icao": "DLH"}]}, {"destination": {"icao": "VOCI", "iata": "COK", "name": "Kochi Cochin", "shortName": "Cochin", "municipalityName": "Kochi", "location": {"lat": 10.152, "lon": 76.4019}, "countryCode": "IN"}, "averageDailyFlights": 2.29, "operators": [{"name": "Singapore Airlines", "iata": "SQ", "icao": "SIA"}]}, {"destination": {"icao": "VRMM", "iata": "MLE", "name": "Mal\u00e9 ", "shortName": "Mal\u00e9", "municipalityName": "Mal\u00e9", "location": {"lat": 4.19183, "lon": 73.5291}, "countryCode": "MV"}, "averageDailyFlights": 2.29, "operators": [{"name": "Singapore Airlines", "iata": "SQ", "icao": "SIA"}]}, {"destination": {"icao": "VTSM", "iata": "USM", "name": "Na Thon (Ko Samui Island) Samui", "shortName": "Samui", "municipalityName": "Na Thon (Ko Samui Island)", "location": {"lat": 9.547789, "lon": 100.062}, "countryCode": "TH"}, "averageDailyFlights": 2.29, "operators": [{"name": "Bangkok Airways", "iata": "PG", "icao": "BKP"}]}, {"destination": {"icao": "ZSAM", "iata": "XMN", "name": "Xiamen Gaoqi", "shortName": "Gaoqi", "municipalityName": "Xiamen", "location": {"lat": 24.544, "lon": 118.128}, "countryCode": "CN"}, "averageDailyFlights": 2.29, "operators": [{"name": "Xiamen Airlines", "iata": "MF", "icao": "CXA"}]}, {"destination": {"icao": "LSZH", "iata": "ZRH", "name": "Zurich Kloten", "shortName": "Kloten", "municipalityName": "Zurich", "location": {"lat": 47.4647, "lon": 8.549169}, "countryCode": "CH"}, "averageDailyFlights": 2.29, "operators": [{"name": "SWISS", "iata": "LX", "icao": "SWR"}, {"name": "Singapore Airlines", "iata": "SQ", "icao": "SIA"}]}, {"destination": {"icao": "EHAM", "iata": "AMS", "name": "Amsterdam Schiphol", "shortName": "Schiphol", "municipalityName": "Amsterdam", "location": {"lat": 52.3086, "lon": 4.763889}, "countryCode": "NL"}, "averageDailyFlights": 2.14, "operators": [{"name": "KLM", "iata": "KL", "icao": "KLM"}, {"name": "Singapore Airlines", "iata": "SQ", "icao": "SIA"}]}, {"destination": {"icao": "VCBI", "iata": "CMB", "name": "Colombo Bandaranaike", "shortName": "Bandaranaike", "municipalityName": "Colombo", "location": {"lat": 7.180759, "lon": 79.8841}, "countryCode": "LK"}, "averageDailyFlights": 2.14, "operators": [{"name": "Singapore Airlines", "iata": "SQ", "icao": "SIA"}, {"name": "SriLankan Airlines", "iata": "UL", "icao": "ALK"}]}, {"destination": {"icao": "EDDM", "iata": "MUC", "name": "Munich ", "shortName": "Munich", "municipalityName": "Munich", "location": {"lat": 48.3538, "lon": 11.7861}, "countryCode": "DE"}, "averageDailyFlights": 2.14, "operators": [{"name": "Singapore Airlines", "iata": "SQ", "icao": "SIA"}, {"name": "Lufthansa", "iata": "LH", "icao": "DLH"}]}, {"destination": {"icao": "VOCB", "iata": "CJB", "name": "Coimbatore ", "shortName": "Coimbatore", "municipalityName": "Coimbatore", "location": {"lat": 11.029999, "lon": 77.0434}, "countryCode": "IN"}, "averageDailyFlights": 2.0, "operators": [{"name": "Tibet Airlines", "iata": "TV", "icao": "TBA"}, {"name": "Scoot", "iata": "TR", "icao": "TGW"}]}, {"destination": {"icao": "RPMD", "iata": "DVO", "name": "Davao City Francisco Bangoy", "shortName": "Francisco Bangoy", "municipalityName": "Davao City", "location": {"lat": 7.12552, "lon": 125.646}, "countryCode": "PH"}, "averageDailyFlights": 2.0, "operators": [{"name": "Tibet Airlines", "iata": "TV", "icao": "TBA"}, {"name": "Scoot", "iata": "TR", "icao": "TGW"}]}, {"destination": {"icao": "VTSS", "iata": "HDY", "name": "Hat Yai ", "shortName": "Hat Yai", "municipalityName": "Hat Yai", "location": {"lat": 6.933209, "lon": 100.393}, "countryCode": "TH"}, "averageDailyFlights": 2.0, "operators": [{"name": "Tibet Airlines", "iata": "TV", "icao": "TBA"}, {"name": "Scoot", "iata": "TR", "icao": "TGW"}]}, {"destination": {"icao": "OEJN", "iata": "JED", "name": "Jeddah King Abdulaziz", "shortName": "King Abdulaziz", "municipalityName": "Jeddah", "location": {"lat": 21.6796, "lon": 39.1565}, "countryCode": "SA"}, "averageDailyFlights": 2.0, "operators": [{"name": "Tibet Airlines", "iata": "TV", "icao": "TBA"}, {"name": "Scoot", "iata": "TR", "icao": "TGW"}, {"name": "Saudi Arabian Airlines", "iata": "SV", "icao": "SVA"}]}, {"destination": {"icao": "VECC", "iata": "CCU", "name": "Kolkata Netaji Subhash Chandra Bose", "shortName": "Netaji Subhash Chandra Bose", "municipalityName": "Kolkata", "location": {"lat": 22.6547, "lon": 88.4467}, "countryCode": "IN"}, "averageDailyFlights": 2.0, "operators": [{"name": "Singapore Airlines", "iata": "SQ", "icao": "SIA"}, {"name": "IndiGo", "iata": "6E", "icao": "IGO"}]}, {"destination": {"icao": "VTSG", "iata": "KBV", "name": "Krabi ", "shortName": "Krabi", "municipalityName": "Krabi", "location": {"lat": 8.09912, "lon": 98.9862}, "countryCode": "TH"}, "averageDailyFlights": 2.0, "operators": [{"name": "Tibet Airlines", "iata": "TV", "icao": "TBA"}, {"name": "Scoot", "iata": "TR", "icao": "TGW"}]}, {"destination": {"icao": "ZGSZ", "iata": "SZX", "name": "Shenzhen Bao'an", "shortName": "Bao'an", "municipalityName": "Shenzhen", "location": {"lat": 22.6393, "lon": 113.811}, "countryCode": "CN"}, "averageDailyFlights": 2.0, "operators": [{"name": "Shenzhen Airlines", "iata": "ZH", "icao": "CSZ"}, {"name": "Tibet Airlines", "iata": "TV", "icao": "TBA"}]}, {"destination": {"icao": "VOTV", "iata": "TRV", "name": "Trivandrum ", "shortName": "Trivandrum", "municipalityName": "Trivandrum", "location": {"lat": 8.482119, "lon": 76.9201}, "countryCode": "IN"}, "averageDailyFlights": 1.86, "operators": [{"name": "Tibet Airlines", "iata": "TV", "icao": "TBA"}, {"name": "Scoot", "iata": "TR", "icao": "TGW"}]}, {"destination": {"name": "Chengdu (Tianfu)"}, "averageDailyFlights": 1.86, "operators": [{"name": "Air China", "iata": "CA", "icao": "CCA"}, {"name": "Sichuan Airlines", "iata": "3U", "icao": "CSC"}]}, {"destination": {"icao": "ZSFZ", "iata": "FOC", "name": "Fuzhou Changle", "shortName": "Changle", "municipalityName": "Fuzhou", "location": {"lat": 25.9351, "lon": 119.663}, "countryCode": "CN"}, "averageDailyFlights": 1.71, "operators": [{"name": "Scoot", "iata": "TR", "icao": "TGW"}, {"name": "Tibet Airlines", "iata": "TV", "icao": "TBA"}, {"name": "Xiamen Airlines", "iata": "MF", "icao": "CXA"}]}, {"destination": {"icao": "ZSNJ", "iata": "NKG", "name": "Nanjing Lukou", "shortName": "Lukou", "municipalityName": "Nanjing", "location": {"lat": 31.742, "lon": 118.862}, "countryCode": "CN"}, "averageDailyFlights": 1.71, "operators": [{"name": "Tibet Airlines", "iata": "TV", "icao": "TBA"}, {"name": "Scoot", "iata": "TR", "icao": "TGW"}]}, {"destination": {"icao": "KLAX", "iata": "LAX", "name": "Los Angeles ", "shortName": "Los Angeles", "municipalityName": "Los Angeles", "location": {"lat": 33.9425, "lon": -118.408}, "countryCode": "US"}, "averageDailyFlights": 1.57, "operators": [{"name": "Singapore Airlines", "iata": "SQ", "icao": "SIA"}]}, {"destination": {"icao": "RKPK", "iata": "PUS", "name": "Busan-si Gimhae", "shortName": "Gimhae", "municipalityName": "Busan-si", "location": {"lat": 35.1795, "lon": 128.938}, "countryCode": "KR"}, "averageDailyFlights": 1.43, "operators": [{"name": "Jeju Air", "iata": "7C", "icao": "JJA"}, {"name": "Singapore Airlines", "iata": "SQ", "icao": "SIA"}]}, {"destination": {"icao": "WIBB", "iata": "PKU", "name": "Pekanbaru-Sumatra Island Sultan Syarif Kasim Ii (Simpang Tiga)", "shortName": "Sultan Syarif Kasim Ii (Simpang Tiga)", "municipalityName": "Pekanbaru-Sumatra Island", "location": {"lat": 0.460786, "lon": 101.445}, "countryCode": "ID"}, "averageDailyFlights": 1.43, "operators": [{"name": "Tibet Airlines", "iata": "TV", "icao": "TBA"}, {"name": "Scoot", "iata": "TR", "icao": "TGW"}]}, {"destination": {"icao": "WAAA", "iata": "UPG", "name": "Ujung Pandang-Celebes Island Hasanuddin", "shortName": "Hasanuddin", "municipalityName": "Ujung Pandang-Celebes Island", "location": {"lat": -5.061629, "lon": 119.554}, "countryCode": "ID"}, "averageDailyFlights": 1.43, "operators": [{"name": "Tibet Airlines", "iata": "TV", "icao": "TBA"}, {"name": "Scoot", "iata": "TR", "icao": "TGW"}, {"name": "Batik Air", "iata": "ID", "icao": "BTK"}]}, {"destination": {"icao": "ZSHC", "iata": "HGH", "name": "Hangzhou Xiaoshan", "shortName": "Xiaoshan", "municipalityName": "Hangzhou", "location": {"lat": 30.2295, "lon": 120.434}, "countryCode": "CN"}, "averageDailyFlights": 1.29, "operators": [{"name": "Scoot", "iata": "TR", "icao": "TGW"}, {"name": "China Eastern Airlines", "iata": "MU", "icao": "CES"}, {"name": "Tibet Airlines", "iata": "TV", "icao": "TBA"}]}, {"destination": {"icao": "WBGR", "iata": "MYY", "name": "Miri ", "shortName": "Miri", "municipalityName": "Miri", "location": {"lat": 4.32201, "lon": 113.987}, "countryCode": "MY"}, "averageDailyFlights": 1.29, "operators": [{"name": "Scoot", "iata": "TR", "icao": "TGW"}, {"name": "AirAsia", "iata": "AK", "icao": "AXM"}, {"name": "Tibet Airlines", "iata": "TV", "icao": "TBA"}]}, {"destination": {"icao": "ZSQD", "iata": "TAO", "name": "Qingdao Liuting", "shortName": "Liuting", "municipalityName": "Qingdao", "location": {"lat": 36.2661, "lon": 120.374}, "countryCode": "CN"}, "averageDailyFlights": 1.29, "operators": [{"name": "Tibet Airlines", "iata": "TV", "icao": "TBA"}, {"name": "Scoot", "iata": "TR", "icao": "TGW"}]}, {"destination": {"icao": "OMAA", "iata": "AUH", "name": "Abu Dhabi Island and Internal Islands City Abu Dhabi", "shortName": "Abu Dhabi", "municipalityName": "Abu Dhabi Island and Internal Islands City", "location": {"lat": 24.433, "lon": 54.6511}, "countryCode": "AE"}, "averageDailyFlights": 1.14, "operators": [{"name": "Etihad Airways"}]}, {"destination": {"icao": "YPAD", "iata": "ADL", "name": "Adelaide ", "shortName": "Adelaide", "municipalityName": "Adelaide", "location": {"lat": -34.945, "lon": 138.531}, "countryCode": "AU"}, "averageDailyFlights": 1.14, "operators": [{"name": "Singapore Airlines", "iata": "SQ", "icao": "SIA"}]}, {"destination": {"icao": "VAAH", "iata": "AMD", "name": "Ahmedabad Sardar Vallabhbhai Patel", "shortName": "Sardar Vallabhbhai Patel", "municipalityName": "Ahmedabad", "location": {"lat": 23.0772, "lon": 72.6347}, "countryCode": "IN"}, "averageDailyFlights": 1.14, "operators": [{"name": "Singapore Airlines", "iata": "SQ", "icao": "SIA"}]}, {"destination": {"icao": "NZCH", "iata": "CHC", "name": "Christchurch ", "shortName": "Christchurch", "municipalityName": "Christchurch", "location": {"lat": -43.4894, "lon": 172.532}, "countryCode": "NZ"}, "averageDailyFlights": 1.14, "operators": [{"name": "Singapore Airlines", "iata": "SQ", "icao": "SIA"}]}, {"destination": {"icao": "EFHK", "iata": "HEL", "name": "Helsinki Vantaa", "shortName": "Vantaa", "municipalityName": "Helsinki", "location": {"lat": 60.3172, "lon": 24.9633}, "countryCode": "FI"}, "averageDailyFlights": 1.14, "operators": [{"name": "Finnair", "iata": "AY", "icao": "FIN"}]}, {"destination": {"icao": "RKPC", "iata": "CJU", "name": "Jeju City Jeju", "shortName": "Jeju", "municipalityName": "Jeju City", "location": {"lat": 33.5113, "lon": 126.493}, "countryCode": "KR"}, "averageDailyFlights": 1.14, "operators": [{"name": "Tibet Airlines", "iata": "TV", "icao": "TBA"}, {"name": "Scoot", "iata": "TR", "icao": "TGW"}]}, {"destination": {"icao": "FAOR", "iata": "JNB", "name": "Jo'anna OR Tambo", "shortName": "OR Tambo", "municipalityName": "Jo'anna", "location": {"lat": -26.1392, "lon": 28.246}, "countryCode": "ZA"}, "averageDailyFlights": 1.14, "operators": [{"name": "Singapore Airlines", "iata": "SQ", "icao": "SIA"}]}, {"destination": {"icao": "VNKT", "iata": "KTM", "name": "Kathmandu Tribhuvan", "shortName": "Tribhuvan", "municipalityName": "Kathmandu", "location": {"lat": 27.696598, "lon": 85.3591}, "countryCode": "NP"}, "averageDailyFlights": 1.14, "operators": [{"name": "Singapore Airlines", "iata": "SQ", "icao": "SIA"}]}, {"destination": {"icao": "VOMD", "iata": "IXM", "name": "Madurai ", "shortName": "Madurai", "municipalityName": "Madurai", "location": {"lat": 9.834509, "lon": 78.0934}, "countryCode": "IN"}, "averageDailyFlights": 1.14, "operators": [{"name": "Air India Express", "iata": "IX", "icao": "AXB"}]}, {"destination": {"icao": "LIMC", "iata": "MXP", "name": "Milan Malpensa", "shortName": "Malpensa", "municipalityName": "Milan", "location": {"lat": 45.6306, "lon": 8.72811}, "countryCode": "IT"}, "averageDailyFlights": 1.14, "operators": [{"name": "Singapore Airlines", "iata": "SQ", "icao": "SIA"}]}, {"destination": {"icao": "KJFK", "iata": "JFK", "name": "New York John F Kennedy", "shortName": "John F Kennedy", "municipalityName": "New York", "location": {"lat": 40.6398, "lon": -73.7789}, "countryCode": "US"}, "averageDailyFlights": 1.14, "operators": [{"name": "Singapore Airlines", "iata": "SQ", "icao": "SIA"}]}, {"destination": {"icao": "KEWR", "iata": "EWR", "name": "Newark Liberty", "shortName": "Liberty", "municipalityName": "Newark", "location": {"lat": 40.6925, "lon": -74.1687}, "countryCode": "US"}, "averageDailyFlights": 1.14, "operators": [{"name": "Singapore Airlines", "iata": "SQ", "icao": "SIA"}]}, {"destination": {"icao": "ZYTX", "iata": "SHE", "name": "Shenyang Taoxian", "shortName": "Taoxian", "municipalityName": "Shenyang", "location": {"lat": 41.6398, "lon": 123.483}, "countryCode": "CN"}, "averageDailyFlights": 1.14, "operators": [{"name": "Tibet Airlines", "iata": "TV", "icao": "TBA"}, {"name": "Scoot", "iata": "TR", "icao": "TGW"}]}, {"destination": {"icao": "ZLXY", "iata": "XIY", "name": "Xianyang Xi'an", "shortName": "Xi'an", "municipalityName": "Xianyang", "location": {"lat": 34.4471, "lon": 108.752}, "countryCode": "CN"}, "averageDailyFlights": 1.14, "operators": [{"name": "Scoot", "iata": "TR", "icao": "TGW"}, {"name": "Tibet Airlines", "iata": "TV", "icao": "TBA"}]}, {"destination": {"icao": "WAMM", "iata": "MDC", "name": "Manado-Celebes Island Sam Ratulangi", "shortName": "Sam Ratulangi", "municipalityName": "Manado-Celebes Island", "location": {"lat": 1.54926, "lon": 124.926}, "countryCode": "ID"}, "averageDailyFlights": 1.0, "operators": [{"name": "Scoot", "iata": "TR", "icao": "TGW"}, {"name": "Tibet Airlines", "iata": "TV", "icao": "TBA"}]}, {"destination": {"icao": "WADL", "iata": "LOP", "name": "Mataram Bandara  Lombok", "shortName": "Bandara  Lombok", "municipalityName": "Mataram", "location": {"lat": -8.757322, "lon": 116.27667}, "countryCode": "ID"}, "averageDailyFlights": 1.0, "operators": [{"name": "Scoot", "iata": "TR", "icao": "TGW"}, {"name": "Tibet Airlines", "iata": "TV", "icao": "TBA"}]}, {"destination": {"icao": "VOVZ", "iata": "VTZ", "name": "Visakhapatnam Vishakhapatnam", "shortName": "Vishakhapatnam", "municipalityName": "Visakhapatnam", "location": {"lat": 17.7212, "lon": 83.2245}, "countryCode": "IN"}, "averageDailyFlights": 1.0, "operators": [{"name": "Tibet Airlines", "iata": "TV", "icao": "TBA"}, {"name": "Scoot", "iata": "TR", "icao": "TGW"}]}, {"destination": {"icao": "ZUCK", "iata": "CKG", "name": "Chongqing Jiangbei", "shortName": "Jiangbei", "municipalityName": "Chongqing", "location": {"lat": 29.7192, "lon": 106.642}, "countryCode": "CN"}, "averageDailyFlights": 0.86, "operators": [{"name": "Chongqing Airlines", "iata": "OQ", "icao": "CQN"}]}, {"destination": {"icao": "EKCH", "iata": "CPH", "name": "Copenhagen Kastrup", "shortName": "Kastrup", "municipalityName": "Copenhagen", "location": {"lat": 55.6179, "lon": 12.656}, "countryCode": "DK"}, "averageDailyFlights": 0.86, "operators": [{"name": "Singapore Airlines", "iata": "SQ", "icao": "SIA"}]}, {"destination": {"icao": "RJFF", "iata": "FUK", "name": "Fukuoka ", "shortName": "Fukuoka", "municipalityName": "Fukuoka", "location": {"lat": 33.5859, "lon": 130.451}, "countryCode": "JP"}, "averageDailyFlights": 0.86, "operators": [{"name": "Singapore Airlines", "iata": "SQ", "icao": "SIA"}]}, {"destination": {"icao": "WALL", "iata": "BPN", "name": "Kotamadya Balikpapan Sultan Aji Muhamad Sulaiman", "shortName": "Sultan Aji Muhamad Sulaiman", "municipalityName": "Kotamadya Balikpapan", "location": {"lat": -1.26827, "lon": 116.894}, "countryCode": "ID"}, "averageDailyFlights": 0.86, "operators": [{"name": "Scoot", "iata": "TR", "icao": "TGW"}, {"name": "Tibet Airlines", "iata": "TV", "icao": "TBA"}]}, {"destination": {"icao": "WMKD", "iata": "KUA", "name": "Kuantan ", "shortName": "Kuantan", "municipalityName": "Kuantan", "location": {"lat": 3.775389, "lon": 103.209}, "countryCode": "MY"}, "averageDailyFlights": 0.86, "operators": [{"name": "Scoot", "iata": "TR", "icao": "TGW"}, {"name": "Tibet Airlines", "iata": "TV", "icao": "TBA"}]}, {"destination": {"icao": "EGCC", "iata": "MAN", "name": "Manchester ", "shortName": "Manchester", "municipalityName": "Manchester", "location": {"lat": 53.3537, "lon": -2.27495}, "countryCode": "GB"}, "averageDailyFlights": 0.86, "operators": [{"name": "Singapore Airlines", "iata": "SQ", "icao": "SIA"}]}, {"destination": {"icao": "NWWW", "iata": "NOU", "name": "Noum\u00e9a La Tontouta", "shortName": "La Tontouta", "municipalityName": "Noum\u00e9a", "location": {"lat": -22.0146, "lon": 166.213}, "countryCode": "NC"}, "averageDailyFlights": 0.86, "operators": [{"name": "Aircalin", "iata": "SB", "icao": "ACI"}]}, {"destination": {"icao": "YPDN", "iata": "DRW", "name": "Port Darwin Darwin", "shortName": "Darwin", "municipalityName": "Port Darwin", "location": {"lat": -12.414699, "lon": 130.877}, "countryCode": "AU"}, "averageDailyFlights": 0.86, "operators": [{"name": "Singapore Airlines", "iata": "SQ", "icao": "SIA"}]}, {"destination": {"icao": "ZBTJ", "iata": "TSN", "name": "Tianjin Binhai", "shortName": "Binhai", "municipalityName": "Tianjin", "location": {"lat": 39.1244, "lon": 117.346}, "countryCode": "CN"}, "averageDailyFlights": 0.86, "operators": [{"name": "Tibet Airlines", "iata": "TV", "icao": "TBA"}]}, {"destination": {"icao": "ZHHH", "iata": "WUH", "name": "Wuhan Tianhe", "shortName": "Tianhe", "municipalityName": "Wuhan", "location": {"lat": 30.7838, "lon": 114.208}, "countryCode": "CN"}, "averageDailyFlights": 0.86, "operators": [{"name": "Scoot", "iata": "TR", "icao": "TGW"}, {"name": "Tibet Airlines", "iata": "TV", "icao": "TBA"}]}, {"destination": {"icao": "ZHCC", "iata": "CGO", "name": "Zhengzhou Xinzheng", "shortName": "Xinzheng", "municipalityName": "Zhengzhou", "location": {"lat": 34.5197, "lon": 113.841}, "countryCode": "CN"}, "averageDailyFlights": 0.86, "operators": [{"name": "Tibet Airlines", "iata": "TV", "icao": "TBA"}, {"name": "Scoot", "iata": "TR", "icao": "TGW"}]}, {"destination": {"icao": "VIAR", "iata": "ATQ", "name": "Amritsar Sri Guru Ram Dass Jee", "shortName": "Sri Guru Ram Dass Jee", "municipalityName": "Amritsar", "location": {"lat": 31.7096, "lon": 74.7973}, "countryCode": "IN"}, "averageDailyFlights": 0.71, "operators": [{"name": "Tibet Airlines", "iata": "TV", "icao": "TBA"}]}, {"destination": {"icao": "YBCS", "iata": "CNS", "name": "Cairns ", "shortName": "Cairns", "municipalityName": "Cairns", "location": {"lat": -16.8858, "lon": 145.755}, "countryCode": "AU"}, "averageDailyFlights": 0.71, "operators": [{"name": "Singapore Airlines", "iata": "SQ", "icao": "SIA"}]}, {"destination": {"icao": "ZSJN", "iata": "TNA", "name": "Jinan Yaoqiang", "shortName": "Yaoqiang", "municipalityName": "Jinan", "location": {"lat": 36.8572, "lon": 117.216}, "countryCode": "CN"}, "averageDailyFlights": 0.71, "operators": [{"name": "Tibet Airlines", "iata": "TV", "icao": "TBA"}, {"name": "Scoot", "iata": "TR", "icao": "TGW"}]}, {"destination": {"icao": "ZSCN", "iata": "KHN", "name": "Nanchang Changbei", "shortName": "Changbei", "municipalityName": "Nanchang", "location": {"lat": 28.865, "lon": 115.9}, "countryCode": "CN"}, "averageDailyFlights": 0.71, "operators": [{"name": "Scoot", "iata": "TR", "icao": "TGW"}, {"name": "Tibet Airlines", "iata": "TV", "icao": "TBA"}]}, {"destination": {"icao": "RJGG", "iata": "NGO", "name": "Tokoname Chubu Centrair", "shortName": "Chubu Centrair", "municipalityName": "Tokoname", "location": {"lat": 34.8584, "lon": 136.805}, "countryCode": "JP"}, "averageDailyFlights": 0.71, "operators": [{"name": "Singapore Airlines", "iata": "SQ", "icao": "SIA"}]}, {"destination": {"icao": "HAAB", "iata": "ADD", "name": "Addis Ababa Bole", "shortName": "Bole", "municipalityName": "Addis Ababa", "location": {"lat": 8.97789, "lon": 38.7993}, "countryCode": "ET"}, "averageDailyFlights": 0.57, "operators": [{"name": "Ethiopian Airlines", "iata": "ET", "icao": "ETH"}]}, {"destination": {"icao": "ZPPP", "iata": "KMG", "name": "Kunming Changshui", "shortName": "Changshui", "municipalityName": "Kunming", "location": {"lat": 25.101944, "lon": 102.92917}, "countryCode": "CN"}, "averageDailyFlights": 0.57, "operators": [{"name": "China Eastern Airlines", "iata": "MU", "icao": "CES"}]}, {"destination": {"icao": "OBBI", "iata": "BAH", "name": "Manama Bahrain", "shortName": "Bahrain", "municipalityName": "Manama", "location": {"lat": 26.2708, "lon": 50.6336}, "countryCode": "BH"}, "averageDailyFlights": 0.57, "operators": [{"name": "Gulf Air"}]}, {"destination": {"icao": "ZGNN", "iata": "NNG", "name": "Nanning Wuxu", "shortName": "Wuxu", "municipalityName": "Nanning", "location": {"lat": 22.6083, "lon": 108.172}, "countryCode": "CN"}, "averageDailyFlights": 0.57, "operators": [{"name": "Scoot", "iata": "TR", "icao": "TGW"}, {"name": "Tibet Airlines", "iata": "TV", "icao": "TBA"}]}, {"destination": {"icao": "AYPY", "iata": "POM", "name": "Port Moresby Jacksons", "shortName": "Jacksons", "municipalityName": "Port Moresby", "location": {"lat": -9.44338, "lon": 147.22}, "countryCode": "PG"}, "averageDailyFlights": 0.57, "operators": [{"name": "Air Niugini", "iata": "PX", "icao": "ANG"}]}, {"destination": {"icao": "VAPO", "iata": "PNQ", "name": "Pune ", "shortName": "Pune", "municipalityName": "Pune", "location": {"lat": 18.5821, "lon": 73.9197}, "countryCode": "IN"}, "averageDailyFlights": 0.57, "operators": [{"name": "Vistara", "iata": "UK", "icao": "VTI"}]}, {"destination": {"icao": "LIRF", "iata": "FCO", "name": "Rome Leonardo da Vinci\u2013Fiumicino", "shortName": "Leonardo da Vinci\u2013Fiumicino", "municipalityName": "Rome", "location": {"lat": 41.8045, "lon": 12.2508}, "countryCode": "IT"}, "averageDailyFlights": 0.57, "operators": [{"name": "Singapore Airlines", "iata": "SQ", "icao": "SIA"}]}, {"destination": {"icao": "KSEA", "iata": "SEA", "name": "Seattle Tacoma", "shortName": "Tacoma", "municipalityName": "Seattle", "location": {"lat": 47.449, "lon": -122.309}, "countryCode": "US"}, "averageDailyFlights": 0.57, "operators": [{"name": "Singapore Airlines", "iata": "SQ", "icao": "SIA"}]}, {"destination": {"icao": "VLVT", "iata": "VTE", "name": "Vientiane Wattay", "shortName": "Wattay", "municipalityName": "Vientiane", "location": {"lat": 17.9883, "lon": 102.563}, "countryCode": "LA"}, "averageDailyFlights": 0.57, "operators": [{"name": "Tibet Airlines", "iata": "TV", "icao": "TBA"}]}, {"destination": {"name": "Siem Reap"}, "averageDailyFlights": 0.57, "operators": [{"name": "Singapore Airlines", "iata": "SQ", "icao": "SIA"}]}, {"destination": {"icao": "LGAV", "iata": "ATH", "name": "Athens Eleftherios Venizelos", "shortName": "Eleftherios Venizelos", "municipalityName": "Athens", "location": {"lat": 37.9364, "lon": 23.944498}, "countryCode": "GR"}, "averageDailyFlights": 0.43, "operators": [{"name": "Tibet Airlines", "iata": "TV", "icao": "TBA"}]}, {"destination": {"icao": "ZGHA", "iata": "CSX", "name": "Changsha Huanghua", "shortName": "Huanghua", "municipalityName": "Changsha", "location": {"lat": 28.1892, "lon": 113.22}, "countryCode": "CN"}, "averageDailyFlights": 0.43, "operators": [{"name": "China Eastern Airlines", "iata": "MU", "icao": "CES"}]}, {"destination": {"icao": "ZSOF", "iata": "HFE", "name": "Hefei Luogang", "shortName": "Luogang", "municipalityName": "Hefei", "location": {"lat": 31.78, "lon": 117.298}, "countryCode": "CN"}, "averageDailyFlights": 0.43, "operators": [{"name": "China Eastern Airlines", "iata": "MU", "icao": "CES"}]}, {"destination": {"icao": "NFFN", "iata": "NAN", "name": "Nadi ", "shortName": "Nadi", "municipalityName": "Nadi", "location": {"lat": -17.7554, "lon": 177.443}, "countryCode": "FJ"}, "averageDailyFlights": 0.43, "operators": [{"name": "Fiji Airways", "iata": "FJ", "icao": "FJI"}]}, {"destination": {"icao": "ZSNB", "iata": "NGB", "name": "Ningbo Lishe", "shortName": "Lishe", "municipalityName": "Ningbo", "location": {"lat": 29.8267, "lon": 121.462}, "countryCode": "CN"}, "averageDailyFlights": 0.43, "operators": [{"name": "Tibet Airlines", "iata": "TV", "icao": "TBA"}, {"name": "Scoot", "iata": "TR", "icao": "TGW"}]}, {"destination": {"icao": "WBGS", "iata": "SBW", "name": "Sibu ", "shortName": "Sibu", "municipalityName": "Sibu", "location": {"lat": 2.2616, "lon": 111.985}, "countryCode": "MY"}, "averageDailyFlights": 0.43, "operators": [{"name": "AirAsia", "iata": "AK", "icao": "AXM"}]}, {"destination": {"icao": "VEBS", "iata": "BBI", "name": "Bhubaneswar Biju Patnaik", "shortName": "Biju Patnaik", "municipalityName": "Bhubaneswar", "location": {"lat": 20.2444, "lon": 85.8178}, "countryCode": "IN"}, "averageDailyFlights": 0.29, "operators": [{"name": "IndiGo", "iata": "6E", "icao": "IGO"}]}, {"destination": {"icao": "VEGT", "iata": "GAU", "name": "Guwahati Lokpriya Gopinath Bordoloi", "shortName": "Lokpriya Gopinath Bordoloi", "municipalityName": "Guwahati", "location": {"lat": 26.1061, "lon": 91.5859}, "countryCode": "IN"}, "averageDailyFlights": 0.29, "operators": [{"name": "Drukair", "iata": "KB", "icao": "DRK"}]}, {"destination": {"icao": "VLLB", "iata": "LPQ", "name": "Luang Phabang ", "shortName": "Luang Phabang", "municipalityName": "Luang Phabang", "location": {"lat": 19.8973, "lon": 102.161}, "countryCode": "LA"}, "averageDailyFlights": 0.29, "operators": [{"name": "Scoot", "iata": "TR", "icao": "TGW"}]}, {"destination": {"icao": "WPDL", "iata": "DIL", "name": "Dili Presidente Nicolau Lobato", "shortName": "Presidente Nicolau Lobato", "municipalityName": "Dili", "location": {"lat": -8.5464, "lon": 125.526}, "countryCode": "TL"}, "averageDailyFlights": 0.14, "operators": [{"name": "Drukair", "iata": "KB", "icao": "DRK"}]}, {"destination": {"icao": "RCKH", "iata": "KHH", "name": "Kaohsiung City Kaohsiung", "shortName": "Kaohsiung", "municipalityName": "Kaohsiung City", "location": {"lat": 22.5771, "lon": 120.35}, "countryCode": "TW"}, "averageDailyFlights": 0.14, "operators": [{"name": "EVA Air", "iata": "BR", "icao": "EVA"}]}]}