{"routes": [{"destination": {"icao": "ZBHH", "iata": "HET", "name": "Hohhot Baita", "shortName": "Baita", "municipalityName": "Hohhot", "location": {"lat": 40.8514, "lon": 111.824}, "countryCode": "CN"}, "averageDailyFlights": 2.29, "operators": [{"name": "Air China", "iata": "CA", "icao": "CCA"}]}, {"destination": {"icao": "ZBAD", "iata": "PKX", "name": "Beijing Daxing", "shortName": "Daxing", "municipalityName": "Beijing", "location": {"lat": 39.509167, "lon": 116.41055}, "countryCode": "CN"}, "averageDailyFlights": 1.14, "operators": [{"name": "Air China", "iata": "CA", "icao": "CCA"}]}, {"destination": {"icao": "ZLXY", "iata": "XIY", "name": "Xianyang Xi'an", "shortName": "Xi'an", "municipalityName": "Xianyang", "location": {"lat": 34.4471, "lon": 108.752}, "countryCode": "CN"}, "averageDailyFlights": 1.14, "operators": [{"name": "Tianjin Airlines", "iata": "GS", "icao": "GCR"}, {"name": "China Express Airlines", "iata": "G5", "icao": "HXA"}]}, {"destination": {"icao": "ZBXH", "iata": "XIL", "name": "Xilinhot ", "shortName": "Xilinhot", "municipalityName": "Xilinhot", "location": {"lat": 43.9156, "lon": 115.964}, "countryCode": "CN"}, "averageDailyFlights": 1.0, "operators": [{"name": "Chengdu Airlines"}, {"name": "Tianjin Airlines", "iata": "GS", "icao": "GCR"}]}, {"destination": {"icao": "ZBCF", "iata": "CIF", "name": "Chifeng ", "shortName": "Chifeng", "municipalityName": "Chifeng", "location": {"lat": 42.235, "lon": 118.908}, "countryCode": "CN"}, "averageDailyFlights": 0.57, "operators": [{"name": "Chengdu Airlines"}]}, {"destination": {"icao": "ZBTL", "iata": "TGO", "name": "Tongliao ", "shortName": "Tongliao", "municipalityName": "Tongliao", "location": {"lat": 43.5567, "lon": 122.2}, "countryCode": "CN"}, "averageDailyFlights": 0.57, "operators": [{"name": "China Express Airlines", "iata": "G5", "icao": "HXA"}]}, {"destination": {"icao": "ZHCC", "iata": "CGO", "name": "Zhengzhou Xinzheng", "shortName": "Xinzheng", "municipalityName": "Zhengzhou", "location": {"lat": 34.5197, "lon": 113.841}, "countryCode": "CN"}, "averageDailyFlights": 0.57, "operators": [{"name": "Juneyao Airlines", "iata": "HO", "icao": "DKH"}]}, {"destination": {"name": "Chengdu"}, "averageDailyFlights": 0.57, "operators": [{"name": "Chengdu Airlines"}]}, {"destination": {"name": "Silinkhot"}, "averageDailyFlights": 0.14, "operators": [{"name": "Chengdu Airlines"}]}]}