{"routes": [{"destination": {"icao": "ZGSZ", "iata": "SZX", "name": "Shenzhen Bao'an", "shortName": "Bao'an", "municipalityName": "Shenzhen", "location": {"lat": 22.6393, "lon": 113.811}, "countryCode": "CN"}, "averageDailyFlights": 10.29, "operators": [{"name": "China Southern Airlines", "iata": "CZ", "icao": "CSN"}, {"name": "China Eastern Airlines", "iata": "MU", "icao": "CES"}, {"name": "Shenzhen Airlines", "iata": "ZH", "icao": "CSZ"}, {"name": "Suparna Airlines", "iata": "Y8", "icao": "YZR"}, {"name": "Spring Airlines", "iata": "9C", "icao": "CQH"}]}, {"destination": {"icao": "ZGHA", "iata": "CSX", "name": "Changsha Huanghua", "shortName": "Huanghua", "municipalityName": "Changsha", "location": {"lat": 28.1892, "lon": 113.22}, "countryCode": "CN"}, "averageDailyFlights": 9.71, "operators": [{"name": "Hainan Airlines", "iata": "HU", "icao": "CHH"}, {"name": "West Air (China)", "iata": "PN", "icao": "CHB"}, {"name": "China Southern Airlines", "iata": "CZ", "icao": "CSN"}, {"name": "Yunnan Hong Tu Airlines"}, {"name": "China Eastern Airlines", "iata": "MU", "icao": "CES"}, {"name": "Qingdao Airlines", "iata": "QW", "icao": "QDA"}]}, {"destination": {"icao": "ZBAD", "iata": "PKX", "name": "Beijing Daxing", "shortName": "Daxing", "municipalityName": "Beijing", "location": {"lat": 39.509167, "lon": 116.41055}, "countryCode": "CN"}, "averageDailyFlights": 6.43, "operators": [{"name": "China Eastern Airlines", "iata": "MU", "icao": "CES"}, {"name": "China Southern Airlines", "iata": "CZ", "icao": "CSN"}, {"name": "China United Airlines", "iata": "KN", "icao": "CUA"}]}, {"destination": {"icao": "ZPPP", "iata": "KMG", "name": "Kunming Changshui", "shortName": "Changshui", "municipalityName": "Kunming", "location": {"lat": 25.101944, "lon": 102.92917}, "countryCode": "CN"}, "averageDailyFlights": 6.39, "operators": [{"name": "China Eastern Airlines", "iata": "MU", "icao": "CES"}, {"name": "Sichuan Airlines", "iata": "3U", "icao": "CSC"}, {"name": "Spring Airlines", "iata": "9C", "icao": "CQH"}, {"name": "Ruili Airlines", "iata": "DR", "icao": "RLH"}]}, {"destination": {"icao": "ZUUU", "iata": "CTU", "name": "Chengdu Shuangliu", "shortName": "Shuangliu", "municipalityName": "Chengdu", "location": {"lat": 30.5785, "lon": 103.947}, "countryCode": "CN"}, "averageDailyFlights": 6.29, "operators": [{"name": "Air China", "iata": "CA", "icao": "CCA"}, {"name": "Sichuan Airlines", "iata": "3U", "icao": "CSC"}, {"name": "China Eastern Airlines", "iata": "MU", "icao": "CES"}]}, {"destination": {"icao": "ZSQD", "iata": "TAO", "name": "Qingdao Liuting", "shortName": "Liuting", "municipalityName": "Qingdao", "location": {"lat": 36.2661, "lon": 120.374}, "countryCode": "CN"}, "averageDailyFlights": 5.43, "operators": [{"name": "China Eastern Airlines", "iata": "MU", "icao": "CES"}, {"name": "Hainan Airlines", "iata": "HU", "icao": "CHH"}, {"name": "Shandong Airlines", "iata": "SC", "icao": "CDG"}, {"name": "Spring Airlines", "iata": "9C", "icao": "CQH"}, {"name": "Qingdao Airlines", "iata": "QW", "icao": "QDA"}]}, {"destination": {"icao": "ZUGY", "iata": "KWE", "name": "Guiyang Longdongbao", "shortName": "Longdongbao", "municipalityName": "Guiyang", "location": {"lat": 26.5385, "lon": 106.801}, "countryCode": "CN"}, "averageDailyFlights": 5.29, "operators": [{"name": "Air Changan", "iata": "9H", "icao": "CGN"}, {"name": "China Eastern Airlines", "iata": "MU", "icao": "CES"}, {"name": "Chengdu Airlines"}, {"name": "Lucky Air", "iata": "8L", "icao": "LKE"}, {"name": "China Southern Airlines", "iata": "CZ", "icao": "CSN"}]}, {"destination": {"icao": "ZUCK", "iata": "CKG", "name": "Chongqing Jiangbei", "shortName": "Jiangbei", "municipalityName": "Chongqing", "location": {"lat": 29.7192, "lon": 106.642}, "countryCode": "CN"}, "averageDailyFlights": 5.25, "operators": [{"name": "West Air (China)", "iata": "PN", "icao": "CHB"}, {"name": "Loong Air", "iata": "GJ", "icao": "CDC"}, {"name": "China Eastern Airlines", "iata": "MU", "icao": "CES"}, {"name": "Air China", "iata": "CA", "icao": "CCA"}, {"name": "Spring Airlines", "iata": "9C", "icao": "CQH"}, {"name": "China Express Airlines", "iata": "G5", "icao": "HXA"}, {"name": "Sichuan Airlines", "iata": "3U", "icao": "CSC"}]}, {"destination": {"icao": "ZGGG", "iata": "CAN", "name": "Guangzhou Baiyun", "shortName": "Baiyun", "municipalityName": "Guangzhou", "location": {"lat": 23.3924, "lon": 113.299}, "countryCode": "CN"}, "averageDailyFlights": 4.81, "operators": [{"name": "Spring Airlines", "iata": "9C", "icao": "CQH"}, {"name": "China Eastern Airlines", "iata": "MU", "icao": "CES"}, {"name": "Air China", "iata": "CA", "icao": "CCA"}, {"name": "China Southern Airlines", "iata": "CZ", "icao": "CSN"}]}, {"destination": {"icao": "ZHCC", "iata": "CGO", "name": "Zhengzhou Xinzheng", "shortName": "Xinzheng", "municipalityName": "Zhengzhou", "location": {"lat": 34.5197, "lon": 113.841}, "countryCode": "CN"}, "averageDailyFlights": 4.58, "operators": [{"name": "China Southern Airlines", "iata": "CZ", "icao": "CSN"}, {"name": "China Eastern Airlines", "iata": "MU", "icao": "CES"}, {"name": "Hainan Airlines", "iata": "HU", "icao": "CHH"}, {"name": "Shenzhen Airlines", "iata": "ZH", "icao": "CSZ"}, {"name": "Lucky Air", "iata": "8L", "icao": "LKE"}]}, {"destination": {"icao": "ZHHH", "iata": "WUH", "name": "Wuhan Tianhe", "shortName": "Tianhe", "municipalityName": "Wuhan", "location": {"lat": 30.7838, "lon": 114.208}, "countryCode": "CN"}, "averageDailyFlights": 4.57, "operators": [{"name": "China Eastern Airlines", "iata": "MU", "icao": "CES"}, {"name": "China Southern Airlines", "iata": "CZ", "icao": "CSN"}]}, {"destination": {"icao": "ZBAA", "iata": "PEK", "name": "Beijing Capital", "shortName": "Capital", "municipalityName": "Beijing", "location": {"lat": 40.0801, "lon": 116.585}, "countryCode": "CN"}, "averageDailyFlights": 4.29, "operators": [{"name": "Air China", "iata": "CA", "icao": "CCA"}]}, {"destination": {"icao": "ZLXY", "iata": "XIY", "name": "Xianyang Xi'an", "shortName": "Xi'an", "municipalityName": "Xianyang", "location": {"lat": 34.4471, "lon": 108.752}, "countryCode": "CN"}, "averageDailyFlights": 4.29, "operators": [{"name": "China Eastern Airlines", "iata": "MU", "icao": "CES"}, {"name": "Okay Airways", "iata": "BK", "icao": "OKA"}]}, {"destination": {"icao": "ZYCC", "iata": "CGQ", "name": "Changchun Longjia", "shortName": "Longjia", "municipalityName": "Changchun", "location": {"lat": 43.9962, "lon": 125.685}, "countryCode": "CN"}, "averageDailyFlights": 4.0, "operators": [{"name": "Qingdao Airlines", "iata": "QW", "icao": "QDA"}, {"name": "Xiamen Airlines", "iata": "MF", "icao": "CXA"}, {"name": "China Southern Airlines", "iata": "CZ", "icao": "CSN"}, {"name": "Spring Airlines", "iata": "9C", "icao": "CQH"}]}, {"destination": {"icao": "ZYTL", "iata": "DLC", "name": "Dalian Zhoushuizi", "shortName": "Zhoushuizi", "municipalityName": "Dalian", "location": {"lat": 38.9657, "lon": 121.539}, "countryCode": "CN"}, "averageDailyFlights": 3.43, "operators": [{"name": "China Eastern Airlines", "iata": "MU", "icao": "CES"}, {"name": "China Southern Airlines", "iata": "CZ", "icao": "CSN"}]}, {"destination": {"icao": "ZYTX", "iata": "SHE", "name": "Shenyang Taoxian", "shortName": "Taoxian", "municipalityName": "Shenyang", "location": {"lat": 41.6398, "lon": 123.483}, "countryCode": "CN"}, "averageDailyFlights": 3.43, "operators": [{"name": "China Southern Airlines", "iata": "CZ", "icao": "CSN"}, {"name": "Spring Airlines", "iata": "9C", "icao": "CQH"}]}, {"destination": {"icao": "ZJHK", "iata": "HAK", "name": "Haikou Meilan", "shortName": "Meilan", "municipalityName": "Haikou", "location": {"lat": 19.9349, "lon": 110.459}, "countryCode": "CN"}, "averageDailyFlights": 2.86, "operators": [{"name": "Shandong Airlines", "iata": "SC", "icao": "CDG"}, {"name": "Hainan Airlines", "iata": "HU", "icao": "CHH"}]}, {"destination": {"icao": "ZGSD", "iata": "ZUH", "name": "Zhuhai ", "shortName": "Zhuhai", "municipalityName": "Zhuhai", "location": {"lat": 22.0064, "lon": 113.376}, "countryCode": "CN"}, "averageDailyFlights": 2.71, "operators": [{"name": "China Eastern Airlines", "iata": "MU", "icao": "CES"}, {"name": "LongJiang Airlines", "iata": "LT", "icao": "SNG"}]}, {"destination": {"icao": "ZYHB", "iata": "HRB", "name": "Harbin Taiping", "shortName": "Taiping", "municipalityName": "Harbin", "location": {"lat": 45.6234, "lon": 126.25}, "countryCode": "CN"}, "averageDailyFlights": 2.29, "operators": [{"name": "Spring Airlines", "iata": "9C", "icao": "CQH"}, {"name": "China Eastern Airlines", "iata": "MU", "icao": "CES"}]}, {"destination": {"icao": "VHHH", "iata": "HKG", "name": "Hong Kong Chek Lap Kok", "shortName": "Chek Lap Kok", "municipalityName": "Hong Kong", "location": {"lat": 22.3089, "lon": 113.915}, "countryCode": "HK"}, "averageDailyFlights": 2.29, "operators": [{"name": "Hong Kong Express", "iata": "UO", "icao": "HKE"}, {"name": "China Eastern Airlines", "iata": "MU", "icao": "CES"}]}, {"destination": {"icao": "ZGOW", "iata": "SWA", "name": "Shantou Jieyang Chaoshan", "shortName": "Jieyang Chaoshan", "municipalityName": "Shantou", "location": {"lat": 23.552, "lon": 116.5033}, "countryCode": "CN"}, "averageDailyFlights": 2.29, "operators": [{"name": "China Eastern Airlines", "iata": "MU", "icao": "CES"}, {"name": "China Southern Airlines", "iata": "CZ", "icao": "CSN"}]}, {"destination": {"icao": "ZBYN", "iata": "TYN", "name": "Taiyuan Wusu", "shortName": "Wusu", "municipalityName": "Taiyuan", "location": {"lat": 37.7469, "lon": 112.628}, "countryCode": "CN"}, "averageDailyFlights": 2.29, "operators": [{"name": "LongJiang Airlines", "iata": "LT", "icao": "SNG"}, {"name": "China Eastern Airlines", "iata": "MU", "icao": "CES"}]}, {"destination": {"icao": "ZBTJ", "iata": "TSN", "name": "Tianjin Binhai", "shortName": "Binhai", "municipalityName": "Tianjin", "location": {"lat": 39.1244, "lon": 117.346}, "countryCode": "CN"}, "averageDailyFlights": 2.14, "operators": [{"name": "Sichuan Airlines", "iata": "3U", "icao": "CSC"}, {"name": "Air China", "iata": "CA", "icao": "CCA"}, {"name": "Spring Airlines", "iata": "9C", "icao": "CQH"}]}, {"destination": {"icao": "ZULZ", "iata": "LZO", "name": "Luzhou ", "shortName": "Luzhou", "municipalityName": "Luzhou", "location": {"lat": 28.8522, "lon": 105.393}, "countryCode": "CN"}, "averageDailyFlights": 1.71, "operators": [{"name": "Sichuan Airlines", "iata": "3U", "icao": "CSC"}, {"name": "Loong Air", "iata": "GJ", "icao": "CDC"}]}, {"destination": {"icao": "ZBSJ", "iata": "SJW", "name": "Shijiazhuang Daguocun", "shortName": "Daguocun", "municipalityName": "Shijiazhuang", "location": {"lat": 38.2807, "lon": 114.697}, "countryCode": "CN"}, "averageDailyFlights": 1.71, "operators": [{"name": "Spring Airlines", "iata": "9C", "icao": "CQH"}, {"name": "Hebei Airlines", "iata": "NS", "icao": "HBH"}]}, {"destination": {"icao": "ZSWH", "iata": "WEH", "name": "Weihai ", "shortName": "Weihai", "municipalityName": "Weihai", "location": {"lat": 37.1871, "lon": 122.229}, "countryCode": "CN"}, "averageDailyFlights": 1.71, "operators": [{"name": "Loong Air", "iata": "GJ", "icao": "CDC"}, {"name": "Qingdao Airlines", "iata": "QW", "icao": "QDA"}]}, {"destination": {"icao": "ZSJA", "iata": "JGS", "name": "Ji\u2019an Jinggangshan", "shortName": "Jinggangshan", "municipalityName": "Ji\u2019an", "location": {"lat": 26.8569, "lon": 114.737}, "countryCode": "CN"}, "averageDailyFlights": 1.66, "operators": [{"name": "Spring Airlines", "iata": "9C", "icao": "CQH"}, {"name": "Hainan Airlines", "iata": "HU", "icao": "CHH"}, {"name": "Sichuan Airlines", "iata": "3U", "icao": "CSC"}]}, {"destination": {"icao": "ZGNN", "iata": "NNG", "name": "Nanning Wuxu", "shortName": "Wuxu", "municipalityName": "Nanning", "location": {"lat": 22.6083, "lon": 108.172}, "countryCode": "CN"}, "averageDailyFlights": 1.57, "operators": [{"name": "China Eastern Airlines", "iata": "MU", "icao": "CES"}, {"name": "Spring Airlines", "iata": "9C", "icao": "CQH"}, {"name": "Qingdao Airlines", "iata": "QW", "icao": "QDA"}]}, {"destination": {"icao": "RJBB", "iata": "KIX", "name": "Osaka Kansai", "shortName": "Kansai", "municipalityName": "Osaka", "location": {"lat": 34.4273, "lon": 135.244}, "countryCode": "JP"}, "averageDailyFlights": 1.57, "operators": [{"name": "Suparna Airlines", "iata": "Y8", "icao": "YZR"}, {"name": "Spring Airlines", "iata": "9C", "icao": "CQH"}]}, {"destination": {"icao": "ZBOW", "iata": "BAV", "name": "Baotou ", "shortName": "Baotou", "municipalityName": "Baotou", "location": {"lat": 40.56, "lon": 109.997}, "countryCode": "CN"}, "averageDailyFlights": 1.14, "operators": [{"name": "China Eastern Airlines", "iata": "MU", "icao": "CES"}]}, {"destination": {"icao": "RKPC", "iata": "CJU", "name": "Jeju City Jeju", "shortName": "Jeju", "municipalityName": "Jeju City", "location": {"lat": 33.5113, "lon": 126.493}, "countryCode": "KR"}, "averageDailyFlights": 1.14, "operators": [{"name": "Spring Airlines", "iata": "9C", "icao": "CQH"}]}, {"destination": {"icao": "ZSLY", "iata": "LYI", "name": "Linyi Shubuling", "shortName": "Shubuling", "municipalityName": "Linyi", "location": {"lat": 35.0461, "lon": 118.412}, "countryCode": "CN"}, "averageDailyFlights": 1.14, "operators": [{"name": "Shenzhen Airlines", "iata": "ZH", "icao": "CSZ"}]}, {"destination": {"icao": "VMMC", "iata": "MFM", "name": "Taipa Macau", "shortName": "Macau", "municipalityName": "Taipa", "location": {"lat": 22.1496, "lon": 113.592}, "countryCode": "MO"}, "averageDailyFlights": 1.14, "operators": [{"name": "Air Macau", "iata": "NX", "icao": "AMU"}]}, {"destination": {"icao": "RCTP", "iata": "TPE", "name": "Taipei Taiwan Taoyuan", "shortName": "Taiwan Taoyuan", "municipalityName": "Taipei", "location": {"lat": 25.0777, "lon": 121.233}, "countryCode": "TW"}, "averageDailyFlights": 1.14, "operators": [{"name": "China Eastern Airlines", "iata": "MU", "icao": "CES"}]}, {"destination": {"icao": "RJAA", "iata": "NRT", "name": "Tokyo Narita", "shortName": "Narita", "municipalityName": "Tokyo", "location": {"lat": 35.7647, "lon": 140.386}, "countryCode": "JP"}, "averageDailyFlights": 1.14, "operators": [{"name": "Spring Airlines Japan", "iata": "IJ", "icao": "SJO"}]}, {"destination": {"icao": "ZUWX", "iata": "WXN", "name": "Wanxian ", "shortName": "Wanxian", "municipalityName": "Wanxian", "location": {"lat": 30.8017, "lon": 108.433}, "countryCode": "CN"}, "averageDailyFlights": 1.14, "operators": [{"name": "Air China", "iata": "CA", "icao": "CCA"}]}, {"destination": {"icao": "ZSAM", "iata": "XMN", "name": "Xiamen Gaoqi", "shortName": "Gaoqi", "municipalityName": "Xiamen", "location": {"lat": 24.544, "lon": 118.128}, "countryCode": "CN"}, "averageDailyFlights": 1.14, "operators": [{"name": "Xiamen Airlines", "iata": "MF", "icao": "CXA"}]}, {"destination": {"icao": "ZHXF", "iata": "XFN", "name": "Xiangfan ", "shortName": "Xiangfan", "municipalityName": "Xiangfan", "location": {"lat": 32.1506, "lon": 112.291}, "countryCode": "CN"}, "averageDailyFlights": 1.14, "operators": [{"name": "Loong Air", "iata": "GJ", "icao": "CDC"}]}, {"destination": {"icao": "ZSYT", "iata": "YNT", "name": "Yantai Laishan", "shortName": "Laishan", "municipalityName": "Yantai", "location": {"lat": 37.4017, "lon": 121.372}, "countryCode": "CN"}, "averageDailyFlights": 1.14, "operators": [{"name": "China Eastern Airlines", "iata": "MU", "icao": "CES"}]}, {"destination": {"icao": "ZHYC", "iata": "YIH", "name": "Yichang ", "shortName": "Yichang", "municipalityName": "Yichang", "location": {"lat": 30.55655, "lon": 111.47999}, "countryCode": "CN"}, "averageDailyFlights": 1.14, "operators": [{"name": "Lucky Air", "iata": "8L", "icao": "LKE"}]}, {"destination": {"icao": "ZBYC", "iata": "YCU", "name": "Yuncheng Guangong", "shortName": "Guangong", "municipalityName": "Yuncheng", "location": {"lat": 35.11639, "lon": 111.03139}, "countryCode": "CN"}, "averageDailyFlights": 1.14, "operators": [{"name": "Shenzhen Airlines", "iata": "ZH", "icao": "CSZ"}]}, {"destination": {"icao": "ZGZJ", "iata": "ZHA", "name": "Zhanjiang ", "shortName": "Zhanjiang", "municipalityName": "Zhanjiang", "location": {"lat": 21.2144, "lon": 110.358}, "countryCode": "CN"}, "averageDailyFlights": 1.14, "operators": [{"name": "Urumqi Airlines", "iata": "UQ", "icao": "CUH"}]}, {"destination": {"icao": "ZPDL", "iata": "DLU", "name": "Xiaguan Dali", "shortName": "Dali", "municipalityName": "Xiaguan", "location": {"lat": 25.6494, "lon": 100.319}, "countryCode": "CN"}, "averageDailyFlights": 1.0, "operators": [{"name": "Lucky Air", "iata": "8L", "icao": "LKE"}]}, {"destination": {"name": "Lijiang"}, "averageDailyFlights": 0.86, "operators": [{"name": "Loong Air", "iata": "GJ", "icao": "CDC"}]}, {"destination": {"icao": "ZGBH", "iata": "BHY", "name": "Beihai ", "shortName": "Beihai", "municipalityName": "Beihai", "location": {"lat": 21.5394, "lon": 109.294}, "countryCode": "CN"}, "averageDailyFlights": 0.71, "operators": [{"name": "China Eastern Airlines", "iata": "MU", "icao": "CES"}]}, {"destination": {"icao": "VTBS", "iata": "BKK", "name": "Bangkok Suvarnabhumi", "shortName": "Suvarnabhumi", "municipalityName": "Bangkok", "location": {"lat": 13.681099, "lon": 100.747}, "countryCode": "TH"}, "averageDailyFlights": 0.57, "operators": [{"name": "Thai Vietjet Air", "iata": "VZ", "icao": "TVJ"}]}, {"destination": {"icao": "ZSFY", "iata": "FUG", "name": "Fuyang Xiguan", "shortName": "Xiguan", "municipalityName": "Fuyang", "location": {"lat": 32.882156, "lon": 115.73437}, "countryCode": "CN"}, "averageDailyFlights": 0.57, "operators": [{"name": "GX Airlines", "iata": "GX", "icao": "CBG"}]}, {"destination": {"icao": "ZSGZ", "iata": "KOW", "name": "Ganzhou ", "shortName": "Ganzhou", "municipalityName": "Ganzhou", "location": {"lat": 25.853333, "lon": 114.77889}, "countryCode": "CN"}, "averageDailyFlights": 0.57, "operators": [{"name": "Loong Air", "iata": "GJ", "icao": "CDC"}]}, {"destination": {"icao": "ZGHY", "iata": "HNY", "name": "Hengyang ", "shortName": "Hengyang", "municipalityName": "Hengyang", "location": {"lat": 26.9053, "lon": 112.628}, "countryCode": "CN"}, "averageDailyFlights": 0.57, "operators": [{"name": "Chengdu Airlines"}]}, {"destination": {"icao": "ZSJD", "iata": "JDZ", "name": "Jingdezhen ", "shortName": "Jingdezhen", "municipalityName": "Jingdezhen", "location": {"lat": 29.3386, "lon": 117.176}, "countryCode": "CN"}, "averageDailyFlights": 0.57, "operators": [{"name": "Air Changan", "iata": "9H", "icao": "CGN"}]}, {"destination": {"icao": "ZSLG", "iata": "LYG", "name": "Lianyungang ", "shortName": "Lianyungang", "municipalityName": "Lianyungang", "location": {"lat": 34.571667, "lon": 118.87361}, "countryCode": "CN"}, "averageDailyFlights": 0.57, "operators": [{"name": "China Eastern Airlines", "iata": "MU", "icao": "CES"}]}, {"destination": {"icao": "ZUXC", "iata": "XIC", "name": "Xichang Qingshan", "shortName": "Qingshan", "municipalityName": "Xichang", "location": {"lat": 27.9891, "lon": 102.184}, "countryCode": "CN"}, "averageDailyFlights": 0.57, "operators": [{"name": "Loong Air", "iata": "GJ", "icao": "CDC"}]}, {"destination": {"icao": "ZUYI", "iata": "ACX", "name": "Xingyi ", "shortName": "Xingyi", "municipalityName": "Xingyi", "location": {"lat": 25.086388, "lon": 104.95944}, "countryCode": "CN"}, "averageDailyFlights": 0.57, "operators": [{"name": "Loong Air", "iata": "GJ", "icao": "CDC"}]}, {"destination": {"name": "Enyan"}, "averageDailyFlights": 0.57, "operators": [{"name": "Loong Air", "iata": "GJ", "icao": "CDC"}]}, {"destination": {"name": "Inkou"}, "averageDailyFlights": 0.57, "operators": [{"name": "Hainan Airlines", "iata": "HU", "icao": "CHH"}]}, {"destination": {"name": "Sanya"}, "averageDailyFlights": 0.57, "operators": [{"name": "Sichuan Airlines", "iata": "3U", "icao": "CSC"}]}, {"destination": {"icao": "ZSPD", "iata": "PVG", "name": "Shanghai Pudong", "shortName": "Pudong", "municipalityName": "Shanghai", "location": {"lat": 31.1434, "lon": 121.805}, "countryCode": "CN"}, "averageDailyFlights": 0.43, "operators": [{"name": "Shanghai Airlines", "iata": "FM", "icao": "CSH"}]}, {"destination": {"icao": "LHBP", "iata": "BUD", "name": "Budapest Ferenc Liszt", "shortName": "Ferenc Liszt", "municipalityName": "Budapest", "location": {"lat": 47.4369, "lon": 19.255598}, "countryCode": "HU"}, "averageDailyFlights": 0.29, "operators": [{"name": "Shanghai Airlines", "iata": "FM", "icao": "CSH"}]}, {"destination": {"icao": "WSSS", "iata": "SIN", "name": "Singapore Changi", "shortName": "Changi", "municipalityName": "Singapore", "location": {"lat": 1.35019, "lon": 103.994}, "countryCode": "SG"}, "averageDailyFlights": 0.29, "operators": [{"name": "Tibet Airlines", "iata": "TV", "icao": "TBA"}]}, {"destination": {"icao": "RKSI", "iata": "ICN", "name": "Seoul Incheon", "shortName": "Incheon", "municipalityName": "Seoul", "location": {"lat": 37.4691, "lon": 126.451}, "countryCode": "KR"}, "averageDailyFlights": 0.14, "operators": [{"name": "Air Busan", "iata": "BX", "icao": "ABL"}]}, {"destination": {"name": "Dali"}, "averageDailyFlights": 0.14, "operators": [{"name": "Lucky Air", "iata": "8L", "icao": "LKE"}]}]}