{"routes": [{"destination": {"icao": "ZGSZ", "iata": "SZX", "name": "Shenzhen Bao'an", "shortName": "Bao'an", "municipalityName": "Shenzhen", "location": {"lat": 22.6393, "lon": 113.811}, "countryCode": "CN"}, "averageDailyFlights": 45.14, "operators": [{"name": "Spring Airlines", "iata": "9C", "icao": "CQH"}, {"name": "Juneyao Airlines", "iata": "HO", "icao": "DKH"}, {"name": "Xiamen Airlines", "iata": "MF", "icao": "CXA"}, {"name": "China Southern Airlines", "iata": "CZ", "icao": "CSN"}, {"name": "Shanghai Airlines", "iata": "FM", "icao": "CSH"}, {"name": "China Eastern Airlines", "iata": "MU", "icao": "CES"}, {"name": "Shenzhen Airlines", "iata": "ZH", "icao": "CSZ"}]}, {"destination": {"icao": "ZGGG", "iata": "CAN", "name": "Guangzhou Baiyun", "shortName": "Baiyun", "municipalityName": "Guangzhou", "location": {"lat": 23.3924, "lon": 113.299}, "countryCode": "CN"}, "averageDailyFlights": 39.86, "operators": [{"name": "Spring Airlines", "iata": "9C", "icao": "CQH"}, {"name": "Juneyao Airlines", "iata": "HO", "icao": "DKH"}, {"name": "Shanghai Airlines", "iata": "FM", "icao": "CSH"}, {"name": "China Southern Airlines", "iata": "CZ", "icao": "CSN"}, {"name": "China Eastern Airlines", "iata": "MU", "icao": "CES"}, {"name": "Air China", "iata": "CA", "icao": "CCA"}, {"name": "Hainan Airlines", "iata": "HU", "icao": "CHH"}]}, {"destination": {"icao": "ZBAA", "iata": "PEK", "name": "Beijing Capital", "shortName": "Capital", "municipalityName": "Beijing", "location": {"lat": 40.0801, "lon": 116.585}, "countryCode": "CN"}, "averageDailyFlights": 26.29, "operators": [{"name": "China Eastern Airlines", "iata": "MU", "icao": "CES"}, {"name": "Hainan Airlines", "iata": "HU", "icao": "CHH"}]}, {"destination": {"icao": "ZSAM", "iata": "XMN", "name": "Xiamen Gaoqi", "shortName": "Gaoqi", "municipalityName": "Xiamen", "location": {"lat": 24.544, "lon": 118.128}, "countryCode": "CN"}, "averageDailyFlights": 24.0, "operators": [{"name": "Juneyao Airlines", "iata": "HO", "icao": "DKH"}, {"name": "Shanghai Airlines", "iata": "FM", "icao": "CSH"}, {"name": "Spring Airlines", "iata": "9C", "icao": "CQH"}, {"name": "Xiamen Airlines", "iata": "MF", "icao": "CXA"}, {"name": "China Eastern Airlines", "iata": "MU", "icao": "CES"}, {"name": "Shandong Airlines", "iata": "SC", "icao": "CDG"}]}, {"destination": {"icao": "ZUUU", "iata": "CTU", "name": "Chengdu Shuangliu", "shortName": "Shuangliu", "municipalityName": "Chengdu", "location": {"lat": 30.5785, "lon": 103.947}, "countryCode": "CN"}, "averageDailyFlights": 18.4, "operators": [{"name": "Tibet Airlines", "iata": "TV", "icao": "TBA"}, {"name": "Air China", "iata": "CA", "icao": "CCA"}, {"name": "Spring Airlines", "iata": "9C", "icao": "CQH"}, {"name": "China Eastern Airlines", "iata": "MU", "icao": "CES"}, {"name": "Juneyao Airlines", "iata": "HO", "icao": "DKH"}, {"name": "Chengdu Airlines"}, {"name": "Shanghai Airlines", "iata": "FM", "icao": "CSH"}]}, {"destination": {"icao": "ZLXY", "iata": "XIY", "name": "Xianyang Xi'an", "shortName": "Xi'an", "municipalityName": "Xianyang", "location": {"lat": 34.4471, "lon": 108.752}, "countryCode": "CN"}, "averageDailyFlights": 18.29, "operators": [{"name": "Spring Airlines", "iata": "9C", "icao": "CQH"}, {"name": "Juneyao Airlines", "iata": "HO", "icao": "DKH"}, {"name": "China Eastern Airlines", "iata": "MU", "icao": "CES"}, {"name": "Shanghai Airlines", "iata": "FM", "icao": "CSH"}]}, {"destination": {"icao": "ZUCK", "iata": "CKG", "name": "Chongqing Jiangbei", "shortName": "Jiangbei", "municipalityName": "Chongqing", "location": {"lat": 29.7192, "lon": 106.642}, "countryCode": "CN"}, "averageDailyFlights": 17.14, "operators": [{"name": "Juneyao Airlines", "iata": "HO", "icao": "DKH"}, {"name": "China Eastern Airlines", "iata": "MU", "icao": "CES"}, {"name": "Spring Airlines", "iata": "9C", "icao": "CQH"}, {"name": "Shanghai Airlines", "iata": "FM", "icao": "CSH"}, {"name": "Air China", "iata": "CA", "icao": "CCA"}, {"name": "Xiamen Airlines", "iata": "MF", "icao": "CXA"}]}, {"destination": {"icao": "ZSQD", "iata": "TAO", "name": "Qingdao Liuting", "shortName": "Liuting", "municipalityName": "Qingdao", "location": {"lat": 36.2661, "lon": 120.374}, "countryCode": "CN"}, "averageDailyFlights": 12.71, "operators": [{"name": "Shanghai Airlines", "iata": "FM", "icao": "CSH"}, {"name": "China Eastern Airlines", "iata": "MU", "icao": "CES"}, {"name": "Shandong Airlines", "iata": "SC", "icao": "CDG"}]}, {"destination": {"icao": "ZPPP", "iata": "KMG", "name": "Kunming Changshui", "shortName": "Changshui", "municipalityName": "Kunming", "location": {"lat": 25.101944, "lon": 102.92917}, "countryCode": "CN"}, "averageDailyFlights": 11.71, "operators": [{"name": "China Eastern Airlines", "iata": "MU", "icao": "CES"}, {"name": "Juneyao Airlines", "iata": "HO", "icao": "DKH"}, {"name": "Shanghai Airlines", "iata": "FM", "icao": "CSH"}, {"name": "Lucky Air", "iata": "8L", "icao": "LKE"}, {"name": "Spring Airlines", "iata": "9C", "icao": "CQH"}]}, {"destination": {"icao": "ZGHA", "iata": "CSX", "name": "Changsha Huanghua", "shortName": "Huanghua", "municipalityName": "Changsha", "location": {"lat": 28.1892, "lon": 113.22}, "countryCode": "CN"}, "averageDailyFlights": 10.29, "operators": [{"name": "Juneyao Airlines", "iata": "HO", "icao": "DKH"}, {"name": "China Eastern Airlines", "iata": "MU", "icao": "CES"}, {"name": "Shanghai Airlines", "iata": "FM", "icao": "CSH"}, {"name": "Xiamen Airlines", "iata": "MF", "icao": "CXA"}]}, {"destination": {"icao": "ZBAD", "iata": "PKX", "name": "Beijing Daxing", "shortName": "Daxing", "municipalityName": "Beijing", "location": {"lat": 39.509167, "lon": 116.41055}, "countryCode": "CN"}, "averageDailyFlights": 9.17, "operators": [{"name": "China United Airlines", "iata": "KN", "icao": "CUA"}, {"name": "China Southern Airlines", "iata": "CZ", "icao": "CSN"}, {"name": "Shanghai Airlines", "iata": "FM", "icao": "CSH"}, {"name": "Juneyao Airlines", "iata": "HO", "icao": "DKH"}, {"name": "Air China", "iata": "CA", "icao": "CCA"}]}, {"destination": {"icao": "ZJSY", "iata": "SYX", "name": "Sanya Phoenix", "shortName": "Phoenix", "municipalityName": "Sanya", "location": {"lat": 18.3029, "lon": 109.412}, "countryCode": "CN"}, "averageDailyFlights": 9.14, "operators": [{"name": "Shanghai Airlines", "iata": "FM", "icao": "CSH"}, {"name": "Spring Airlines", "iata": "9C", "icao": "CQH"}, {"name": "Juneyao Airlines", "iata": "HO", "icao": "DKH"}, {"name": "China Eastern Airlines", "iata": "MU", "icao": "CES"}]}, {"destination": {"icao": "ZHHH", "iata": "WUH", "name": "Wuhan Tianhe", "shortName": "Tianhe", "municipalityName": "Wuhan", "location": {"lat": 30.7838, "lon": 114.208}, "countryCode": "CN"}, "averageDailyFlights": 9.14, "operators": [{"name": "China Eastern Airlines", "iata": "MU", "icao": "CES"}, {"name": "Shanghai Airlines", "iata": "FM", "icao": "CSH"}]}, {"destination": {"icao": "ZBYN", "iata": "TYN", "name": "Taiyuan Wusu", "shortName": "Wusu", "municipalityName": "Taiyuan", "location": {"lat": 37.7469, "lon": 112.628}, "countryCode": "CN"}, "averageDailyFlights": 8.0, "operators": [{"name": "Shanghai Airlines", "iata": "FM", "icao": "CSH"}, {"name": "China Eastern Airlines", "iata": "MU", "icao": "CES"}]}, {"destination": {"icao": "ZBTJ", "iata": "TSN", "name": "Tianjin Binhai", "shortName": "Binhai", "municipalityName": "Tianjin", "location": {"lat": 39.1244, "lon": 117.346}, "countryCode": "CN"}, "averageDailyFlights": 7.43, "operators": [{"name": "Shanghai Airlines", "iata": "FM", "icao": "CSH"}, {"name": "China Eastern Airlines", "iata": "MU", "icao": "CES"}, {"name": "Tianjin Airlines", "iata": "GS", "icao": "GCR"}, {"name": "Xiamen Airlines", "iata": "MF", "icao": "CXA"}, {"name": "Air China", "iata": "CA", "icao": "CCA"}]}, {"destination": {"icao": "ZSYT", "iata": "YNT", "name": "Yantai Laishan", "shortName": "Laishan", "municipalityName": "Yantai", "location": {"lat": 37.4017, "lon": 121.372}, "countryCode": "CN"}, "averageDailyFlights": 7.43, "operators": [{"name": "Shanghai Airlines", "iata": "FM", "icao": "CSH"}, {"name": "China Eastern Airlines", "iata": "MU", "icao": "CES"}, {"name": "Shandong Airlines", "iata": "SC", "icao": "CDG"}]}, {"destination": {"icao": "VHHH", "iata": "HKG", "name": "Hong Kong Chek Lap Kok", "shortName": "Chek Lap Kok", "municipalityName": "Hong Kong", "location": {"lat": 22.3089, "lon": 113.915}, "countryCode": "HK"}, "averageDailyFlights": 6.43, "operators": [{"name": "China Eastern Airlines", "iata": "MU", "icao": "CES"}, {"name": "Cathay Pacific", "iata": "CX", "icao": "CPA"}, {"name": "Shanghai Airlines", "iata": "FM", "icao": "CSH"}, {"name": "Hong Kong Airlines", "iata": "HX", "icao": "CRK"}]}, {"destination": {"icao": "ZUGY", "iata": "KWE", "name": "Guiyang Longdongbao", "shortName": "Longdongbao", "municipalityName": "Guiyang", "location": {"lat": 26.5385, "lon": 106.801}, "countryCode": "CN"}, "averageDailyFlights": 5.71, "operators": [{"name": "Juneyao Airlines", "iata": "HO", "icao": "DKH"}, {"name": "Shanghai Airlines", "iata": "FM", "icao": "CSH"}, {"name": "Spring Airlines", "iata": "9C", "icao": "CQH"}]}, {"destination": {"icao": "ZGSD", "iata": "ZUH", "name": "Zhuhai ", "shortName": "Zhuhai", "municipalityName": "Zhuhai", "location": {"lat": 22.0064, "lon": 113.376}, "countryCode": "CN"}, "averageDailyFlights": 5.71, "operators": [{"name": "Juneyao Airlines", "iata": "HO", "icao": "DKH"}, {"name": "Shanghai Airlines", "iata": "FM", "icao": "CSH"}, {"name": "Shandong Airlines", "iata": "SC", "icao": "CDG"}]}, {"destination": {"name": "\u00dcr\u00fcmqi"}, "averageDailyFlights": 5.71, "operators": [{"name": "Juneyao Airlines", "iata": "HO", "icao": "DKH"}, {"name": "Shanghai Airlines", "iata": "FM", "icao": "CSH"}, {"name": "China Southern Airlines", "iata": "CZ", "icao": "CSN"}]}, {"destination": {"icao": "ZSFZ", "iata": "FOC", "name": "Fuzhou Changle", "shortName": "Changle", "municipalityName": "Fuzhou", "location": {"lat": 25.9351, "lon": 119.663}, "countryCode": "CN"}, "averageDailyFlights": 5.14, "operators": [{"name": "Shanghai Airlines", "iata": "FM", "icao": "CSH"}, {"name": "Xiamen Airlines", "iata": "MF", "icao": "CXA"}, {"name": "China Eastern Airlines", "iata": "MU", "icao": "CES"}]}, {"destination": {"icao": "VMMC", "iata": "MFM", "name": "Taipa Macau", "shortName": "Macau", "municipalityName": "Taipa", "location": {"lat": 22.1496, "lon": 113.592}, "countryCode": "MO"}, "averageDailyFlights": 5.14, "operators": [{"name": "Air Macau", "iata": "NX", "icao": "AMU"}, {"name": "Shanghai Airlines", "iata": "FM", "icao": "CSH"}, {"name": "China Eastern Airlines", "iata": "MU", "icao": "CES"}]}, {"destination": {"icao": "ZJHK", "iata": "HAK", "name": "Haikou Meilan", "shortName": "Meilan", "municipalityName": "Haikou", "location": {"lat": 19.9349, "lon": 110.459}, "countryCode": "CN"}, "averageDailyFlights": 4.57, "operators": [{"name": "Hainan Airlines", "iata": "HU", "icao": "CHH"}, {"name": "China Eastern Airlines", "iata": "MU", "icao": "CES"}, {"name": "Shanghai Airlines", "iata": "FM", "icao": "CSH"}, {"name": "Juneyao Airlines", "iata": "HO", "icao": "DKH"}]}, {"destination": {"icao": "ZLLL", "iata": "LHW", "name": "Lanzhou Zhongchuan", "shortName": "Zhongchuan", "municipalityName": "Lanzhou", "location": {"lat": 36.5152, "lon": 103.62}, "countryCode": "CN"}, "averageDailyFlights": 4.57, "operators": [{"name": "Shanghai Airlines", "iata": "FM", "icao": "CSH"}, {"name": "Spring Airlines", "iata": "9C", "icao": "CQH"}, {"name": "China Eastern Airlines", "iata": "MU", "icao": "CES"}]}, {"destination": {"icao": "ZSQZ", "iata": "JJN", "name": "Quanzhou ", "shortName": "Quanzhou", "municipalityName": "Quanzhou", "location": {"lat": 24.7964, "lon": 118.59}, "countryCode": "CN"}, "averageDailyFlights": 4.57, "operators": [{"name": "Spring Airlines", "iata": "9C", "icao": "CQH"}, {"name": "Xiamen Airlines", "iata": "MF", "icao": "CXA"}]}, {"destination": {"icao": "RKSS", "iata": "GMP", "name": "Seoul-si Gimpo", "shortName": "Gimpo", "municipalityName": "Seoul-si", "location": {"lat": 37.5583, "lon": 126.791}, "countryCode": "KR"}, "averageDailyFlights": 4.57, "operators": [{"name": "China Eastern Airlines", "iata": "MU", "icao": "CES"}, {"name": "Shanghai Airlines", "iata": "FM", "icao": "CSH"}, {"name": "Asiana Airlines", "iata": "OZ", "icao": "AAR"}, {"name": "Korean Air", "iata": "KE", "icao": "KAL"}]}, {"destination": {"icao": "RJTT", "iata": "HND", "name": "Tokyo ", "shortName": "Tokyo", "municipalityName": "Tokyo", "location": {"lat": 35.5523, "lon": 139.78}, "countryCode": "JP"}, "averageDailyFlights": 4.57, "operators": [{"name": "Shanghai Airlines", "iata": "FM", "icao": "CSH"}, {"name": "China Eastern Airlines", "iata": "MU", "icao": "CES"}, {"name": "JAL", "iata": "JL", "icao": "JAL"}, {"name": "ANA", "iata": "NH", "icao": "ANA"}]}, {"destination": {"icao": "RCSS", "iata": "TSA", "name": "Taipei City Taipei Songshan", "shortName": "Taipei Songshan", "municipalityName": "Taipei City", "location": {"lat": 25.0694, "lon": 121.552}, "countryCode": "TW"}, "averageDailyFlights": 4.29, "operators": [{"name": "Shanghai Airlines", "iata": "FM", "icao": "CSH"}, {"name": "Air China", "iata": "CA", "icao": "CCA"}, {"name": "China Eastern Airlines", "iata": "MU", "icao": "CES"}, {"name": "China Airlines", "iata": "CI", "icao": "CAL"}, {"name": "EVA Air", "iata": "BR", "icao": "EVA"}]}, {"destination": {"icao": "ZHCC", "iata": "CGO", "name": "Zhengzhou Xinzheng", "shortName": "Xinzheng", "municipalityName": "Zhengzhou", "location": {"lat": 34.5197, "lon": 113.841}, "countryCode": "CN"}, "averageDailyFlights": 4.0, "operators": [{"name": "China Eastern Airlines", "iata": "MU", "icao": "CES"}, {"name": "Shanghai Airlines", "iata": "FM", "icao": "CSH"}]}, {"destination": {"icao": "ZLIC", "iata": "INC", "name": "Yinchuan ", "shortName": "Yinchuan", "municipalityName": "Yinchuan", "location": {"lat": 38.4819, "lon": 106.009}, "countryCode": "CN"}, "averageDailyFlights": 3.43, "operators": [{"name": "China Eastern Airlines", "iata": "MU", "icao": "CES"}, {"name": "Xiamen Airlines", "iata": "MF", "icao": "CXA"}]}, {"destination": {"icao": "ZGNN", "iata": "NNG", "name": "Nanning Wuxu", "shortName": "Wuxu", "municipalityName": "Nanning", "location": {"lat": 22.6083, "lon": 108.172}, "countryCode": "CN"}, "averageDailyFlights": 3.29, "operators": [{"name": "Shanghai Airlines", "iata": "FM", "icao": "CSH"}]}, {"destination": {"icao": "ZSJN", "iata": "TNA", "name": "Jinan Yaoqiang", "shortName": "Yaoqiang", "municipalityName": "Jinan", "location": {"lat": 36.8572, "lon": 117.216}, "countryCode": "CN"}, "averageDailyFlights": 2.86, "operators": [{"name": "China Eastern Airlines", "iata": "MU", "icao": "CES"}, {"name": "Shandong Airlines", "iata": "SC", "icao": "CDG"}]}, {"destination": {"icao": "ZBSJ", "iata": "SJW", "name": "Shijiazhuang Daguocun", "shortName": "Daguocun", "municipalityName": "Shijiazhuang", "location": {"lat": 38.2807, "lon": 114.697}, "countryCode": "CN"}, "averageDailyFlights": 2.86, "operators": [{"name": "Spring Airlines", "iata": "9C", "icao": "CQH"}, {"name": "Hebei Airlines", "iata": "NS", "icao": "HBH"}]}, {"destination": {"icao": "ZYCC", "iata": "CGQ", "name": "Changchun Longjia", "shortName": "Longjia", "municipalityName": "Changchun", "location": {"lat": 43.9962, "lon": 125.685}, "countryCode": "CN"}, "averageDailyFlights": 2.29, "operators": [{"name": "China Eastern Airlines", "iata": "MU", "icao": "CES"}]}, {"destination": {"icao": "ZYTL", "iata": "DLC", "name": "Dalian Zhoushuizi", "shortName": "Zhoushuizi", "municipalityName": "Dalian", "location": {"lat": 38.9657, "lon": 121.539}, "countryCode": "CN"}, "averageDailyFlights": 2.29, "operators": [{"name": "China Eastern Airlines", "iata": "MU", "icao": "CES"}]}, {"destination": {"icao": "ZYHB", "iata": "HRB", "name": "Harbin Taiping", "shortName": "Taiping", "municipalityName": "Harbin", "location": {"lat": 45.6234, "lon": 126.25}, "countryCode": "CN"}, "averageDailyFlights": 2.29, "operators": [{"name": "China Eastern Airlines", "iata": "MU", "icao": "CES"}]}, {"destination": {"icao": "ZSCN", "iata": "KHN", "name": "Nanchang Changbei", "shortName": "Changbei", "municipalityName": "Nanchang", "location": {"lat": 28.865, "lon": 115.9}, "countryCode": "CN"}, "averageDailyFlights": 2.29, "operators": [{"name": "Shanghai Airlines", "iata": "FM", "icao": "CSH"}, {"name": "China Eastern Airlines", "iata": "MU", "icao": "CES"}]}, {"destination": {"icao": "ZGOW", "iata": "SWA", "name": "Shantou Jieyang Chaoshan", "shortName": "Jieyang Chaoshan", "municipalityName": "Shantou", "location": {"lat": 23.552, "lon": 116.5033}, "countryCode": "CN"}, "averageDailyFlights": 2.29, "operators": [{"name": "Spring Airlines", "iata": "9C", "icao": "CQH"}, {"name": "Shanghai Airlines", "iata": "FM", "icao": "CSH"}]}, {"destination": {"icao": "ZYTX", "iata": "SHE", "name": "Shenyang Taoxian", "shortName": "Taoxian", "municipalityName": "Shenyang", "location": {"lat": 41.6398, "lon": 123.483}, "countryCode": "CN"}, "averageDailyFlights": 2.29, "operators": [{"name": "China Eastern Airlines", "iata": "MU", "icao": "CES"}, {"name": "Shanghai Airlines", "iata": "FM", "icao": "CSH"}]}, {"destination": {"icao": "ZSWH", "iata": "WEH", "name": "Weihai ", "shortName": "Weihai", "municipalityName": "Weihai", "location": {"lat": 37.1871, "lon": 122.229}, "countryCode": "CN"}, "averageDailyFlights": 2.29, "operators": [{"name": "China Eastern Airlines", "iata": "MU", "icao": "CES"}]}, {"destination": {"name": "Kashgar"}, "averageDailyFlights": 1.71, "operators": [{"name": "China Southern Airlines", "iata": "CZ", "icao": "CSN"}, {"name": "China Eastern Airlines", "iata": "MU", "icao": "CES"}]}, {"destination": {"icao": "ZGCD", "iata": "CGD", "name": "Changde ", "shortName": "Changde", "municipalityName": "Changde", "location": {"lat": 28.9189, "lon": 111.64}, "countryCode": "CN"}, "averageDailyFlights": 1.14, "operators": [{"name": "Spring Airlines", "iata": "9C", "icao": "CQH"}]}, {"destination": {"icao": "ZSDY", "iata": "DOY", "name": "Dongying Shengli", "shortName": "Shengli", "municipalityName": "Dongying", "location": {"lat": 37.5086, "lon": 118.788}, "countryCode": "CN"}, "averageDailyFlights": 1.14, "operators": [{"name": "Spring Airlines", "iata": "9C", "icao": "CQH"}]}, {"destination": {"icao": "ZGFS", "iata": "FUO", "name": "Foshan Shadi", "shortName": "Shadi", "municipalityName": "Foshan", "location": {"lat": 23.0833, "lon": 113.07}, "countryCode": "CN"}, "averageDailyFlights": 1.14, "operators": [{"name": "China United Airlines", "iata": "KN", "icao": "CUA"}]}, {"destination": {"icao": "ZSGZ", "iata": "KOW", "name": "Ganzhou ", "shortName": "Ganzhou", "municipalityName": "Ganzhou", "location": {"lat": 25.853333, "lon": 114.77889}, "countryCode": "CN"}, "averageDailyFlights": 1.14, "operators": [{"name": "China Eastern Airlines", "iata": "MU", "icao": "CES"}]}, {"destination": {"icao": "ZGHY", "iata": "HNY", "name": "Hengyang ", "shortName": "Hengyang", "municipalityName": "Hengyang", "location": {"lat": 26.9053, "lon": 112.628}, "countryCode": "CN"}, "averageDailyFlights": 1.14, "operators": [{"name": "Spring Airlines", "iata": "9C", "icao": "CQH"}]}, {"destination": {"icao": "ZBHH", "iata": "HET", "name": "Hohhot Baita", "shortName": "Baita", "municipalityName": "Hohhot", "location": {"lat": 40.8514, "lon": 111.824}, "countryCode": "CN"}, "averageDailyFlights": 1.14, "operators": [{"name": "China Eastern Airlines", "iata": "MU", "icao": "CES"}]}, {"destination": {"icao": "ZSJA", "iata": "JGS", "name": "Ji\u2019an Jinggangshan", "shortName": "Jinggangshan", "municipalityName": "Ji\u2019an", "location": {"lat": 26.8569, "lon": 114.737}, "countryCode": "CN"}, "averageDailyFlights": 1.14, "operators": [{"name": "Shanghai Airlines", "iata": "FM", "icao": "CSH"}]}, {"destination": {"icao": "ZSJD", "iata": "JDZ", "name": "Jingdezhen ", "shortName": "Jingdezhen", "municipalityName": "Jingdezhen", "location": {"lat": 29.3386, "lon": 117.176}, "countryCode": "CN"}, "averageDailyFlights": 1.14, "operators": [{"name": "Shenzhen Airlines", "iata": "ZH", "icao": "CSZ"}]}, {"destination": {"icao": "ZPLJ", "iata": "LJG", "name": "Lijiang ", "shortName": "Lijiang", "municipalityName": "Lijiang", "location": {"lat": 26.68, "lon": 100.246}, "countryCode": "CN"}, "averageDailyFlights": 1.14, "operators": [{"name": "China Eastern Airlines", "iata": "MU", "icao": "CES"}]}, {"destination": {"icao": "ZHLY", "iata": "LYA", "name": "Luoyang ", "shortName": "Luoyang", "municipalityName": "Luoyang", "location": {"lat": 34.7411, "lon": 112.388}, "countryCode": "CN"}, "averageDailyFlights": 1.14, "operators": [{"name": "China Eastern Airlines", "iata": "MU", "icao": "CES"}]}, {"destination": {"icao": "ZHXF", "iata": "XFN", "name": "Xiangfan ", "shortName": "Xiangfan", "municipalityName": "Xiangfan", "location": {"lat": 32.1506, "lon": 112.291}, "countryCode": "CN"}, "averageDailyFlights": 1.14, "operators": [{"name": "Juneyao Airlines", "iata": "HO", "icao": "DKH"}]}, {"destination": {"name": "Dali"}, "averageDailyFlights": 1.14, "operators": [{"name": "China Eastern Airlines", "iata": "MU", "icao": "CES"}]}, {"destination": {"name": "Zunyi"}, "averageDailyFlights": 1.14, "operators": [{"name": "Spring Airlines", "iata": "9C", "icao": "CQH"}]}, {"destination": {"icao": "ZUMY", "iata": "MIG", "name": "Mianyang ", "shortName": "Mianyang", "municipalityName": "Mianyang", "location": {"lat": 31.4281, "lon": 104.741}, "countryCode": "CN"}, "averageDailyFlights": 0.57, "operators": [{"name": "Spring Airlines", "iata": "9C", "icao": "CQH"}]}, {"destination": {"name": "Tumshuk"}, "averageDailyFlights": 0.57, "operators": [{"name": "China Eastern Airlines", "iata": "MU", "icao": "CES"}]}, {"destination": {"name": "Yutian"}, "averageDailyFlights": 0.57, "operators": [{"name": "Spring Airlines", "iata": "9C", "icao": "CQH"}]}, {"destination": {"name": "Zhangjiakou"}, "averageDailyFlights": 0.57, "operators": [{"name": "Spring Airlines", "iata": "9C", "icao": "CQH"}]}]}