{"routes": [{"destination": {"icao": "CYZV", "iata": "YZV", "name": "Sept-\u00celes ", "shortName": "Sept-\u00celes", "municipalityName": "Sept-\u00celes", "location": {"lat": 50.2233, "lon": -66.2656}, "countryCode": "CA"}, "averageDailyFlights": 2.57, "operators": [{"name": "PAL Airlines", "iata": "PB", "icao": "PVL"}, {"name": "Air Inuit", "iata": "3H", "icao": "AIE"}]}, {"destination": {"icao": "CYHU", "iata": "YHU", "name": "Montreal Saint-Hubert", "shortName": "Saint-Hubert", "municipalityName": "Montreal", "location": {"lat": 45.5175, "lon": -73.4169}, "countryCode": "CA"}, "averageDailyFlights": 2.29, "operators": [{"name": "Pascan Aviation", "iata": "P6", "icao": "PSC"}]}, {"destination": {"icao": "KEWR", "iata": "EWR", "name": "Newark Liberty", "shortName": "Liberty", "municipalityName": "Newark", "location": {"lat": 40.6925, "lon": -74.1687}, "countryCode": "US"}, "averageDailyFlights": 2.14, "operators": [{"name": "United Airlines", "iata": "UA", "icao": "UAL"}]}, {"destination": {"icao": "MDPC", "iata": "PUJ", "name": "Punta Cana ", "shortName": "Punta Cana", "municipalityName": "Punta Cana", "location": {"lat": 18.567398, "lon": -68.3634}, "countryCode": "DO"}, "averageDailyFlights": 1.57, "operators": [{"name": "Sunwing", "iata": "WG", "icao": "SWG"}, {"name": "Air Transat", "iata": "TS", "icao": "TSC"}]}, {"destination": {"icao": "CYMX", "iata": "YMX", "name": "Montreal (Mirabel)", "shortName": "(Mirabel)", "municipalityName": "Montreal", "location": {"lat": 45.6795, "lon": -74.0387}, "countryCode": "CA"}, "averageDailyFlights": 1.44, "operators": [{"name": "Nolinor", "iata": "N5", "icao": "NRL"}, {"name": "Air Canada", "iata": "AC", "icao": "ACA"}, {"name": "PAL Airlines", "iata": "PB", "icao": "PVL"}]}, {"destination": {"icao": "CYGR", "iata": "YGR", "name": "\u00celes-de-la-Madeleine ", "shortName": "\u00celes-de-la-Madeleine", "municipalityName": "\u00celes-de-la-Madeleine", "location": {"lat": 47.4247, "lon": -61.7781}, "countryCode": "CA"}, "averageDailyFlights": 1.43, "operators": [{"name": "Pascan Aviation", "iata": "P6", "icao": "PSC"}, {"name": "PAL Airlines", "iata": "PB", "icao": "PVL"}]}, {"destination": {"icao": "MMUN", "iata": "CUN", "name": "Canc\u00fan ", "shortName": "Canc\u00fan", "municipalityName": "Canc\u00fan", "location": {"lat": 21.0365, "lon": -86.8771}, "countryCode": "MX"}, "averageDailyFlights": 1.29, "operators": [{"name": "Air Transat", "iata": "TS", "icao": "TSC"}, {"name": "Sunwing", "iata": "WG", "icao": "SWG"}]}, {"destination": {"icao": "CYTZ", "iata": "YTZ", "name": "Toronto Billy Bishop  City Centre", "shortName": "Billy Bishop  City Centre", "municipalityName": "Toronto", "location": {"lat": 43.6275, "lon": -79.3962}, "countryCode": "CA"}, "averageDailyFlights": 1.21, "operators": [{"name": "Porter Airlines", "iata": "PD", "icao": "POE"}, {"name": "Air Liaison", "iata": "DU", "icao": "LIZ"}, {"name": "Air Canada", "iata": "AC", "icao": "ACA"}]}, {"destination": {"icao": "CYGP", "iata": "YGP", "name": "Gasp\u00e9 (Michel-Pouliot)", "shortName": "(Michel-Pouliot)", "municipalityName": "Gasp\u00e9", "location": {"lat": 48.7753, "lon": -64.4786}, "countryCode": "CA"}, "averageDailyFlights": 1.14, "operators": [{"name": "Pascan Aviation", "iata": "P6", "icao": "PSC"}, {"name": "PAL Airlines", "iata": "PB", "icao": "PVL"}]}, {"destination": {"icao": "MUVR", "iata": "VRA", "name": "Varadero Juan Gualberto Gomez", "shortName": "Juan Gualberto Gomez", "municipalityName": "Varadero", "location": {"lat": 23.0344, "lon": -81.4353}, "countryCode": "CU"}, "averageDailyFlights": 1.14, "operators": [{"name": "Sunwing", "iata": "WG", "icao": "SWG"}, {"name": "Air Transat", "iata": "TS", "icao": "TSC"}]}, {"destination": {"icao": "CYUL", "iata": "YUL", "name": "Montreal Trudeau", "shortName": "Trudeau", "municipalityName": "Montreal", "location": {"lat": 45.4706, "lon": -73.7408}, "countryCode": "CA"}, "averageDailyFlights": 0.86, "operators": [{"name": "Air Inuit", "iata": "3H", "icao": "AIE"}]}, {"destination": {"icao": "CYOW", "iata": "YOW", "name": "Ottawa Macdonald-Cartier", "shortName": "Macdonald-Cartier", "municipalityName": "Ottawa", "location": {"lat": 45.3225, "lon": -75.6692}, "countryCode": "CA"}, "averageDailyFlights": 0.86, "operators": [{"name": "Air Canada", "iata": "AC", "icao": "ACA"}]}, {"destination": {"icao": "CYBG", "iata": "YBG", "name": "Bagotville CFB", "shortName": "CFB", "municipalityName": "Bagotville", "location": {"lat": 48.3306, "lon": -70.9964}, "countryCode": "CA"}, "averageDailyFlights": 0.71, "operators": [{"name": "Sunwing", "iata": "WG", "icao": "SWG"}, {"name": "Nolinor", "iata": "N5", "icao": "NRL"}]}, {"destination": {"icao": "KFLL", "iata": "FLL", "name": "Fort Lauderdale Hollywood", "shortName": "Hollywood", "municipalityName": "Fort Lauderdale", "location": {"lat": 26.0726, "lon": -80.1527}, "countryCode": "US"}, "averageDailyFlights": 0.71, "operators": [{"name": "Air Transat", "iata": "TS", "icao": "TSC"}]}, {"destination": {"icao": "MUCC", "iata": "CCC", "name": "Cayo Coco Jardines Del Rey", "shortName": "Jardines Del Rey", "municipalityName": "Cayo Coco", "location": {"lat": 22.461, "lon": -78.3284}, "countryCode": "CU"}, "averageDailyFlights": 0.57, "operators": [{"name": "Sunwing", "iata": "WG", "icao": "SWG"}, {"name": "Air Transat", "iata": "TS", "icao": "TSC"}]}, {"destination": {"icao": "MUSC", "iata": "SNU", "name": "Santa Clara Abel Santamaria", "shortName": "Abel Santamaria", "municipalityName": "Santa Clara", "location": {"lat": 22.4922, "lon": -79.9436}, "countryCode": "CU"}, "averageDailyFlights": 0.57, "operators": [{"name": "Air Transat", "iata": "TS", "icao": "TSC"}, {"name": "Sunwing", "iata": "WG", "icao": "SWG"}]}, {"destination": {"icao": "MDPP", "iata": "POP", "name": "Puerto Plata Gregorio Luperon", "shortName": "Gregorio Luperon", "municipalityName": "Puerto Plata", "location": {"lat": 19.7579, "lon": -70.57}, "countryCode": "DO"}, "averageDailyFlights": 0.43, "operators": [{"name": "Air Transat", "iata": "TS", "icao": "TSC"}, {"name": "Sunwing", "iata": "WG", "icao": "SWG"}]}, {"destination": {"icao": "MMPR", "iata": "PVR", "name": "Puerto Vallarta Licenciado Gustavo D\u00edaz Ordaz", "shortName": "Licenciado Gustavo D\u00edaz Ordaz", "municipalityName": "Puerto Vallarta", "location": {"lat": 20.6801, "lon": -105.254}, "countryCode": "MX"}, "averageDailyFlights": 0.43, "operators": [{"name": "Air Transat", "iata": "TS", "icao": "TSC"}, {"name": "Sunwing", "iata": "WG", "icao": "SWG"}]}, {"destination": {"icao": "CYVR", "iata": "YVR", "name": "Vancouver ", "shortName": "Vancouver", "municipalityName": "Vancouver", "location": {"lat": 49.1939, "lon": -123.184}, "countryCode": "CA"}, "averageDailyFlights": 0.43, "operators": [{"name": "Air Canada", "iata": "AC", "icao": "ACA"}]}, {"destination": {"icao": "MUCL", "iata": "CYO", "name": "Cayo Largo del Sur Vilo Acu\u00f1a", "shortName": "Vilo Acu\u00f1a", "municipalityName": "Cayo Largo del Sur", "location": {"lat": 21.6165, "lon": -81.546}, "countryCode": "CU"}, "averageDailyFlights": 0.29, "operators": [{"name": "Sunwing", "iata": "WG", "icao": "SWG"}]}, {"destination": {"icao": "MUHG", "iata": "HOG", "name": "Holgu\u00edn Frank Pais", "shortName": "Frank Pais", "municipalityName": "Holgu\u00edn", "location": {"lat": 20.7856, "lon": -76.3151}, "countryCode": "CU"}, "averageDailyFlights": 0.29, "operators": [{"name": "Sunwing", "iata": "WG", "icao": "SWG"}, {"name": "Air Transat", "iata": "TS", "icao": "TSC"}]}, {"destination": {"icao": "KMCO", "iata": "MCO", "name": "Orlando ", "shortName": "Orlando", "municipalityName": "Orlando", "location": {"lat": 28.4294, "lon": -81.309}, "countryCode": "US"}, "averageDailyFlights": 0.29, "operators": [{"name": "Air Transat", "iata": "TS", "icao": "TSC"}]}, {"destination": {"icao": "LFPG", "iata": "CDG", "name": "Paris Charles de Gaulle", "shortName": "Charles de Gaulle", "municipalityName": "Paris", "location": {"lat": 49.0128, "lon": 2.549999}, "countryCode": "FR"}, "averageDailyFlights": 0.29, "operators": [{"name": "Air Transat", "iata": "TS", "icao": "TSC"}]}, {"destination": {"icao": "KMDW", "iata": "MDW", "name": "Chicago Midway", "shortName": "Midway", "municipalityName": "Chicago", "location": {"lat": 41.786, "lon": -87.7524}, "countryCode": "US"}, "averageDailyFlights": 0.14, "operators": [{"name": "NetJets Aviation", "iata": "1I", "icao": "EJA"}]}, {"destination": {"icao": "KDTW", "iata": "DTW", "name": "Detroit Metropolitan Wayne County", "shortName": "Metropolitan Wayne County", "municipalityName": "Detroit", "location": {"lat": 42.2124, "lon": -83.3534}, "countryCode": "US"}, "averageDailyFlights": 0.14, "operators": [{"name": "NetJets Aviation", "iata": "1I", "icao": "EJA"}]}, {"destination": {"icao": "CYVP", "iata": "YVP", "name": "Kuujjuaq ", "shortName": "Kuujjuaq", "municipalityName": "Kuujjuaq", "location": {"lat": 58.0961, "lon": -68.4269}, "countryCode": "CA"}, "averageDailyFlights": 0.14, "operators": [{"name": "Air Inuit", "iata": "3H", "icao": "AIE"}]}, {"destination": {"icao": "KLAS", "iata": "LAS", "name": "Las Vegas McCarran", "shortName": "McCarran", "municipalityName": "Las Vegas", "location": {"lat": 36.0801, "lon": -115.152}, "countryCode": "US"}, "averageDailyFlights": 0.14, "operators": [{"name": "VJA"}]}, {"destination": {"icao": "MHRO", "iata": "RTB", "name": "Roatan Island Juan Manuel Galvez", "shortName": "Juan Manuel Galvez", "municipalityName": "Roatan Island", "location": {"lat": 16.3168, "lon": -86.523}, "countryCode": "HN"}, "averageDailyFlights": 0.14, "operators": [{"name": "Sunwing", "iata": "WG", "icao": "SWG"}]}, {"destination": {"name": "Rio-Ato"}, "averageDailyFlights": 0.14, "operators": [{"name": "Sunwing", "iata": "WG", "icao": "SWG"}]}, {"destination": {"name": "Saman\u00e1"}, "averageDailyFlights": 0.14, "operators": [{"name": "Air Transat", "iata": "TS", "icao": "TSC"}]}, {"destination": {"name": "Vabush"}, "averageDailyFlights": 0.14, "operators": [{"name": "PAL Airlines", "iata": "PB", "icao": "PVL"}]}]}