{"routes": [{"destination": {"icao": "CYUL", "iata": "YUL", "name": "Montreal Trudeau", "shortName": "Trudeau", "municipalityName": "Montreal", "location": {"lat": 45.4706, "lon": -73.7408}, "countryCode": "CA"}, "averageDailyFlights": 3.14, "operators": [{"name": "Air Canada", "iata": "AC", "icao": "ACA"}, {"name": "PAL Airlines", "iata": "PB", "icao": "PVL"}]}, {"destination": {"icao": "CYWK", "iata": "YWK", "name": "Wabush ", "shortName": "Wabush", "municipalityName": "Wabush", "location": {"lat": 52.9219, "lon": -66.8644}, "countryCode": "CA"}, "averageDailyFlights": 2.0, "operators": [{"name": "PAL Airlines", "iata": "PB", "icao": "PVL"}]}, {"destination": {"icao": "CYKL", "iata": "YKL", "name": "Schefferville ", "shortName": "Schefferville", "municipalityName": "Schefferville", "location": {"lat": 54.8053, "lon": -66.8053}, "countryCode": "CA"}, "averageDailyFlights": 1.43, "operators": [{"name": "Air Inuit", "iata": "3H", "icao": "AIE"}]}, {"destination": {"icao": "CYNA", "iata": "YNA", "name": "Natashquan ", "shortName": "Natashquan", "municipalityName": "Natashquan", "location": {"lat": 50.19, "lon": -61.7892}, "countryCode": "CA"}, "averageDailyFlights": 1.0, "operators": [{"name": "Air Liaison", "iata": "DU", "icao": "LIZ"}]}, {"destination": {"icao": "CYHR", "iata": "YHR", "name": "Chevery ", "shortName": "Chevery", "municipalityName": "Chevery", "location": {"lat": 50.4689, "lon": -59.6367}, "countryCode": "CA"}, "averageDailyFlights": 0.86, "operators": [{"name": "Air Liaison", "iata": "DU", "icao": "LIZ"}]}, {"destination": {"icao": "CYQB", "iata": "YQB", "name": "Quebec Jean Lesage", "shortName": "Jean Lesage", "municipalityName": "Quebec", "location": {"lat": 46.7911, "lon": -71.3933}, "countryCode": "CA"}, "averageDailyFlights": 0.71, "operators": [{"name": "Air Inuit", "iata": "3H", "icao": "AIE"}]}, {"destination": {"icao": "CYIF", "iata": "YIF", "name": "St-Augustin St Augustin", "shortName": "St Augustin", "municipalityName": "St-Augustin", "location": {"lat": 51.2117, "lon": -58.6583}, "countryCode": "CA"}, "averageDailyFlights": 0.57, "operators": [{"name": "Air Liaison", "iata": "DU", "icao": "LIZ"}]}, {"destination": {"icao": "CYBX", "iata": "YBX", "name": "Lourdes-De-Blanc-Sablon Lourdes de Blanc Sablon", "shortName": "Lourdes de Blanc Sablon", "municipalityName": "Lourdes-De-Blanc-Sablon", "location": {"lat": 51.4436, "lon": -57.1853}, "countryCode": "CA"}, "averageDailyFlights": 0.29, "operators": [{"name": "Air Liaison", "iata": "DU", "icao": "LIZ"}]}]}