{"routes": [{"destination": {"icao": "EFHK", "iata": "HEL", "name": "Helsinki Vantaa", "shortName": "Vantaa", "municipalityName": "Helsinki", "location": {"lat": 60.3172, "lon": 24.9633}, "countryCode": "FI"}, "averageDailyFlights": 4.71, "operators": [{"name": "Finnair", "iata": "AY", "icao": "FIN"}]}, {"destination": {"icao": "EHAM", "iata": "AMS", "name": "Amsterdam Schiphol", "shortName": "Schiphol", "municipalityName": "Amsterdam", "location": {"lat": 52.3086, "lon": 4.763889}, "countryCode": "NL"}, "averageDailyFlights": 1.0, "operators": [{"name": "TUI Airlines Nederland (Netherlands)", "iata": "OR", "icao": "TFL"}, {"name": "Transavia", "iata": "HV", "icao": "TRA"}, {"name": "Corendon Dutch Airlines", "iata": "CD", "icao": "CND"}]}, {"destination": {"icao": "EBBR", "iata": "BRU", "name": "Brussels ", "shortName": "Brussels", "municipalityName": "Brussels", "location": {"lat": 50.9014, "lon": 4.484439}, "countryCode": "BE"}, "averageDailyFlights": 0.86, "operators": [{"name": "TUI Airlines Belgium", "iata": "TB", "icao": "JAF"}, {"name": "Brussels Airlines", "iata": "SN", "icao": "BEL"}]}, {"destination": {"icao": "EFIV", "iata": "IVL", "name": "Ivalo ", "shortName": "Ivalo", "municipalityName": "Ivalo", "location": {"lat": 68.6073, "lon": 27.4053}, "countryCode": "FI"}, "averageDailyFlights": 0.57, "operators": [{"name": "TUI Airlines Nederland (Netherlands)", "iata": "OR", "icao": "TFL"}, {"name": "Finnair", "iata": "AY", "icao": "FIN"}]}, {"destination": {"icao": "EFKS", "iata": "KAO", "name": "Kuusamo ", "shortName": "Kuusamo", "municipalityName": "Kuusamo", "location": {"lat": 65.9876, "lon": 29.2394}, "countryCode": "FI"}, "averageDailyFlights": 0.43, "operators": [{"name": "TUI Airlines Nederland (Netherlands)", "iata": "OR", "icao": "TFL"}, {"name": "TUI Airlines Belgium", "iata": "TB", "icao": "JAF"}, {"name": "Transavia", "iata": "HV", "icao": "TRA"}]}, {"destination": {"icao": "LFPO", "iata": "ORY", "name": "Paris -Orly", "shortName": "-Orly", "municipalityName": "Paris", "location": {"lat": 48.7253, "lon": 2.35944}, "countryCode": "FR"}, "averageDailyFlights": 0.43, "operators": [{"name": "Transavia France", "iata": "TO", "icao": "TVF"}]}, {"destination": {"icao": "EDDL", "iata": "DUS", "name": "Duesseldorf D\u00fcsseldorf", "shortName": "D\u00fcsseldorf", "municipalityName": "Duesseldorf", "location": {"lat": 51.2895, "lon": 6.766779}, "countryCode": "DE"}, "averageDailyFlights": 0.29, "operators": [{"name": "Eurowings", "iata": "EW", "icao": "EWG"}]}, {"destination": {"icao": "EDDM", "iata": "MUC", "name": "Munich ", "shortName": "Munich", "municipalityName": "Munich", "location": {"lat": 48.3538, "lon": 11.7861}, "countryCode": "DE"}, "averageDailyFlights": 0.29, "operators": [{"name": "Lufthansa", "iata": "LH", "icao": "DLH"}]}, {"destination": {"icao": "LFPG", "iata": "CDG", "name": "Paris Charles de Gaulle", "shortName": "Charles de Gaulle", "municipalityName": "Paris", "location": {"lat": 49.0128, "lon": 2.549999}, "countryCode": "FR"}, "averageDailyFlights": 0.29, "operators": [{"name": "Air France", "iata": "AF", "icao": "AFR"}]}, {"destination": {"icao": "LSZH", "iata": "ZRH", "name": "Zurich Kloten", "shortName": "Kloten", "municipalityName": "Zurich", "location": {"lat": 47.4647, "lon": 8.549169}, "countryCode": "CH"}, "averageDailyFlights": 0.29, "operators": [{"name": "Edelweiss Air", "iata": "WK", "icao": "EDW"}, {"name": "Helvetic Airways", "iata": "2L", "icao": "OAW"}]}, {"destination": {"icao": "LFBD", "iata": "BOD", "name": "Bordeaux/M\u00e9rignac Bordeaux-M\u00e9rignac", "shortName": "Bordeaux-M\u00e9rignac", "municipalityName": "Bordeaux/M\u00e9rignac", "location": {"lat": 44.8283, "lon": -0.715556}, "countryCode": "FR"}, "averageDailyFlights": 0.14, "operators": [{"name": "Transavia France", "iata": "TO", "icao": "TVF"}]}, {"destination": {"icao": "LSGG", "iata": "GVA", "name": "Geneva Cointrin", "shortName": "Cointrin", "municipalityName": "Geneva", "location": {"lat": 46.2381, "lon": 6.10895}, "countryCode": "CH"}, "averageDailyFlights": 0.14, "operators": [{"name": "SWISS", "iata": "LX", "icao": "SWR"}]}, {"destination": {"icao": "EVRA", "iata": "RIX", "localCode": "\u0420\u0418\u0425", "name": "Riga ", "shortName": "Riga", "municipalityName": "Riga", "location": {"lat": 56.9236, "lon": 23.9711}, "countryCode": "LV"}, "averageDailyFlights": 0.14, "operators": [{"name": "airBaltic", "iata": "BT", "icao": "BTI"}]}, {"destination": {"icao": "EFTP", "iata": "TMP", "name": "Tampere / Pirkkala Tampere-Pirkkala", "shortName": "Tampere-Pirkkala", "municipalityName": "Tampere / Pirkkala", "location": {"lat": 61.4141, "lon": 23.6044}, "countryCode": "FI"}, "averageDailyFlights": 0.14, "operators": [{"name": "airBaltic", "iata": "BT", "icao": "BTI"}]}, {"destination": {"icao": "LOWW", "iata": "VIE", "name": "Vienna Schwechat", "shortName": "Schwechat", "municipalityName": "Vienna", "location": {"lat": 48.1103, "lon": 16.5697}, "countryCode": "AT"}, "averageDailyFlights": 0.14, "operators": [{"name": "Austrian", "iata": "OS", "icao": "AUA"}]}]}