{"routes": [{"destination": {"icao": "FKKD", "iata": "DLA", "name": "Douala ", "shortName": "Douala", "municipalityName": "Douala", "location": {"lat": 4.00608, "lon": 9.719479}, "countryCode": "CM"}, "averageDailyFlights": 1.71, "operators": [{"name": "Royal Air Maroc", "iata": "AT", "icao": "RAM"}, {"name": "Air Cote D'Ivoire", "iata": "HF", "icao": "VRE"}, {"name": "Turkish Airlines", "iata": "TK", "icao": "THY"}, {"name": "Ethiopian Airlines", "iata": "ET", "icao": "ETH"}, {"name": "Afrijet", "iata": "J7", "icao": "ABS"}]}, {"destination": {"icao": "EBBR", "iata": "BRU", "name": "Brussels ", "shortName": "Brussels", "municipalityName": "Brussels", "location": {"lat": 50.9014, "lon": 4.484439}, "countryCode": "BE"}, "averageDailyFlights": 1.14, "operators": [{"name": "Brussels Airlines", "iata": "SN", "icao": "BEL"}]}, {"destination": {"icao": "FOOL", "iata": "LBV", "name": "Libreville Leon M'ba", "shortName": "Leon M'ba", "municipalityName": "Libreville", "location": {"lat": 0.4586, "lon": 9.41228}, "countryCode": "GA"}, "averageDailyFlights": 1.0, "operators": [{"name": "Ethiopian Airlines", "iata": "ET", "icao": "ETH"}, {"name": "Afrijet", "iata": "J7", "icao": "ABS"}]}, {"destination": {"icao": "LFPG", "iata": "CDG", "name": "Paris Charles de Gaulle", "shortName": "Charles de Gaulle", "municipalityName": "Paris", "location": {"lat": 49.0128, "lon": 2.549999}, "countryCode": "FR"}, "averageDailyFlights": 1.0, "operators": [{"name": "Air France", "iata": "AF", "icao": "AFR"}]}, {"destination": {"name": "Istanbul"}, "averageDailyFlights": 0.71, "operators": [{"name": "Turkish Airlines", "iata": "TK", "icao": "THY"}]}, {"destination": {"icao": "DIAP", "iata": "ABJ", "name": "Abidjan Port Bouet", "shortName": "Port Bouet", "municipalityName": "Abidjan", "location": {"lat": 5.26139, "lon": -3.92629}, "countryCode": "CI"}, "averageDailyFlights": 0.57, "operators": [{"name": "Air Cote D'Ivoire", "iata": "HF", "icao": "VRE"}]}, {"destination": {"icao": "DNAA", "iata": "ABV", "name": "Abuja Nnamdi Azikiwe", "shortName": "Nnamdi Azikiwe", "municipalityName": "Abuja", "location": {"lat": 9.00679, "lon": 7.263169}, "countryCode": "NG"}, "averageDailyFlights": 0.43, "operators": [{"name": "ASKY", "iata": "KP", "icao": "SKK"}]}, {"destination": {"icao": "HAAB", "iata": "ADD", "name": "Addis Ababa Bole", "shortName": "Bole", "municipalityName": "Addis Ababa", "location": {"lat": 8.97789, "lon": 38.7993}, "countryCode": "ET"}, "averageDailyFlights": 0.43, "operators": [{"name": "Ethiopian Airlines", "iata": "ET", "icao": "ETH"}]}, {"destination": {"icao": "GMMN", "iata": "CMN", "name": "Casablanca Mohammed V", "shortName": "Mohammed V", "municipalityName": "Casablanca", "location": {"lat": 33.3675, "lon": -7.58997}, "countryCode": "MA"}, "averageDailyFlights": 0.29, "operators": [{"name": "Royal Air Maroc", "iata": "AT", "icao": "RAM"}]}, {"destination": {"icao": "DXXX", "iata": "LFW", "name": "Lom\u00e9 -Tokoin", "shortName": "-Tokoin", "municipalityName": "Lom\u00e9", "location": {"lat": 6.165609, "lon": 1.25451}, "countryCode": "TG"}, "averageDailyFlights": 0.29, "operators": [{"name": "ASKY", "iata": "KP", "icao": "SKK"}]}, {"destination": {"icao": "FTTJ", "iata": "NDJ", "name": "N'Djamena ", "shortName": "N'Djamena", "municipalityName": "N'Djamena", "location": {"lat": 12.1337, "lon": 15.034}, "countryCode": "TD"}, "averageDailyFlights": 0.29, "operators": [{"name": "ASKY", "iata": "KP", "icao": "SKK"}]}]}