{"routes": [{"destination": {"icao": "HTDA", "iata": "DAR", "name": "Dar es Salaam Julius Nyerere", "shortName": "Julius Nyerere", "municipalityName": "Dar es Salaam", "location": {"lat": -6.878109, "lon": 39.2026}, "countryCode": "TZ"}, "averageDailyFlights": 33.71, "operators": [{"name": "Charterlines", "iata": "CQ"}, {"name": "Air Tanzania", "iata": "TC", "icao": "ATC"}, {"name": "Auric Air", "iata": "UI", "icao": "AUK"}, {"name": "Precision Air", "iata": "PW", "icao": "PRF"}, {"name": "Regional Air", "iata": "8N", "icao": "REG"}, {"name": "Oman Air", "iata": "WY", "icao": "OMA"}, {"name": "flydubai", "iata": "FZ", "icao": "FDB"}, {"name": "FlexFlight", "iata": "W2", "icao": "FXT"}, {"name": "KLM", "iata": "KL", "icao": "KLM"}, {"name": "Uganda Airlines", "iata": "UR"}, {"name": "Air France", "iata": "AF", "icao": "AFR"}]}, {"destination": {"icao": "HTAR", "iata": "ARK", "name": "Arusha ", "shortName": "Arusha", "municipalityName": "Arusha", "location": {"lat": -3.367789, "lon": 36.6333}, "countryCode": "TZ"}, "averageDailyFlights": 14.43, "operators": [{"name": "A.P.G. Distribution System"}, {"name": "Regional Air", "iata": "8N", "icao": "REG"}, {"name": "Charterlines", "iata": "CQ"}, {"name": "Precision Air", "iata": "PW", "icao": "PRF"}, {"name": "Auric Air", "iata": "UI", "icao": "AUK"}, {"name": "FlexFlight", "iata": "W2", "icao": "FXT"}, {"name": "Air Tanzania", "iata": "TC", "icao": "ATC"}]}, {"destination": {"icao": "HTPE", "iata": "PMA", "name": "Chake Pemba", "shortName": "Pemba", "municipalityName": "Chake", "location": {"lat": -5.257259, "lon": 39.8114}, "countryCode": "TZ"}, "averageDailyFlights": 7.0, "operators": [{"name": "Auric Air", "iata": "UI", "icao": "AUK"}, {"name": "FlexFlight", "iata": "W2", "icao": "FXT"}, {"name": "Charterlines", "iata": "CQ"}, {"name": "Air Tanzania", "iata": "TC", "icao": "ATC"}]}, {"destination": {"icao": "HKJK", "iata": "NBO", "name": "Nairobi Jomo Kenyatta", "shortName": "Jomo Kenyatta", "municipalityName": "Nairobi", "location": {"lat": -1.319239, "lon": 36.9278}, "countryCode": "KE"}, "averageDailyFlights": 5.14, "operators": [{"name": "Kenya Airways", "iata": "KQ", "icao": "KQA"}, {"name": "Precision Air", "iata": "PW", "icao": "PRF"}]}, {"destination": {"icao": "HKMO", "iata": "MBA", "name": "Mombasa Moi", "shortName": "Moi", "municipalityName": "Mombasa", "location": {"lat": -4.03483, "lon": 39.5942}, "countryCode": "KE"}, "averageDailyFlights": 4.0, "operators": [{"name": "Flight Alaska"}, {"name": "Safarilink", "iata": "F2", "icao": "XLK"}, {"name": "FlexFlight", "iata": "W2", "icao": "FXT"}, {"name": "Condor", "iata": "DE", "icao": "CFG"}, {"name": "Neos", "iata": "NO", "icao": "NOS"}]}, {"destination": {"icao": "HTTG", "iata": "TGT", "name": "Tanga ", "shortName": "Tanga", "municipalityName": "Tanga", "location": {"lat": -5.09236, "lon": 39.0712}, "countryCode": "TZ"}, "averageDailyFlights": 3.43, "operators": [{"name": "Auric Air", "iata": "UI", "icao": "AUK"}, {"name": "Charterlines", "iata": "CQ"}]}, {"destination": {"icao": "OMDB", "iata": "DXB", "name": "Dubai ", "shortName": "Dubai", "municipalityName": "Dubai", "location": {"lat": 25.252798, "lon": 55.3644}, "countryCode": "AE"}, "averageDailyFlights": 2.29, "operators": [{"name": "flydubai", "iata": "FZ", "icao": "FDB"}]}, {"destination": {"icao": "OTHH", "iata": "DOH", "name": "Doha Hamad", "shortName": "Hamad", "municipalityName": "Doha", "location": {"lat": 25.273056, "lon": 51.608055}, "countryCode": "QA"}, "averageDailyFlights": 2.14, "operators": [{"name": "Qatar Airways", "iata": "QR", "icao": "QTR"}]}, {"destination": {"icao": "HAAB", "iata": "ADD", "name": "Addis Ababa Bole", "shortName": "Bole", "municipalityName": "Addis Ababa", "location": {"lat": 8.97789, "lon": 38.7993}, "countryCode": "ET"}, "averageDailyFlights": 1.14, "operators": [{"name": "Ethiopian Airlines", "iata": "ET", "icao": "ETH"}]}, {"destination": {"icao": "LTFM", "iata": "IST", "name": "Istanbul ", "shortName": "Istanbul", "municipalityName": "Istanbul", "location": {"lat": 41.275276, "lon": 28.751944}, "countryCode": "TR"}, "averageDailyFlights": 1.14, "operators": [{"name": "Turkish Airlines", "iata": "TK", "icao": "THY"}]}, {"destination": {"icao": "HTSN", "iata": "SEU", "name": "Seronera ", "shortName": "Seronera", "municipalityName": "Seronera", "location": {"lat": -2.45806, "lon": 34.8225}, "countryCode": "TZ"}, "averageDailyFlights": 1.14, "operators": [{"name": "A.P.G. Distribution System"}]}, {"destination": {"icao": "OOMS", "iata": "MCT", "name": "Muscat ", "shortName": "Muscat", "municipalityName": "Muscat", "location": {"lat": 23.5933, "lon": 58.2844}, "countryCode": "OM"}, "averageDailyFlights": 0.57, "operators": [{"name": "Oman Air", "iata": "WY", "icao": "OMA"}]}, {"destination": {"icao": "HELX", "iata": "LXR", "name": "Luxor ", "shortName": "Luxor", "municipalityName": "Luxor", "location": {"lat": 25.671, "lon": 32.7066}, "countryCode": "EG"}, "averageDailyFlights": 0.43, "operators": [{"name": "Bulgaria Air", "iata": "FB", "icao": "LZB"}, {"name": "Neos", "iata": "NO", "icao": "NOS"}]}, {"destination": {"icao": "FAOR", "iata": "JNB", "name": "Jo'anna OR Tambo", "shortName": "OR Tambo", "municipalityName": "Jo'anna", "location": {"lat": -26.1392, "lon": 28.246}, "countryCode": "ZA"}, "averageDailyFlights": 0.14, "operators": [{"name": "Safair", "iata": "FA", "icao": "SFR"}]}, {"destination": {"icao": "LIRF", "iata": "FCO", "name": "Rome Leonardo da Vinci\u2013Fiumicino", "shortName": "Leonardo da Vinci\u2013Fiumicino", "municipalityName": "Rome", "location": {"lat": 41.8045, "lon": 12.2508}, "countryCode": "IT"}, "averageDailyFlights": 0.14, "operators": [{"name": "Neos", "iata": "NO", "icao": "NOS"}]}, {"destination": {"icao": "LIPX", "iata": "VRN", "name": "Verona Villafranca", "shortName": "Villafranca", "municipalityName": "Verona", "location": {"lat": 45.3957, "lon": 10.8885}, "countryCode": "IT"}, "averageDailyFlights": 0.14, "operators": [{"name": "Neos", "iata": "NO", "icao": "NOS"}]}, {"destination": {"name": "Warsaw"}, "averageDailyFlights": 0.14, "operators": [{"name": "Aura Airlines"}]}]}