{"routes": [{"destination": {"icao": "KDEN", "iata": "DEN", "name": "Denver ", "shortName": "Denver", "municipalityName": "Denver", "location": {"lat": 39.8617, "lon": -104.673}, "countryCode": "US"}, "averageDailyFlights": 5.57, "operators": [{"name": "United Airlines", "iata": "UA", "icao": "UAL"}, {"name": "NetJets Aviation", "iata": "1I", "icao": "EJA"}]}, {"destination": {"icao": "KSLC", "iata": "SLC", "name": "Salt Lake City ", "shortName": "Salt Lake City", "municipalityName": "Salt Lake City", "location": {"lat": 40.7884, "lon": -111.978}, "countryCode": "US"}, "averageDailyFlights": 1.57, "operators": [{"name": "Libyan Airlines", "iata": "LN", "icao": "LAA"}, {"name": "Delta Air Lines", "iata": "DL", "icao": "DAL"}]}, {"destination": {"icao": "KAPA", "iata": "APA", "name": "Denver Centennial", "shortName": "Centennial", "municipalityName": "Denver", "location": {"lat": 39.5701, "lon": -104.849}, "countryCode": "US"}, "averageDailyFlights": 1.0, "operators": [{"name": "Libyan Airlines", "iata": "LN", "icao": "LAA"}, {"name": "OTA"}, {"name": "IJA"}]}, {"destination": {"icao": "KSDL", "iata": "SCF", "name": "Scottsdale ", "shortName": "Scottsdale", "municipalityName": "Scottsdale", "location": {"lat": 33.6229, "lon": -111.911}, "countryCode": "US"}, "averageDailyFlights": 0.86, "operators": [{"name": "AOJ"}, {"name": "OTA"}, {"name": "LXJ"}]}, {"destination": {"icao": "KCYS", "iata": "CYS", "name": "Cheyenne Regional Jerry Olson Field", "shortName": "Regional Jerry Olson Field", "municipalityName": "Cheyenne", "location": {"lat": 41.1557, "lon": -104.812}, "countryCode": "US"}, "averageDailyFlights": 0.71, "operators": [{"name": "Alpine Air Express", "iata": "5A", "icao": "AIP"}]}, {"destination": {"icao": "KFNL", "iata": "FNL", "name": "Fort Collins/Loveland Fort Collins Loveland Municipal", "shortName": "Fort Collins Loveland Municipal", "municipalityName": "Fort Collins/Loveland", "location": {"lat": 40.4518, "lon": -105.011}, "countryCode": "US"}, "averageDailyFlights": 0.57, "operators": [{"name": "OTA"}]}, {"destination": {"icao": "KJAC", "iata": "JAC", "name": "Jackson Hole", "shortName": "Hole", "municipalityName": "Jackson", "location": {"lat": 43.6073, "lon": -110.738}, "countryCode": "US"}, "averageDailyFlights": 0.57, "operators": [{"name": "FFL"}, {"name": "FTH"}]}, {"destination": {"icao": "KGLE", "iata": "GLE", "name": "Gainesville Municipal", "shortName": "Municipal", "municipalityName": "Gainesville", "location": {"lat": 33.6514, "lon": -97.197}, "countryCode": "US"}, "averageDailyFlights": 0.29, "operators": [{"name": "OTA"}]}, {"destination": {"icao": "MMHO", "iata": "HMO", "name": "Hermosillo General Ignacio P. Garcia", "shortName": "General Ignacio P. Garcia", "municipalityName": "Hermosillo", "location": {"lat": 29.0959, "lon": -111.048}, "countryCode": "MX"}, "averageDailyFlights": 0.29, "operators": [{"name": "OTA"}]}, {"destination": {"icao": "KIWA", "iata": "AZA", "name": "Phoenix -Mesa-Gateway", "shortName": "-Mesa-Gateway", "municipalityName": "Phoenix", "location": {"lat": 33.3078, "lon": -111.655}, "countryCode": "US"}, "averageDailyFlights": 0.29, "operators": [{"name": "OTA"}]}, {"destination": {"icao": "KRKS", "iata": "RKS", "name": "Rock Springs Sweetwater County", "shortName": "Sweetwater County", "municipalityName": "Rock Springs", "location": {"lat": 41.5942, "lon": -109.065}, "countryCode": "US"}, "averageDailyFlights": 0.29, "operators": [{"name": "OTA"}]}, {"destination": {"icao": "KICT", "iata": "ICT", "name": "Wichita Mid Continent", "shortName": "Mid Continent", "municipalityName": "Wichita", "location": {"lat": 37.6499, "lon": -97.4331}, "countryCode": "US"}, "averageDailyFlights": 0.29, "operators": [{"name": "BBA"}]}, {"destination": {"icao": "KBZN", "iata": "BZN", "name": "Bozeman Gallatin Field", "shortName": "Gallatin Field", "municipalityName": "Bozeman", "location": {"lat": 45.7775, "lon": -111.153}, "countryCode": "US"}, "averageDailyFlights": 0.14, "operators": [{"name": "YEL"}]}, {"destination": {"icao": "KBKD", "iata": "BKD", "name": "Breckenridge Stephens County", "shortName": "Stephens County", "municipalityName": "Breckenridge", "location": {"lat": 32.719, "lon": -98.891}, "countryCode": "US"}, "averageDailyFlights": 0.14, "operators": [{"name": "NetJets Aviation", "iata": "1I", "icao": "EJA"}]}, {"destination": {"icao": "KGCC", "iata": "GCC", "name": "Gillette Campbell County", "shortName": "Campbell County", "municipalityName": "Gillette", "location": {"lat": 44.3489, "lon": -105.539}, "countryCode": "US"}, "averageDailyFlights": 0.14, "operators": [{"name": "IJA"}]}, {"destination": {"icao": "KAVQ", "iata": "AVW", "name": "Tucson Marana Regional", "shortName": "Marana Regional", "municipalityName": "Tucson", "location": {"lat": 32.4096, "lon": -111.218}, "countryCode": "US"}, "averageDailyFlights": 0.14, "operators": [{"name": "NetJets Aviation", "iata": "1I", "icao": "EJA"}]}]}