{"routes": [{"destination": {"icao": "KCLT", "iata": "CLT", "name": "Charlotte Douglas", "shortName": "Douglas", "municipalityName": "Charlotte", "location": {"lat": 35.214, "lon": -80.9431}, "countryCode": "US"}, "averageDailyFlights": 4.71, "operators": [{"name": "American Airlines", "iata": "AA", "icao": "AAL"}]}, {"destination": {"icao": "KATL", "iata": "ATL", "name": "Atlanta Hartsfield Jackson", "shortName": "Hartsfield Jackson", "municipalityName": "Atlanta", "location": {"lat": 33.6367, "lon": -84.4281}, "countryCode": "US"}, "averageDailyFlights": 4.57, "operators": [{"name": "Delta Air Lines", "iata": "DL", "icao": "DAL"}]}, {"destination": {"icao": "KFPR", "iata": "FPR", "name": "Ft. Pierce St Lucie County", "shortName": "St Lucie County", "municipalityName": "Ft. Pierce", "location": {"lat": 27.4951, "lon": -80.3683}, "countryCode": "US"}, "averageDailyFlights": 2.86, "operators": [{"name": "ERU"}, {"name": "JED"}, {"name": "WCP"}]}, {"destination": {"icao": "KMLB", "iata": "MLB", "name": "Melbourne ", "shortName": "Melbourne", "municipalityName": "Melbourne", "location": {"lat": 28.1028, "lon": -80.6453}, "countryCode": "US"}, "averageDailyFlights": 2.14, "operators": [{"name": "ERU"}, {"name": "JED"}, {"name": "Sun Country Airlines", "iata": "SY", "icao": "SCX"}]}, {"destination": {"icao": "KPIE", "iata": "PIE", "name": "St Petersburg-Clearwater St Petersburg Clearwater", "shortName": "St Petersburg Clearwater", "municipalityName": "St Petersburg-Clearwater", "location": {"lat": 27.9102, "lon": -82.6874}, "countryCode": "US"}, "averageDailyFlights": 2.0, "operators": [{"name": "ERU"}]}, {"destination": {"icao": "KSRQ", "iata": "SRQ", "name": "Sarasota/Bradenton Sarasota Bradenton", "shortName": "Sarasota Bradenton", "municipalityName": "Sarasota/Bradenton", "location": {"lat": 27.3954, "lon": -82.5544}, "countryCode": "US"}, "averageDailyFlights": 1.71, "operators": [{"name": "ERU"}]}, {"destination": {"icao": "KGNV", "iata": "GNV", "name": "Gainesville Regional", "shortName": "Regional", "municipalityName": "Gainesville", "location": {"lat": 29.6901, "lon": -82.2718}, "countryCode": "US"}, "averageDailyFlights": 1.29, "operators": [{"name": "ERU"}, {"name": "JED"}]}, {"destination": {"icao": "KISM", "iata": "ISM", "name": "Orlando Kissimmee Gateway", "shortName": "Kissimmee Gateway", "municipalityName": "Orlando", "location": {"lat": 28.2898, "lon": -81.4371}, "countryCode": "US"}, "averageDailyFlights": 1.0, "operators": [{"name": "JED"}]}, {"destination": {"icao": "KFMY", "iata": "FMY", "name": "Fort Myers Page Field", "shortName": "Page Field", "municipalityName": "Fort Myers", "location": {"lat": 26.5866, "lon": -81.8633}, "countryCode": "US"}, "averageDailyFlights": 0.71, "operators": [{"name": "CXK"}]}, {"destination": {"icao": "KCRG", "iata": "CRG", "name": "Jacksonville Executive at Craig", "shortName": "Executive at Craig", "municipalityName": "Jacksonville", "location": {"lat": 30.3363, "lon": -81.5144}, "countryCode": "US"}, "averageDailyFlights": 0.71, "operators": [{"name": "ERU"}]}, {"destination": {"icao": "KSFB", "iata": "SFB", "name": "Orlando Sanford", "shortName": "Sanford", "municipalityName": "Orlando", "location": {"lat": 28.7776, "lon": -81.2375}, "countryCode": "US"}, "averageDailyFlights": 0.57, "operators": [{"name": "ERU"}]}, {"destination": {"icao": "KJAX", "iata": "JAX", "name": "Jacksonville ", "shortName": "Jacksonville", "municipalityName": "Jacksonville", "location": {"lat": 30.4941, "lon": -81.6879}, "countryCode": "US"}, "averageDailyFlights": 0.43, "operators": [{"name": "JED"}, {"name": "HOB"}]}, {"destination": {"icao": "KOCF", "iata": "OCF", "name": "Ocala - Jim Taylor Field", "shortName": "- Jim Taylor Field", "municipalityName": "Ocala", "location": {"lat": 29.1726, "lon": -82.2242}, "countryCode": "US"}, "averageDailyFlights": 0.43, "operators": [{"name": "ERU"}]}, {"destination": {"icao": "KPIT", "iata": "PIT", "name": "Pittsburgh ", "shortName": "Pittsburgh", "municipalityName": "Pittsburgh", "location": {"lat": 40.4915, "lon": -80.2329}, "countryCode": "US"}, "averageDailyFlights": 0.43, "operators": [{"name": "PJC"}]}, {"destination": {"icao": "KTLH", "iata": "TLH", "name": "Tallahassee Regional", "shortName": "Regional", "municipalityName": "Tallahassee", "location": {"lat": 30.3965, "lon": -84.3503}, "countryCode": "US"}, "averageDailyFlights": 0.43, "operators": [{"name": "ERU"}, {"name": "JED"}]}, {"destination": {"icao": "KTPA", "iata": "TPA", "name": "Tampa ", "shortName": "Tampa", "municipalityName": "Tampa", "location": {"lat": 27.9755, "lon": -82.5332}, "countryCode": "US"}, "averageDailyFlights": 0.43, "operators": [{"name": "JED"}]}, {"destination": {"icao": "KPBI", "iata": "PBI", "name": "West Palm Beach Palm Beach", "shortName": "Palm Beach", "municipalityName": "West Palm Beach", "location": {"lat": 26.6832, "lon": -80.0956}, "countryCode": "US"}, "averageDailyFlights": 0.43, "operators": [{"name": "TMB"}, {"name": "JED"}, {"name": "NetJets Aviation", "iata": "1I", "icao": "EJA"}]}, {"destination": {"icao": "KDNL", "iata": "DNL", "name": "Augusta Daniel Field", "shortName": "Daniel Field", "municipalityName": "Augusta", "location": {"lat": 33.4665, "lon": -82.0394}, "countryCode": "US"}, "averageDailyFlights": 0.29, "operators": [{"name": "ERU"}]}, {"destination": {"icao": "KCEW", "iata": "CEW", "name": "Crestview Bob Sikes", "shortName": "Bob Sikes", "municipalityName": "Crestview", "location": {"lat": 30.7788, "lon": -86.5221}, "countryCode": "US"}, "averageDailyFlights": 0.29, "operators": [{"name": "TMB"}]}, {"destination": {"icao": "KDCA", "iata": "DCA", "name": "District of Columbia Ronald Reagan Washington National", "shortName": "Ronald Reagan Washington National", "municipalityName": "District of Columbia", "location": {"lat": 38.8521, "lon": -77.0377}, "countryCode": "US"}, "averageDailyFlights": 0.29, "operators": [{"name": "Envoy Air", "iata": "MQ", "icao": "ENY"}, {"name": "American Airlines", "iata": "AA", "icao": "AAL"}]}, {"destination": {"icao": "KLAL", "iata": "LAL", "name": "Lakeland Linder Regional", "shortName": "Linder Regional", "municipalityName": "Lakeland", "location": {"lat": 27.9889, "lon": -82.0186}, "countryCode": "US"}, "averageDailyFlights": 0.29, "operators": [{"name": "CXK"}, {"name": "ERU"}]}, {"destination": {"icao": "KCOI", "iata": "COI", "name": "Merritt Island ", "shortName": "Merritt Island", "municipalityName": "Merritt Island", "location": {"lat": 28.3416, "lon": -80.6855}, "countryCode": "US"}, "averageDailyFlights": 0.29, "operators": [{"name": "JED"}]}, {"destination": {"icao": "KAPF", "iata": "APF", "name": "Naples Municipal", "shortName": "Municipal", "municipalityName": "Naples", "location": {"lat": 26.1526, "lon": -81.7753}, "countryCode": "US"}, "averageDailyFlights": 0.29, "operators": [{"name": "JRE"}]}, {"destination": {"icao": "KHVN", "iata": "HVN", "name": "New Haven Tweed", "shortName": "Tweed", "municipalityName": "New Haven", "location": {"lat": 41.2637, "lon": -72.8868}, "countryCode": "US"}, "averageDailyFlights": 0.29, "operators": [{"name": "VXP"}]}, {"destination": {"icao": "KAGC", "iata": "AGC", "name": "Pittsburgh Allegheny County", "shortName": "Allegheny County", "municipalityName": "Pittsburgh", "location": {"lat": 40.3544, "lon": -79.9302}, "countryCode": "US"}, "averageDailyFlights": 0.29, "operators": [{"name": "Libyan Airlines", "iata": "LN", "icao": "LAA"}]}, {"destination": {"icao": "KPVD", "iata": "PVD", "name": "Providence Theodore Francis Green State", "shortName": "Theodore Francis Green State", "municipalityName": "Providence", "location": {"lat": 41.7326, "lon": -71.4204}, "countryCode": "US"}, "averageDailyFlights": 0.29, "operators": [{"name": "TMB"}]}, {"destination": {"icao": "KVRB", "iata": "VRB", "name": "Vero Beach Municipal", "shortName": "Municipal", "municipalityName": "Vero Beach", "location": {"lat": 27.6556, "lon": -80.4179}, "countryCode": "US"}, "averageDailyFlights": 0.29, "operators": [{"name": "JED"}, {"name": "ERU"}]}, {"destination": {"icao": "KAVL", "iata": "AVL", "name": "Asheville Regional", "shortName": "Regional", "municipalityName": "Asheville", "location": {"lat": 35.4362, "lon": -82.5418}, "countryCode": "US"}, "averageDailyFlights": 0.14, "operators": [{"name": "NetJets Aviation", "iata": "1I", "icao": "EJA"}]}, {"destination": {"icao": "KFTY", "iata": "FTY", "name": "Atlanta Fulton County  Brown Field", "shortName": "Fulton County  Brown Field", "municipalityName": "Atlanta", "location": {"lat": 33.7791, "lon": -84.5214}, "countryCode": "US"}, "averageDailyFlights": 0.14, "operators": [{"name": "NetJets Aviation", "iata": "1I", "icao": "EJA"}]}, {"destination": {"icao": "KPDK", "iata": "PDK", "name": "Atlanta DeKalb Peachtree", "shortName": "DeKalb Peachtree", "municipalityName": "Atlanta", "location": {"lat": 33.8756, "lon": -84.302}, "countryCode": "US"}, "averageDailyFlights": 0.14, "operators": [{"name": "NOJ"}]}, {"destination": {"icao": "KBED", "iata": "BED", "name": "Bedford Laurence G Hanscom Field", "shortName": "Laurence G Hanscom Field", "municipalityName": "Bedford", "location": {"lat": 42.47, "lon": -71.289}, "countryCode": "US"}, "averageDailyFlights": 0.14, "operators": [{"name": "NetJets Aviation", "iata": "1I", "icao": "EJA"}]}, {"destination": {"icao": "KMDW", "iata": "MDW", "name": "Chicago Midway", "shortName": "Midway", "municipalityName": "Chicago", "location": {"lat": 41.786, "lon": -87.7524}, "countryCode": "US"}, "averageDailyFlights": 0.14, "operators": [{"name": "EJM"}]}, {"destination": {"icao": "KDAL", "iata": "DAL", "name": "Dallas Love Field", "shortName": "Love Field", "municipalityName": "Dallas", "location": {"lat": 32.8471, "lon": -96.8518}, "countryCode": "US"}, "averageDailyFlights": 0.14, "operators": [{"name": "LXJ"}]}, {"destination": {"icao": "KDHN", "iata": "DHN", "name": "Dothan Regional", "shortName": "Regional", "municipalityName": "Dothan", "location": {"lat": 31.3213, "lon": -85.4496}, "countryCode": "US"}, "averageDailyFlights": 0.14, "operators": [{"name": "ERU"}]}, {"destination": {"icao": "KGPT", "iata": "GPT", "name": "Gulfport Biloxi", "shortName": "Biloxi", "municipalityName": "Gulfport", "location": {"lat": 30.4073, "lon": -89.0701}, "countryCode": "US"}, "averageDailyFlights": 0.14, "operators": [{"name": "Sun Country Airlines", "iata": "SY", "icao": "SCX"}]}, {"destination": {"icao": "KCXO", "iata": "CXO", "name": "Houston Lone Star Executive", "shortName": "Lone Star Executive", "municipalityName": "Houston", "location": {"lat": 30.3518, "lon": -95.4145}, "countryCode": "US"}, "averageDailyFlights": 0.14, "operators": [{"name": "NetJets Aviation", "iata": "1I", "icao": "EJA"}]}, {"destination": {"icao": "KVQQ", "iata": "VQQ", "name": "Jacksonville Cecil Field", "shortName": "Cecil Field", "municipalityName": "Jacksonville", "location": {"lat": 30.2187, "lon": -81.8767}, "countryCode": "US"}, "averageDailyFlights": 0.14, "operators": [{"name": "TCA", "iata": "N6", "icao": "TZS"}]}, {"destination": {"icao": "KEEN", "iata": "EEN", "name": "Keene Dillant Hopkins", "shortName": "Dillant Hopkins", "municipalityName": "Keene", "location": {"lat": 42.8984, "lon": -72.2708}, "countryCode": "US"}, "averageDailyFlights": 0.14, "operators": [{"name": "NetJets Aviation", "iata": "1I", "icao": "EJA"}]}, {"destination": {"icao": "KLCQ", "iata": "LCQ", "name": "Lake City Gateway", "shortName": "Gateway", "municipalityName": "Lake City", "location": {"lat": 30.182, "lon": -82.5769}, "countryCode": "US"}, "averageDailyFlights": 0.14, "operators": [{"name": "JED"}]}, {"destination": {"icao": "KLAS", "iata": "LAS", "name": "Las Vegas McCarran", "shortName": "McCarran", "municipalityName": "Las Vegas", "location": {"lat": 36.0801, "lon": -115.152}, "countryCode": "US"}, "averageDailyFlights": 0.14, "operators": [{"name": "NetJets Aviation", "iata": "1I", "icao": "EJA"}]}, {"destination": {"icao": "KLEE", "iata": "LEE", "name": "Leesburg ", "shortName": "Leesburg", "municipalityName": "Leesburg", "location": {"lat": 28.8231, "lon": -81.8087}, "countryCode": "US"}, "averageDailyFlights": 0.14, "operators": [{"name": "ERU"}]}, {"destination": {"icao": "KMCN", "iata": "MCN", "name": "Macon Middle Georgia Regional", "shortName": "Middle Georgia Regional", "municipalityName": "Macon", "location": {"lat": 32.6928, "lon": -83.6492}, "countryCode": "US"}, "averageDailyFlights": 0.14, "operators": [{"name": "CXK"}]}, {"destination": {"icao": "KHEF", "iata": "MNZ", "name": "Manassas Harry P. Davis Field", "shortName": "Harry P. Davis Field", "municipalityName": "Manassas", "location": {"lat": 38.7214, "lon": -77.5154}, "countryCode": "US"}, "averageDailyFlights": 0.14, "operators": [{"name": "WML"}]}, {"destination": {"icao": "KMIA", "iata": "MIA", "name": "Miami ", "shortName": "Miami", "municipalityName": "Miami", "location": {"lat": 25.7932, "lon": -80.2906}, "countryCode": "US"}, "averageDailyFlights": 0.14, "operators": [{"name": "NetJets Aviation", "iata": "1I", "icao": "EJA"}]}, {"destination": {"icao": "KBNA", "iata": "BNA", "name": "Nashville ", "shortName": "Nashville", "municipalityName": "Nashville", "location": {"lat": 36.1245, "lon": -86.6782}, "countryCode": "US"}, "averageDailyFlights": 0.14, "operators": [{"name": "JCM"}]}]}