{"routes": [{"destination": {"icao": "KMSP", "iata": "MSP", "name": "Minneapolis Wold-Chamberlain", "shortName": "Wold-Chamberlain", "municipalityName": "Minneapolis", "location": {"lat": 44.882, "lon": -93.2218}, "countryCode": "US"}, "averageDailyFlights": 2.0, "operators": [{"name": "Delta Air Lines", "iata": "DL", "icao": "DAL"}]}, {"destination": {"icao": "KBDE", "iata": "BDE", "name": "Baudette ", "shortName": "Baudette", "municipalityName": "Baudette", "location": {"lat": 48.7284, "lon": -94.6122}, "countryCode": "US"}, "averageDailyFlights": 0.14, "operators": [{"name": "NDU"}]}, {"destination": {"icao": "KBJI", "iata": "BJI", "name": "Bemidji Regional", "shortName": "Regional", "municipalityName": "Bemidji", "location": {"lat": 47.5094, "lon": -94.9337}, "countryCode": "US"}, "averageDailyFlights": 0.14, "operators": [{"name": "Bemidji Aviation", "iata": "CH", "icao": "BMJ"}]}, {"destination": {"icao": "KCKC", "iata": "GRM", "name": "Grand Marais Cook County", "shortName": "Cook County", "municipalityName": "Grand Marais", "location": {"lat": 47.8383, "lon": -90.3829}, "countryCode": "US"}, "averageDailyFlights": 0.14, "operators": [{"name": "MVK"}]}, {"destination": {"icao": "KSJC", "iata": "SJC", "name": "San Jose Norman Y. Mineta", "shortName": "Norman Y. Mineta", "municipalityName": "San Jose", "location": {"lat": 37.3626, "lon": -121.929}, "countryCode": "US"}, "averageDailyFlights": 0.14, "operators": [{"name": "VJT"}]}, {"destination": {"icao": "CYQT", "iata": "YQT", "name": "Thunder Bay ", "shortName": "Thunder Bay", "municipalityName": "Thunder Bay", "location": {"lat": 48.3719, "lon": -89.3239}, "countryCode": "CA"}, "averageDailyFlights": 0.14, "operators": [{"name": "Bearskin Airlines", "iata": "JV", "icao": "BLS"}]}]}