{"routes": [{"destination": {"icao": "KSEA", "iata": "SEA", "name": "Seattle Tacoma", "shortName": "Tacoma", "municipalityName": "Seattle", "location": {"lat": 47.449, "lon": -122.309}, "countryCode": "US"}, "averageDailyFlights": 7.57, "operators": [{"name": "Alaska Airlines", "iata": "AS", "icao": "ASA"}, {"name": "Delta Air Lines", "iata": "DL", "icao": "DAL"}]}, {"destination": {"icao": "KSLC", "iata": "SLC", "name": "Salt Lake City ", "shortName": "Salt Lake City", "municipalityName": "Salt Lake City", "location": {"lat": 40.7884, "lon": -111.978}, "countryCode": "US"}, "averageDailyFlights": 3.29, "operators": [{"name": "Delta Air Lines", "iata": "DL", "icao": "DAL"}]}, {"destination": {"icao": "KSFO", "iata": "SFO", "name": "San Francisco ", "shortName": "San Francisco", "municipalityName": "San Francisco", "location": {"lat": 37.619, "lon": -122.375}, "countryCode": "US"}, "averageDailyFlights": 2.0, "operators": [{"name": "United Airlines", "iata": "UA", "icao": "UAL"}]}, {"destination": {"icao": "KGEG", "iata": "GEG", "name": "Spokane ", "shortName": "Spokane", "municipalityName": "Spokane", "location": {"lat": 47.6199, "lon": -117.534}, "countryCode": "US"}, "averageDailyFlights": 1.86, "operators": [{"name": "Empire Airlines", "iata": "EM", "icao": "CFS"}, {"name": "Ameriflight", "iata": "A8", "icao": "AMF"}]}, {"destination": {"icao": "KDEN", "iata": "DEN", "name": "Denver ", "shortName": "Denver", "municipalityName": "Denver", "location": {"lat": 39.8617, "lon": -104.673}, "countryCode": "US"}, "averageDailyFlights": 1.43, "operators": [{"name": "Delta Air Lines", "iata": "DL", "icao": "DAL"}]}, {"destination": {"icao": "KMSP", "iata": "MSP", "name": "Minneapolis Wold-Chamberlain", "shortName": "Wold-Chamberlain", "municipalityName": "Minneapolis", "location": {"lat": 44.882, "lon": -93.2218}, "countryCode": "US"}, "averageDailyFlights": 1.29, "operators": [{"name": "Delta Air Lines", "iata": "DL", "icao": "DAL"}]}, {"destination": {"icao": "KPHX", "iata": "PHX", "name": "Phoenix Sky Harbor", "shortName": "Sky Harbor", "municipalityName": "Phoenix", "location": {"lat": 33.4343, "lon": -112.012}, "countryCode": "US"}, "averageDailyFlights": 1.14, "operators": [{"name": "SkyWest Airlines", "iata": "OO", "icao": "SKW"}]}, {"destination": {"icao": "KBUR", "iata": "BUR", "name": "Burbank Bob Hope", "shortName": "Bob Hope", "municipalityName": "Burbank", "location": {"lat": 34.2007, "lon": -118.359}, "countryCode": "US"}, "averageDailyFlights": 0.86, "operators": [{"name": "VXP"}]}, {"destination": {"icao": "KBFI", "iata": "BFI", "name": "Seattle Boeing Field King County", "shortName": "Boeing Field King County", "municipalityName": "Seattle", "location": {"lat": 47.53, "lon": -122.302}, "countryCode": "US"}, "averageDailyFlights": 0.86, "operators": [{"name": "NetJets Aviation", "iata": "1I", "icao": "EJA"}, {"name": "Libyan Airlines", "iata": "LN", "icao": "LAA"}, {"name": "L1"}]}, {"destination": {"icao": "KALW", "iata": "ALW", "name": "Walla Walla Regional", "shortName": "Regional", "municipalityName": "Walla Walla", "location": {"lat": 46.0949, "lon": -118.288}, "countryCode": "US"}, "averageDailyFlights": 0.71, "operators": [{"name": "Ameriflight", "iata": "A8", "icao": "AMF"}]}, {"destination": {"icao": "KIWA", "iata": "AZA", "name": "Phoenix -Mesa-Gateway", "shortName": "-Mesa-Gateway", "municipalityName": "Phoenix", "location": {"lat": 33.3078, "lon": -111.655}, "countryCode": "US"}, "averageDailyFlights": 0.57, "operators": [{"name": "Allegiant Air", "iata": "G4", "icao": "AAY"}]}, {"destination": {"icao": "KLAS", "iata": "LAS", "name": "Las Vegas McCarran", "shortName": "McCarran", "municipalityName": "Las Vegas", "location": {"lat": 36.0801, "lon": -115.152}, "countryCode": "US"}, "averageDailyFlights": 0.43, "operators": [{"name": "Allegiant Air", "iata": "G4", "icao": "AAY"}, {"name": "CYO"}]}, {"destination": {"icao": "CYYC", "iata": "YYC", "name": "Calgary ", "shortName": "Calgary", "municipalityName": "Calgary", "location": {"lat": 51.1139, "lon": -114.02}, "countryCode": "CA"}, "averageDailyFlights": 0.14, "operators": [{"name": "ASP"}]}, {"destination": {"icao": "KDAL", "iata": "DAL", "name": "Dallas Love Field", "shortName": "Love Field", "municipalityName": "Dallas", "location": {"lat": 32.8471, "lon": -96.8518}, "countryCode": "US"}, "averageDailyFlights": 0.14, "operators": [{"name": "NetJets Aviation", "iata": "1I", "icao": "EJA"}]}, {"destination": {"icao": "KPSP", "iata": "PSP", "name": "Palm Springs ", "shortName": "Palm Springs", "municipalityName": "Palm Springs", "location": {"lat": 33.8297, "lon": -116.507}, "countryCode": "US"}, "averageDailyFlights": 0.14, "operators": [{"name": "SkyWest Airlines", "iata": "OO", "icao": "SKW"}]}, {"destination": {"icao": "CYVR", "iata": "YVR", "name": "Vancouver ", "shortName": "Vancouver", "municipalityName": "Vancouver", "location": {"lat": 49.1939, "lon": -123.184}, "countryCode": "CA"}, "averageDailyFlights": 0.14, "operators": [{"name": "ASP"}]}, {"destination": {"icao": "KPBI", "iata": "PBI", "name": "West Palm Beach Palm Beach", "shortName": "Palm Beach", "municipalityName": "West Palm Beach", "location": {"lat": 26.6832, "lon": -80.0956}, "countryCode": "US"}, "averageDailyFlights": 0.14, "operators": [{"name": "NetJets Aviation", "iata": "1I", "icao": "EJA"}]}]}