{"routes": [{"destination": {"icao": "KDCA", "iata": "DCA", "name": "District of Columbia Ronald Reagan Washington National", "shortName": "Ronald Reagan Washington National", "municipalityName": "District of Columbia", "location": {"lat": 38.8521, "lon": -77.0377}, "countryCode": "US"}, "averageDailyFlights": 7.0, "operators": [{"name": "American Airlines", "iata": "AA", "icao": "AAL"}, {"name": "Southwest Airlines", "iata": "WN", "icao": "SWA"}]}, {"destination": {"icao": "KMCO", "iata": "MCO", "name": "Orlando ", "shortName": "Orlando", "municipalityName": "Orlando", "location": {"lat": 28.4294, "lon": -81.309}, "countryCode": "US"}, "averageDailyFlights": 6.86, "operators": [{"name": "JetBlue Airways", "iata": "B6", "icao": "JBU"}, {"name": "Southwest Airlines", "iata": "WN", "icao": "SWA"}, {"name": "Breeze Airways", "iata": "MX", "icao": "MXY"}]}, {"destination": {"icao": "KBWI", "iata": "BWI", "name": "Baltimore Washington  Thurgood Marshall", "shortName": "Washington  Thurgood Marshall", "municipalityName": "Baltimore", "location": {"lat": 39.1754, "lon": -76.6683}, "countryCode": "US"}, "averageDailyFlights": 5.14, "operators": [{"name": "Southwest Airlines", "iata": "WN", "icao": "SWA"}, {"name": "CYC"}]}, {"destination": {"icao": "KCLT", "iata": "CLT", "name": "Charlotte Douglas", "shortName": "Douglas", "municipalityName": "Charlotte", "location": {"lat": 35.214, "lon": -80.9431}, "countryCode": "US"}, "averageDailyFlights": 3.57, "operators": [{"name": "American Airlines", "iata": "AA", "icao": "AAL"}, {"name": "NetJets Aviation", "iata": "1I", "icao": "EJA"}]}, {"destination": {"icao": "KPHL", "iata": "PHL", "name": "Philadelphia ", "shortName": "Philadelphia", "municipalityName": "Philadelphia", "location": {"lat": 39.8719, "lon": -75.2411}, "countryCode": "US"}, "averageDailyFlights": 3.57, "operators": [{"name": "American Airlines", "iata": "AA", "icao": "AAL"}, {"name": "iAero Airways", "iata": "WQ", "icao": "SWQ"}]}, {"destination": {"icao": "KATL", "iata": "ATL", "name": "Atlanta Hartsfield Jackson", "shortName": "Hartsfield Jackson", "municipalityName": "Atlanta", "location": {"lat": 33.6367, "lon": -84.4281}, "countryCode": "US"}, "averageDailyFlights": 3.29, "operators": [{"name": "Delta Air Lines", "iata": "DL", "icao": "DAL"}]}, {"destination": {"icao": "KEWR", "iata": "EWR", "name": "Newark Liberty", "shortName": "Liberty", "municipalityName": "Newark", "location": {"lat": 40.6925, "lon": -74.1687}, "countryCode": "US"}, "averageDailyFlights": 3.14, "operators": [{"name": "WIG"}, {"name": "United Airlines", "iata": "UA", "icao": "UAL"}, {"name": "MTN"}]}, {"destination": {"icao": "KIAD", "iata": "IAD", "name": "District of Columbia Washington Dulles", "shortName": "Washington Dulles", "municipalityName": "District of Columbia", "location": {"lat": 38.9445, "lon": -77.4558}, "countryCode": "US"}, "averageDailyFlights": 2.86, "operators": [{"name": "VXP"}, {"name": "United Airlines", "iata": "UA", "icao": "UAL"}, {"name": "TWY"}, {"name": "SCW"}]}, {"destination": {"icao": "KLGA", "iata": "LGA", "name": "New York La Guardia", "shortName": "La Guardia", "municipalityName": "New York", "location": {"lat": 40.7772, "lon": -73.8726}, "countryCode": "US"}, "averageDailyFlights": 2.43, "operators": [{"name": "Delta Air Lines", "iata": "DL", "icao": "DAL"}, {"name": "Tradewind Aviation", "iata": "TJ", "icao": "GPD"}]}, {"destination": {"icao": "KDTW", "iata": "DTW", "name": "Detroit Metropolitan Wayne County", "shortName": "Metropolitan Wayne County", "municipalityName": "Detroit", "location": {"lat": 42.2124, "lon": -83.3534}, "countryCode": "US"}, "averageDailyFlights": 2.29, "operators": [{"name": "Delta Air Lines", "iata": "DL", "icao": "DAL"}]}, {"destination": {"icao": "KORD", "iata": "ORD", "name": "Chicago O'Hare", "shortName": "O'Hare", "municipalityName": "Chicago", "location": {"lat": 41.9786, "lon": -87.9048}, "countryCode": "US"}, "averageDailyFlights": 2.14, "operators": [{"name": "Envoy Air", "iata": "MQ", "icao": "ENY"}, {"name": "American Airlines", "iata": "AA", "icao": "AAL"}]}, {"destination": {"icao": "KTPA", "iata": "TPA", "name": "Tampa ", "shortName": "Tampa", "municipalityName": "Tampa", "location": {"lat": 27.9755, "lon": -82.5332}, "countryCode": "US"}, "averageDailyFlights": 2.0, "operators": [{"name": "LXJ"}, {"name": "Southwest Airlines", "iata": "WN", "icao": "SWA"}, {"name": "Breeze Airways", "iata": "MX", "icao": "MXY"}]}, {"destination": {"icao": "KACK", "iata": "ACK", "name": "Nantucket Memorial", "shortName": "Memorial", "municipalityName": "Nantucket", "location": {"lat": 41.2531, "lon": -70.0602}, "countryCode": "US"}, "averageDailyFlights": 1.86, "operators": [{"name": "WIG"}, {"name": "MTN"}]}, {"destination": {"icao": "KRSW", "iata": "RSW", "name": "Fort Myers Southwest Florida", "shortName": "Southwest Florida", "municipalityName": "Fort Myers", "location": {"lat": 26.5362, "lon": -81.7552}, "countryCode": "US"}, "averageDailyFlights": 1.71, "operators": [{"name": "Breeze Airways", "iata": "MX", "icao": "MXY"}, {"name": "Southwest Airlines", "iata": "WN", "icao": "SWA"}]}, {"destination": {"icao": "KMVY", "iata": "MVY", "name": "Martha's Vineyard ", "shortName": "Martha's Vineyard", "municipalityName": "Martha's Vineyard", "location": {"lat": 41.3931, "lon": -70.6143}, "countryCode": "US"}, "averageDailyFlights": 1.71, "operators": [{"name": "WIG"}, {"name": "MTN"}]}, {"destination": {"icao": "KFLL", "iata": "FLL", "name": "Fort Lauderdale Hollywood", "shortName": "Hollywood", "municipalityName": "Fort Lauderdale", "location": {"lat": 26.0726, "lon": -80.1527}, "countryCode": "US"}, "averageDailyFlights": 1.57, "operators": [{"name": "JetBlue Airways", "iata": "B6", "icao": "JBU"}, {"name": "Southwest Airlines", "iata": "WN", "icao": "SWA"}]}, {"destination": {"icao": "KPBI", "iata": "PBI", "name": "West Palm Beach Palm Beach", "shortName": "Palm Beach", "municipalityName": "West Palm Beach", "location": {"lat": 26.6832, "lon": -80.0956}, "countryCode": "US"}, "averageDailyFlights": 1.57, "operators": [{"name": "JetBlue Airways", "iata": "B6", "icao": "JBU"}, {"name": "NetJets Aviation", "iata": "1I", "icao": "EJA"}, {"name": "LXJ"}]}, {"destination": {"icao": "KMDW", "iata": "MDW", "name": "Chicago Midway", "shortName": "Midway", "municipalityName": "Chicago", "location": {"lat": 41.786, "lon": -87.7524}, "countryCode": "US"}, "averageDailyFlights": 1.14, "operators": [{"name": "Southwest Airlines", "iata": "WN", "icao": "SWA"}]}, {"destination": {"icao": "KCHS", "iata": "CHS", "name": "Charleston Air Force Base-", "shortName": "Air Force Base-", "municipalityName": "Charleston", "location": {"lat": 32.8986, "lon": -80.0405}, "countryCode": "US"}, "averageDailyFlights": 1.0, "operators": [{"name": "Breeze Airways", "iata": "MX", "icao": "MXY"}]}, {"destination": {"icao": "KVRB", "iata": "VRB", "name": "Vero Beach Municipal", "shortName": "Municipal", "municipalityName": "Vero Beach", "location": {"lat": 27.6556, "lon": -80.4179}, "countryCode": "US"}, "averageDailyFlights": 0.86, "operators": [{"name": "Breeze Airways", "iata": "MX", "icao": "MXY"}]}, {"destination": {"icao": "KRDU", "iata": "RDU", "name": "Raleigh/Durham Raleigh Durham", "shortName": "Raleigh Durham", "municipalityName": "Raleigh/Durham", "location": {"lat": 35.8776, "lon": -78.7875}, "countryCode": "US"}, "averageDailyFlights": 0.71, "operators": [{"name": "Breeze Airways", "iata": "MX", "icao": "MXY"}, {"name": "TMB"}]}, {"destination": {"icao": "KTEB", "iata": "TEB", "name": "Teterboro ", "shortName": "Teterboro", "municipalityName": "Teterboro", "location": {"lat": 40.8501, "lon": -74.0608}, "countryCode": "US"}, "averageDailyFlights": 0.71, "operators": [{"name": "JRE"}, {"name": "Libyan Airlines", "iata": "LN", "icao": "LAA"}]}, {"destination": {"icao": "KBNA", "iata": "BNA", "name": "Nashville ", "shortName": "Nashville", "municipalityName": "Nashville", "location": {"lat": 36.1245, "lon": -86.6782}, "countryCode": "US"}, "averageDailyFlights": 0.57, "operators": [{"name": "Allegiant Air", "iata": "G4", "icao": "AAY"}, {"name": "LXJ"}]}, {"destination": {"icao": "KSRQ", "iata": "SRQ", "name": "Sarasota/Bradenton Sarasota Bradenton", "shortName": "Sarasota Bradenton", "municipalityName": "Sarasota/Bradenton", "location": {"lat": 27.3954, "lon": -82.5544}, "countryCode": "US"}, "averageDailyFlights": 0.57, "operators": [{"name": "Breeze Airways", "iata": "MX", "icao": "MXY"}]}, {"destination": {"icao": "KHPN", "iata": "HPN", "name": "White Plains Westchester County", "shortName": "Westchester County", "municipalityName": "White Plains", "location": {"lat": 41.067, "lon": -73.7076}, "countryCode": "US"}, "averageDailyFlights": 0.57, "operators": [{"name": "NetJets Aviation", "iata": "1I", "icao": "EJA"}, {"name": "Libyan Airlines", "iata": "LN", "icao": "LAA"}]}, {"destination": {"name": "Sharlot Kaunti"}, "averageDailyFlights": 0.57, "operators": [{"name": "Allegiant Air", "iata": "G4", "icao": "AAY"}]}, {"destination": {"icao": "KMHT", "iata": "MHT", "name": "Manchester ", "shortName": "Manchester", "municipalityName": "Manchester", "location": {"lat": 42.9326, "lon": -71.4357}, "countryCode": "US"}, "averageDailyFlights": 0.43, "operators": [{"name": "WIG"}, {"name": "NetJets Aviation", "iata": "1I", "icao": "EJA"}]}, {"destination": {"icao": "KMYR", "iata": "MYR", "name": "Myrtle Beach ", "shortName": "Myrtle Beach", "municipalityName": "Myrtle Beach", "location": {"lat": 33.6797, "lon": -78.9283}, "countryCode": "US"}, "averageDailyFlights": 0.43, "operators": [{"name": "Breeze Airways", "iata": "MX", "icao": "MXY"}]}, {"destination": {"icao": "KJAX", "iata": "JAX", "name": "Jacksonville ", "shortName": "Jacksonville", "municipalityName": "Jacksonville", "location": {"lat": 30.4941, "lon": -81.6879}, "countryCode": "US"}, "averageDailyFlights": 0.29, "operators": [{"name": "Breeze Airways", "iata": "MX", "icao": "MXY"}]}, {"destination": {"icao": "KORF", "iata": "ORF", "name": "Norfolk ", "shortName": "Norfolk", "municipalityName": "Norfolk", "location": {"lat": 36.8946, "lon": -76.2012}, "countryCode": "US"}, "averageDailyFlights": 0.29, "operators": [{"name": "Breeze Airways", "iata": "MX", "icao": "MXY"}]}, {"destination": {"icao": "KPIT", "iata": "PIT", "name": "Pittsburgh ", "shortName": "Pittsburgh", "municipalityName": "Pittsburgh", "location": {"lat": 40.4915, "lon": -80.2329}, "countryCode": "US"}, "averageDailyFlights": 0.29, "operators": [{"name": "Breeze Airways", "iata": "MX", "icao": "MXY"}]}, {"destination": {"icao": "MBPV", "iata": "PLS", "name": "Providenciales Island Providenciales", "shortName": "Providenciales", "municipalityName": "Providenciales Island", "location": {"lat": 21.7736, "lon": -72.2659}, "countryCode": "TC"}, "averageDailyFlights": 0.29, "operators": [{"name": "TIV"}]}, {"destination": {"icao": "KRIC", "iata": "RIC", "name": "Richmond ", "shortName": "Richmond", "municipalityName": "Richmond", "location": {"lat": 37.5052, "lon": -77.3197}, "countryCode": "US"}, "averageDailyFlights": 0.29, "operators": [{"name": "SCW"}, {"name": "FRG"}]}, {"destination": {"icao": "KSAV", "iata": "SAV", "name": "Savannah Hilton Head", "shortName": "Hilton Head", "municipalityName": "Savannah", "location": {"lat": 32.1276, "lon": -81.2021}, "countryCode": "US"}, "averageDailyFlights": 0.29, "operators": [{"name": "Breeze Airways", "iata": "MX", "icao": "MXY"}]}, {"destination": {"icao": "KPDK", "iata": "PDK", "name": "Atlanta DeKalb Peachtree", "shortName": "DeKalb Peachtree", "municipalityName": "Atlanta", "location": {"lat": 33.8756, "lon": -84.302}, "countryCode": "US"}, "averageDailyFlights": 0.14, "operators": [{"name": "DRL"}]}, {"destination": {"icao": "KBVY", "iata": "BVY", "name": "Beverly Municipal", "shortName": "Municipal", "municipalityName": "Beverly", "location": {"lat": 42.5842, "lon": -70.9165}, "countryCode": "US"}, "averageDailyFlights": 0.14, "operators": [{"name": "NetJets Aviation", "iata": "1I", "icao": "EJA"}]}, {"destination": {"icao": "KBDR", "iata": "BDR", "name": "Bridgeport Igor I Sikorsky Memorial", "shortName": "Igor I Sikorsky Memorial", "municipalityName": "Bridgeport", "location": {"lat": 41.1635, "lon": -73.1262}, "countryCode": "US"}, "averageDailyFlights": 0.14, "operators": [{"name": "LXJ"}]}, {"destination": {"icao": "KCPS", "iata": "CPS", "name": "Cahokia/St Louis St Louis Downtown", "shortName": "St Louis Downtown", "municipalityName": "Cahokia/St Louis", "location": {"lat": 38.5707, "lon": -90.1562}, "countryCode": "US"}, "averageDailyFlights": 0.14, "operators": [{"name": "Contour Aviation", "iata": "LF", "icao": "VTE"}]}, {"destination": {"icao": "KCHO", "iata": "CHO", "name": "Charlottesville Albemarle", "shortName": "Albemarle", "municipalityName": "Charlottesville", "location": {"lat": 38.1386, "lon": -78.4529}, "countryCode": "US"}, "averageDailyFlights": 0.14, "operators": [{"name": "NetJets Aviation", "iata": "1I", "icao": "EJA"}]}, {"destination": {"icao": "KCMH", "iata": "CMH", "name": "Columbus Port", "shortName": "Port", "municipalityName": "Columbus", "location": {"lat": 39.998, "lon": -82.8919}, "countryCode": "US"}, "averageDailyFlights": 0.14, "operators": [{"name": "CNS"}]}, {"destination": {"icao": "KEGE", "iata": "EGE", "name": "Eagle County Regional", "shortName": "County Regional", "municipalityName": "Eagle", "location": {"lat": 39.6426, "lon": -106.918}, "countryCode": "US"}, "averageDailyFlights": 0.14, "operators": [{"name": "XOJ"}]}, {"destination": {"icao": "KGRR", "iata": "GRR", "name": "Grand Rapids Gerald R. Ford", "shortName": "Gerald R. Ford", "municipalityName": "Grand Rapids", "location": {"lat": 42.8808, "lon": -85.5228}, "countryCode": "US"}, "averageDailyFlights": 0.14, "operators": [{"name": "NetJets Aviation", "iata": "1I", "icao": "EJA"}]}, {"destination": {"icao": "KGON", "iata": "GON", "name": "Groton (New London) Groton New London", "shortName": "Groton New London", "municipalityName": "Groton (New London)", "location": {"lat": 41.3301, "lon": -72.0451}, "countryCode": "US"}, "averageDailyFlights": 0.14, "operators": [{"name": "NetJets Aviation", "iata": "1I", "icao": "EJA"}]}, {"destination": {"icao": "KBDL", "iata": "BDL", "name": "Hartford Bradley", "shortName": "Bradley", "municipalityName": "Hartford", "location": {"lat": 41.9389, "lon": -72.6832}, "countryCode": "US"}, "averageDailyFlights": 0.14, "operators": [{"name": "Breeze Airways", "iata": "MX", "icao": "MXY"}]}, {"destination": {"icao": "KIND", "iata": "IND", "name": "Indianapolis ", "shortName": "Indianapolis", "municipalityName": "Indianapolis", "location": {"lat": 39.7173, "lon": -86.2944}, "countryCode": "US"}, "averageDailyFlights": 0.14, "operators": [{"name": "NetJets Aviation", "iata": "1I", "icao": "EJA"}]}, {"destination": {"icao": "KISP", "iata": "ISP", "name": "Islip Long Island Mac Arthur", "shortName": "Long Island Mac Arthur", "municipalityName": "Islip", "location": {"lat": 40.7952, "lon": -73.1002}, "countryCode": "US"}, "averageDailyFlights": 0.14, "operators": [{"name": "NetJets Aviation", "iata": "1I", "icao": "EJA"}]}, {"destination": {"icao": "KMKC", "iata": "MKC", "name": "Kansas City Charles B. Wheeler Downtown", "shortName": "Charles B. Wheeler Downtown", "municipalityName": "Kansas City", "location": {"lat": 39.1232, "lon": -94.5928}, "countryCode": "US"}, "averageDailyFlights": 0.14, "operators": [{"name": "NetJets Aviation", "iata": "1I", "icao": "EJA"}]}, {"destination": {"icao": "07FA", "iata": "OCA", "name": "Key Largo Ocean Reef Club", "shortName": "Ocean Reef Club", "municipalityName": "Key Largo", "location": {"lat": 25.3254, "lon": -80.2748}, "countryCode": "US"}, "averageDailyFlights": 0.14, "operators": [{"name": "LXJ"}]}, {"destination": {"icao": "KAPF", "iata": "APF", "name": "Naples Municipal", "shortName": "Municipal", "municipalityName": "Naples", "location": {"lat": 26.1526, "lon": -81.7753}, "countryCode": "US"}, "averageDailyFlights": 0.14, "operators": [{"name": "KPO"}]}, {"destination": {"icao": "KHVN", "iata": "HVN", "name": "New Haven Tweed", "shortName": "Tweed", "municipalityName": "New Haven", "location": {"lat": 41.2637, "lon": -72.8868}, "countryCode": "US"}, "averageDailyFlights": 0.14, "operators": [{"name": "VXP"}]}, {"destination": {"icao": "KJFK", "iata": "JFK", "name": "New York John F Kennedy", "shortName": "John F Kennedy", "municipalityName": "New York", "location": {"lat": 40.6398, "lon": -73.7789}, "countryCode": "US"}, "averageDailyFlights": 0.14, "operators": [{"name": "LXJ"}]}, {"destination": {"icao": "KPHF", "iata": "PHF", "name": "Newport News Williamsburg", "shortName": "Williamsburg", "municipalityName": "Newport News", "location": {"lat": 37.1319, "lon": -76.493}, "countryCode": "US"}, "averageDailyFlights": 0.14, "operators": [{"name": "CNS"}]}, {"destination": {"icao": "KLOM", "iata": "BBX", "name": "Philadelphia Wings Field", "shortName": "Wings Field", "municipalityName": "Philadelphia", "location": {"lat": 40.1375, "lon": -75.2651}, "countryCode": "US"}, "averageDailyFlights": 0.14, "operators": [{"name": "CNS"}]}, {"destination": {"icao": "KPSM", "iata": "PSM", "name": "Portsmouth at Pease", "shortName": "at Pease", "municipalityName": "Portsmouth", "location": {"lat": 43.0779, "lon": -70.8233}, "countryCode": "US"}, "averageDailyFlights": 0.14, "operators": [{"name": "NetJets Aviation", "iata": "1I", "icao": "EJA"}]}, {"destination": {"icao": "KPVC", "iata": "PVC", "name": "Provincetown Municipal", "shortName": "Municipal", "municipalityName": "Provincetown", "location": {"lat": 42.0719, "lon": -70.2214}, "countryCode": "US"}, "averageDailyFlights": 0.14, "operators": [{"name": "CNS"}]}, {"destination": {"icao": "KSUA", "iata": "SUA", "name": "Stuart Witham Field", "shortName": "Witham Field", "municipalityName": "Stuart", "location": {"lat": 27.1817, "lon": -80.2211}, "countryCode": "US"}, "averageDailyFlights": 0.14, "operators": [{"name": "NetJets Aviation", "iata": "1I", "icao": "EJA"}]}, {"destination": {"icao": "KSYR", "iata": "SYR", "name": "Syracuse Hancock", "shortName": "Hancock", "municipalityName": "Syracuse", "location": {"lat": 43.1112, "lon": -76.1063}, "countryCode": "US"}, "averageDailyFlights": 0.14, "operators": [{"name": "CNS"}]}, {"destination": {"icao": "KINT", "iata": "INT", "name": "Winston-Salem Smith Reynolds", "shortName": "Smith Reynolds", "municipalityName": "Winston-Salem", "location": {"lat": 36.1337, "lon": -80.222}, "countryCode": "US"}, "averageDailyFlights": 0.14, "operators": [{"name": "Breeze Airways", "iata": "MX", "icao": "MXY"}]}]}