{"routes": [{"destination": {"icao": "OMDB", "iata": "DXB", "name": "Dubai ", "shortName": "Dubai", "municipalityName": "Dubai", "location": {"lat": 25.252798, "lon": 55.3644}, "countryCode": "AE"}, "averageDailyFlights": 7.13, "operators": [{"name": "Israir Airlines", "iata": "6H", "icao": "ISR"}, {"name": "flydubai", "iata": "FZ", "icao": "FDB"}, {"name": "El Al", "iata": "LY", "icao": "ELY"}, {"name": "Arkia Israeli Airlines", "iata": "IZ", "icao": "AIZ"}, {"name": "Emirates", "iata": "EK", "icao": "UAE"}]}, {"destination": {"icao": "LCLK", "iata": "LCA", "name": "Larnarca Larnaca", "shortName": "Larnaca", "municipalityName": "Larnarca", "location": {"lat": 34.8751, "lon": 33.6249}, "countryCode": "CY"}, "averageDailyFlights": 4.86, "operators": [{"name": "El Al", "iata": "LY", "icao": "ELY"}, {"name": "Arkia Israeli Airlines", "iata": "IZ", "icao": "AIZ"}, {"name": "Tus Airways", "iata": "U8", "icao": "CYF"}, {"name": "Cyprus Airways", "iata": "CY"}, {"name": "CYP"}, {"name": "Israir Airlines", "iata": "6H", "icao": "ISR"}, {"name": "Blue Dart Aviation Ltd."}]}, {"destination": {"icao": "LFPG", "iata": "CDG", "name": "Paris Charles de Gaulle", "shortName": "Charles de Gaulle", "municipalityName": "Paris", "location": {"lat": 49.0128, "lon": 2.549999}, "countryCode": "FR"}, "averageDailyFlights": 4.71, "operators": [{"name": "El Al", "iata": "LY", "icao": "ELY"}, {"name": "Air France", "iata": "AF", "icao": "AFR"}, {"name": "ASL Airlines France", "iata": "5O", "icao": "FPO"}]}, {"destination": {"icao": "LGAV", "iata": "ATH", "name": "Athens Eleftherios Venizelos", "shortName": "Eleftherios Venizelos", "municipalityName": "Athens", "location": {"lat": 37.9364, "lon": 23.944498}, "countryCode": "GR"}, "averageDailyFlights": 4.59, "operators": [{"name": "Blue Bird Airways", "iata": "BZ", "icao": "BBG"}, {"name": "Israir Airlines", "iata": "6H", "icao": "ISR"}, {"name": "Aegean Airlines", "iata": "A3", "icao": "AEE"}, {"name": "Arkia Israeli Airlines", "iata": "IZ", "icao": "AIZ"}, {"name": "Blue Dart Aviation", "iata": "BZ", "icao": "BDA"}, {"name": "El Al", "iata": "LY", "icao": "ELY"}]}, {"destination": {"icao": "LKPR", "iata": "PRG", "name": "Prague Ruzyn\u011b", "shortName": "Ruzyn\u011b", "municipalityName": "Prague", "location": {"lat": 50.1008, "lon": 14.26}, "countryCode": "CZ"}, "averageDailyFlights": 3.58, "operators": [{"name": "SmartWings", "iata": "QS", "icao": "TVS"}, {"name": "El Al", "iata": "LY", "icao": "ELY"}, {"name": "Arkia Israeli Airlines", "iata": "IZ", "icao": "AIZ"}, {"name": "Israir Airlines", "iata": "6H", "icao": "ISR"}, {"name": "Blue Dart Aviation Ltd."}]}, {"destination": {"icao": "LROP", "iata": "OTP", "name": "Bucharest Henri Coand\u0103", "shortName": "Henri Coand\u0103", "municipalityName": "Bucharest", "location": {"lat": 44.5722, "lon": 26.1022}, "countryCode": "RO"}, "averageDailyFlights": 3.31, "operators": [{"name": "Arkia Israeli Airlines", "iata": "IZ", "icao": "AIZ"}, {"name": "El Al", "iata": "LY", "icao": "ELY"}, {"name": "Wizz Air Malta", "iata": "W4", "icao": "WMT"}, {"name": "TAROM", "iata": "RO", "icao": "ROT"}, {"name": "HiSky", "iata": "H4", "icao": "HYS"}, {"name": "Israir Airlines", "iata": "6H", "icao": "ISR"}]}, {"destination": {"icao": "LHBP", "iata": "BUD", "name": "Budapest Ferenc Liszt", "shortName": "Ferenc Liszt", "municipalityName": "Budapest", "location": {"lat": 47.4369, "lon": 19.255598}, "countryCode": "HU"}, "averageDailyFlights": 3.09, "operators": [{"name": "El Al", "iata": "LY", "icao": "ELY"}, {"name": "Israir Airlines", "iata": "6H", "icao": "ISR"}, {"name": "Wizz Air", "iata": "W6", "icao": "WZZ"}, {"name": "Blue Dart Aviation", "iata": "BZ", "icao": "BDA"}]}, {"destination": {"icao": "LIRF", "iata": "FCO", "name": "Rome Leonardo da Vinci\u2013Fiumicino", "shortName": "Leonardo da Vinci\u2013Fiumicino", "municipalityName": "Rome", "location": {"lat": 41.8045, "lon": 12.2508}, "countryCode": "IT"}, "averageDailyFlights": 2.86, "operators": [{"name": "El Al", "iata": "LY", "icao": "ELY"}, {"name": "ITA Airways", "iata": "AZ", "icao": "ITY"}, {"name": "Wizz Air Malta", "iata": "W4", "icao": "WMT"}, {"name": "Blue Dart Aviation", "iata": "BZ", "icao": "BDA"}]}, {"destination": {"icao": "LOWW", "iata": "VIE", "name": "Vienna Schwechat", "shortName": "Schwechat", "municipalityName": "Vienna", "location": {"lat": 48.1103, "lon": 16.5697}, "countryCode": "AT"}, "averageDailyFlights": 2.8, "operators": [{"name": "Austrian", "iata": "OS", "icao": "AUA"}, {"name": "El Al", "iata": "LY", "icao": "ELY"}, {"name": "Ryanair", "iata": "FR", "icao": "RYR"}]}, {"destination": {"icao": "KJFK", "iata": "JFK", "name": "New York John F Kennedy", "shortName": "John F Kennedy", "municipalityName": "New York", "location": {"lat": 40.6398, "lon": -73.7789}, "countryCode": "US"}, "averageDailyFlights": 2.73, "operators": [{"name": "El Al", "iata": "LY", "icao": "ELY"}, {"name": "United Airlines", "iata": "UA", "icao": "UAL"}]}, {"destination": {"icao": "UGTB", "iata": "TBS", "name": "Tbilisi ", "shortName": "Tbilisi", "municipalityName": "Tbilisi", "location": {"lat": 41.6692, "lon": 44.9547}, "countryCode": "GE"}, "averageDailyFlights": 2.73, "operators": [{"name": "El Al", "iata": "LY", "icao": "ELY"}, {"name": "Israir Airlines", "iata": "6H", "icao": "ISR"}, {"name": "Arkia Israeli Airlines", "iata": "IZ", "icao": "AIZ"}, {"name": "Myway Airlines", "iata": "MJ", "icao": "MYW"}]}, {"destination": {"icao": "LIMC", "iata": "MXP", "name": "Milan Malpensa", "shortName": "Malpensa", "municipalityName": "Milan", "location": {"lat": 45.6306, "lon": 8.72811}, "countryCode": "IT"}, "averageDailyFlights": 2.43, "operators": [{"name": "El Al", "iata": "LY", "icao": "ELY"}, {"name": "Arkia Israeli Airlines", "iata": "IZ", "icao": "AIZ"}]}, {"destination": {"icao": "EHAM", "iata": "AMS", "name": "Amsterdam Schiphol", "shortName": "Schiphol", "municipalityName": "Amsterdam", "location": {"lat": 52.3086, "lon": 4.763889}, "countryCode": "NL"}, "averageDailyFlights": 2.29, "operators": [{"name": "El Al", "iata": "LY", "icao": "ELY"}, {"name": "Arkia Israeli Airlines", "iata": "IZ", "icao": "AIZ"}]}, {"destination": {"icao": "LEMD", "iata": "MAD", "name": "Madrid Adolfo Su\u00e1rez \u2013Barajas", "shortName": "Adolfo Su\u00e1rez \u2013Barajas", "municipalityName": "Madrid", "location": {"lat": 40.4936, "lon": -3.56676}, "countryCode": "ES"}, "averageDailyFlights": 2.29, "operators": [{"name": "El Al", "iata": "LY", "icao": "ELY"}, {"name": "Air Europa", "iata": "UX", "icao": "AEA"}]}, {"destination": {"icao": "EPWA", "iata": "WAW", "name": "Warsaw Chopin", "shortName": "Chopin", "municipalityName": "Warsaw", "location": {"lat": 52.1657, "lon": 20.9671}, "countryCode": "PL"}, "averageDailyFlights": 2.29, "operators": [{"name": "El Al", "iata": "LY", "icao": "ELY"}, {"name": "LOT - Polish Airlines", "iata": "LO", "icao": "LOT"}]}, {"destination": {"icao": "LEBL", "iata": "BCN", "name": "Barcelona ", "shortName": "Barcelona", "municipalityName": "Barcelona", "location": {"lat": 41.2971, "lon": 2.078459}, "countryCode": "ES"}, "averageDailyFlights": 2.19, "operators": [{"name": "El Al", "iata": "LY", "icao": "ELY"}, {"name": "Israir Airlines", "iata": "6H", "icao": "ISR"}, {"name": "Blue Dart Aviation", "iata": "BZ", "icao": "BDA"}]}, {"destination": {"icao": "HAAB", "iata": "ADD", "name": "Addis Ababa Bole", "shortName": "Bole", "municipalityName": "Addis Ababa", "location": {"lat": 8.97789, "lon": 38.7993}, "countryCode": "ET"}, "averageDailyFlights": 2.14, "operators": [{"name": "Ethiopian Airlines", "iata": "ET", "icao": "ETH"}]}, {"destination": {"icao": "UGSB", "iata": "BUS", "name": "Batumi ", "shortName": "Batumi", "municipalityName": "Batumi", "location": {"lat": 41.6103, "lon": 41.5997}, "countryCode": "GE"}, "averageDailyFlights": 2.14, "operators": [{"name": "Israir Airlines", "iata": "6H", "icao": "ISR"}, {"name": "Arkia Israeli Airlines", "iata": "IZ", "icao": "AIZ"}]}, {"destination": {"icao": "KEWR", "iata": "EWR", "name": "Newark Liberty", "shortName": "Liberty", "municipalityName": "Newark", "location": {"lat": 40.6925, "lon": -74.1687}, "countryCode": "US"}, "averageDailyFlights": 2.14, "operators": [{"name": "El Al", "iata": "LY", "icao": "ELY"}, {"name": "United Airlines", "iata": "UA", "icao": "UAL"}]}, {"destination": {"icao": "LBSF", "iata": "SOF", "name": "Sofia ", "shortName": "Sofia", "municipalityName": "Sofia", "location": {"lat": 42.696693, "lon": 23.411436}, "countryCode": "BG"}, "averageDailyFlights": 2.14, "operators": [{"name": "Israir Airlines", "iata": "6H", "icao": "ISR"}, {"name": "El Al", "iata": "LY", "icao": "ELY"}, {"name": "Wizz Air", "iata": "W6", "icao": "WZZ"}]}, {"destination": {"icao": "URSS", "iata": "AER", "localCode": "\u0421\u041e\u0427", "name": "Sochi ", "shortName": "Sochi", "municipalityName": "Sochi", "location": {"lat": 43.4499, "lon": 39.9566}, "countryCode": "RU"}, "averageDailyFlights": 2.0, "operators": [{"name": "Azimuth Airlines", "iata": "A4", "icao": "AZO"}, {"name": "Red Wings", "iata": "WZ", "icao": "RWZ"}]}, {"destination": {"name": "Moscow"}, "averageDailyFlights": 2.0, "operators": [{"name": "El Al", "iata": "LY", "icao": "ELY"}, {"name": "Red Wings", "iata": "WZ", "icao": "RWZ"}]}, {"destination": {"icao": "EDDB", "iata": "BER", "name": "Berlin Brandenburg", "shortName": "Brandenburg", "municipalityName": "Berlin", "location": {"lat": 52.35139, "lon": 13.493889}, "countryCode": "DE"}, "averageDailyFlights": 1.57, "operators": [{"name": "El Al", "iata": "LY", "icao": "ELY"}, {"name": "Arkia Israeli Airlines", "iata": "IZ", "icao": "AIZ"}]}, {"destination": {"icao": "EDDM", "iata": "MUC", "name": "Munich ", "shortName": "Munich", "municipalityName": "Munich", "location": {"lat": 48.3538, "lon": 11.7861}, "countryCode": "DE"}, "averageDailyFlights": 1.57, "operators": [{"name": "Lufthansa", "iata": "LH", "icao": "DLH"}, {"name": "El Al", "iata": "LY", "icao": "ELY"}, {"name": "Israir Airlines", "iata": "6H", "icao": "ISR"}]}, {"destination": {"name": "Kishinyov"}, "averageDailyFlights": 1.43, "operators": [{"name": "FlyOne", "iata": "5F", "icao": "FIA"}, {"name": "Israir Airlines", "iata": "6H", "icao": "ISR"}, {"name": "El Al", "iata": "LY", "icao": "ELY"}]}, {"destination": {"icao": "EDDF", "iata": "FRA", "name": "Frankfurt-am-Main ", "shortName": "Frankfurt-am-Main", "municipalityName": "Frankfurt-am-Main", "location": {"lat": 50.0264, "lon": 8.543129}, "countryCode": "DE"}, "averageDailyFlights": 1.16, "operators": [{"name": "Lufthansa", "iata": "LH", "icao": "DLH"}, {"name": "GEC"}, {"name": "El Al", "iata": "LY", "icao": "ELY"}]}, {"destination": {"icao": "LSZH", "iata": "ZRH", "name": "Zurich Kloten", "shortName": "Kloten", "municipalityName": "Zurich", "location": {"lat": 47.4647, "lon": 8.549169}, "countryCode": "CH"}, "averageDailyFlights": 1.16, "operators": [{"name": "SWISS", "iata": "LX", "icao": "SWR"}, {"name": "VJT"}, {"name": "El Al", "iata": "LY", "icao": "ELY"}]}, {"destination": {"icao": "LSGG", "iata": "GVA", "name": "Geneva Cointrin", "shortName": "Cointrin", "municipalityName": "Geneva", "location": {"lat": 46.2381, "lon": 6.10895}, "countryCode": "CH"}, "averageDailyFlights": 1.0, "operators": [{"name": "El Al", "iata": "LY", "icao": "ELY"}]}, {"destination": {"icao": "EPKK", "iata": "KRK", "name": "Krak\u00f3w John Paul II   -Balice", "shortName": "John Paul II   -Balice", "municipalityName": "Krak\u00f3w", "location": {"lat": 50.0777, "lon": 19.7848}, "countryCode": "PL"}, "averageDailyFlights": 0.86, "operators": [{"name": "Arkia Israeli Airlines", "iata": "IZ", "icao": "AIZ"}, {"name": "El Al", "iata": "LY", "icao": "ELY"}, {"name": "Wizz Air", "iata": "W6", "icao": "WZZ"}]}, {"destination": {"icao": "LPPT", "iata": "LIS", "name": "Lisbon Portela", "shortName": "Portela", "municipalityName": "Lisbon", "location": {"lat": 38.7813, "lon": -9.135919}, "countryCode": "PT"}, "averageDailyFlights": 0.86, "operators": [{"name": "El Al", "iata": "LY", "icao": "ELY"}]}, {"destination": {"icao": "EGGW", "iata": "LTN", "name": "London Luton", "shortName": "Luton", "municipalityName": "London", "location": {"lat": 51.8747, "lon": -0.368333}, "countryCode": "GB"}, "averageDailyFlights": 0.86, "operators": [{"name": "El Al", "iata": "LY", "icao": "ELY"}, {"name": "Wizz Air UK", "iata": "W9", "icao": "WUK"}]}, {"destination": {"icao": "OMAA", "iata": "AUH", "name": "Abu Dhabi Island and Internal Islands City Abu Dhabi", "shortName": "Abu Dhabi", "municipalityName": "Abu Dhabi Island and Internal Islands City", "location": {"lat": 24.433, "lon": 54.6511}, "countryCode": "AE"}, "averageDailyFlights": 0.76, "operators": [{"name": "Etihad Airways", "iata": "EY", "icao": "ETD"}, {"name": "Wizz Air Abu Dhabi", "iata": "5W", "icao": "WAZ"}]}, {"destination": {"icao": "KLAX", "iata": "LAX", "name": "Los Angeles ", "shortName": "Los Angeles", "municipalityName": "Los Angeles", "location": {"lat": 33.9425, "lon": -118.408}, "countryCode": "US"}, "averageDailyFlights": 0.71, "operators": [{"name": "El Al", "iata": "LY", "icao": "ELY"}]}, {"destination": {"icao": "KMIA", "iata": "MIA", "name": "Miami ", "shortName": "Miami", "municipalityName": "Miami", "location": {"lat": 25.7932, "lon": -80.2906}, "countryCode": "US"}, "averageDailyFlights": 0.71, "operators": [{"name": "El Al", "iata": "LY", "icao": "ELY"}]}, {"destination": {"icao": "UBBB", "iata": "GYD", "localCode": "\u0411\u0410\u041a", "name": "Baku Heydar Aliyev", "shortName": "Heydar Aliyev", "municipalityName": "Baku", "location": {"lat": 40.4675, "lon": 50.0467}, "countryCode": "AZ"}, "averageDailyFlights": 0.57, "operators": [{"name": "AZAL Azerbaijan Airlines", "iata": "J2", "icao": "AHY"}, {"name": "Silk Way West", "iata": "7L", "icao": "AZG"}]}, {"destination": {"icao": "KBOS", "iata": "BOS", "name": "Boston General Edward Lawrence Logan", "shortName": "General Edward Lawrence Logan", "municipalityName": "Boston", "location": {"lat": 42.3643, "lon": -71.0052}, "countryCode": "US"}, "averageDailyFlights": 0.57, "operators": [{"name": "El Al", "iata": "LY", "icao": "ELY"}]}, {"destination": {"icao": "HECA", "iata": "CAI", "name": "Cairo ", "shortName": "Cairo", "municipalityName": "Cairo", "location": {"lat": 30.1219, "lon": 31.4056}, "countryCode": "EG"}, "averageDailyFlights": 0.57, "operators": [{"name": "EgyptAir", "iata": "MS", "icao": "MSR"}]}, {"destination": {"icao": "LFLS", "iata": "GNB", "name": "Grenoble/Saint-Geoirs Grenoble-Is\u00e8re", "shortName": "Grenoble-Is\u00e8re", "municipalityName": "Grenoble/Saint-Geoirs", "location": {"lat": 45.3629, "lon": 5.32937}, "countryCode": "FR"}, "averageDailyFlights": 0.57, "operators": [{"name": "Israir Airlines", "iata": "6H", "icao": "ISR"}, {"name": "Red Wings", "iata": "WZ", "icao": "RWZ"}]}, {"destination": {"icao": "LFPO", "iata": "ORY", "name": "Paris -Orly", "shortName": "-Orly", "municipalityName": "Paris", "location": {"lat": 48.7253, "lon": 2.35944}, "countryCode": "FR"}, "averageDailyFlights": 0.57, "operators": [{"name": "Transavia France", "iata": "TO", "icao": "TVF"}]}, {"destination": {"name": "Bangkok"}, "averageDailyFlights": 0.57, "operators": [{"name": "El Al", "iata": "LY", "icao": "ELY"}]}, {"destination": {"icao": "LYBE", "iata": "BEG", "name": "Belgrade Nikola Tesla", "shortName": "Nikola Tesla", "municipalityName": "Belgrade", "location": {"lat": 44.8184, "lon": 20.3091}, "countryCode": "RS"}, "averageDailyFlights": 0.43, "operators": [{"name": "Arkia Israeli Airlines", "iata": "IZ", "icao": "AIZ"}]}, {"destination": {"icao": "LIME", "iata": "BGY", "name": "Bergamo Orio al Serio", "shortName": "Orio al Serio", "municipalityName": "Bergamo", "location": {"lat": 45.6739, "lon": 9.70417}, "countryCode": "IT"}, "averageDailyFlights": 0.43, "operators": [{"name": "Ryanair", "iata": "FR", "icao": "RYR"}]}, {"destination": {"icao": "VIDP", "iata": "DEL", "name": "New Delhi Indira Gandhi", "shortName": "Indira Gandhi", "municipalityName": "New Delhi", "location": {"lat": 28.5665, "lon": 77.1031}, "countryCode": "IN"}, "averageDailyFlights": 0.43, "operators": [{"name": "Air India", "iata": "AI", "icao": "AIC"}]}, {"destination": {"icao": "VTSP", "iata": "HKT", "name": "Phuket ", "shortName": "Phuket", "municipalityName": "Phuket", "location": {"lat": 8.1132, "lon": 98.3169}, "countryCode": "TH"}, "averageDailyFlights": 0.43, "operators": [{"name": "El Al", "iata": "LY", "icao": "ELY"}]}, {"destination": {"icao": "UTTT", "iata": "TAS", "localCode": "\u0422\u0410\u0421", "name": "Tashkent ", "shortName": "Tashkent", "municipalityName": "Tashkent", "location": {"lat": 41.2579, "lon": 69.2812}, "countryCode": "UZ"}, "averageDailyFlights": 0.43, "operators": [{"name": "Uzbekistan Airways", "iata": "HY", "icao": "UZB"}]}, {"destination": {"icao": "LBWN", "iata": "VAR", "name": "Varna ", "shortName": "Varna", "municipalityName": "Varna", "location": {"lat": 43.2321, "lon": 27.8251}, "countryCode": "BG"}, "averageDailyFlights": 0.43, "operators": [{"name": "Israir Airlines", "iata": "6H", "icao": "ISR"}]}, {"destination": {"icao": "EDSB", "iata": "FKB", "name": "Baden-Baden Karlsruhe", "shortName": "Karlsruhe", "municipalityName": "Baden-Baden", "location": {"lat": 48.7794, "lon": 8.080499}, "countryCode": "DE"}, "averageDailyFlights": 0.29, "operators": [{"name": "Ryanair", "iata": "FR", "icao": "RYR"}]}, {"destination": {"icao": "LRCL", "iata": "CLJ", "name": "Cluj-Napoca ", "shortName": "Cluj-Napoca", "municipalityName": "Cluj-Napoca", "location": {"lat": 46.7852, "lon": 23.6862}, "countryCode": "RO"}, "averageDailyFlights": 0.29, "operators": [{"name": "HiSky", "iata": "H4", "icao": "HYS"}]}, {"destination": {"icao": "EDDP", "iata": "LEJ", "name": "Leipzig Halle", "shortName": "Halle", "municipalityName": "Leipzig", "location": {"lat": 51.4324, "lon": 12.2416}, "countryCode": "DE"}, "averageDailyFlights": 0.29, "operators": [{"name": "EAT Leipzig", "iata": "QY", "icao": "BCS"}]}, {"destination": {"icao": "EBLG", "iata": "LGG", "name": "Li\u00e8ge ", "shortName": "Li\u00e8ge", "municipalityName": "Li\u00e8ge", "location": {"lat": 50.6374, "lon": 5.44322}, "countryCode": "BE"}, "averageDailyFlights": 0.29, "operators": [{"name": "ASL Airlines Belgium", "iata": "3V", "icao": "TAY"}]}, {"destination": {"icao": "EDJA", "iata": "FMM", "name": "Memmingen Allgau", "shortName": "Allgau", "municipalityName": "Memmingen", "location": {"lat": 47.9888, "lon": 10.2395}, "countryCode": "DE"}, "averageDailyFlights": 0.29, "operators": [{"name": "Ryanair", "iata": "FR", "icao": "RYR"}]}, {"destination": {"icao": "LGRP", "iata": "RHO", "name": "Rodes Island Diagoras", "shortName": "Diagoras", "municipalityName": "Rodes Island", "location": {"lat": 36.4054, "lon": 28.0862}, "countryCode": "GR"}, "averageDailyFlights": 0.29, "operators": [{"name": "Israir Airlines", "iata": "6H", "icao": "ISR"}]}, {"destination": {"icao": "ZGSZ", "iata": "SZX", "name": "Shenzhen Bao'an", "shortName": "Bao'an", "municipalityName": "Shenzhen", "location": {"lat": 22.6393, "lon": 113.811}, "countryCode": "CN"}, "averageDailyFlights": 0.29, "operators": [{"name": "Hainan Airlines", "iata": "HU", "icao": "CHH"}]}, {"destination": {"icao": "LGTS", "iata": "SKG", "name": "Thessaloniki Macedonia", "shortName": "Macedonia", "municipalityName": "Thessaloniki", "location": {"lat": 40.5197, "lon": 22.9709}, "countryCode": "GR"}, "averageDailyFlights": 0.29, "operators": [{"name": "Arkia Israeli Airlines", "iata": "IZ", "icao": "AIZ"}]}, {"destination": {"icao": "GMMN", "iata": "CMN", "name": "Casablanca Mohammed V", "shortName": "Mohammed V", "municipalityName": "Casablanca", "location": {"lat": 33.3675, "lon": -7.58997}, "countryCode": "MA"}, "averageDailyFlights": 0.14, "operators": [{"name": "Royal Air Maroc", "iata": "AT", "icao": "RAM"}]}, {"destination": {"icao": "LLET", "iata": "ETH", "name": "Eilat ", "shortName": "Eilat", "municipalityName": "Eilat", "location": {"lat": 29.5613, "lon": 34.9601}, "countryCode": "IL"}, "averageDailyFlights": 0.14, "operators": [{"name": "Israir Airlines", "iata": "6H", "icao": "ISR"}]}, {"destination": {"icao": "LOWI", "iata": "INN", "name": "Innsbruck ", "shortName": "Innsbruck", "municipalityName": "Innsbruck", "location": {"lat": 47.2602, "lon": 11.343999}, "countryCode": "AT"}, "averageDailyFlights": 0.14, "operators": [{"name": "Israir Airlines", "iata": "6H", "icao": "ISR"}]}, {"destination": {"icao": "FAOR", "iata": "JNB", "name": "Jo'anna OR Tambo", "shortName": "OR Tambo", "municipalityName": "Jo'anna", "location": {"lat": -26.1392, "lon": 28.246}, "countryCode": "ZA"}, "averageDailyFlights": 0.14, "operators": [{"name": "El Al", "iata": "LY", "icao": "ELY"}]}, {"destination": {"icao": "LFLL", "iata": "LYS", "name": "Lyon Saint-Exup\u00e9ry", "shortName": "Saint-Exup\u00e9ry", "municipalityName": "Lyon", "location": {"lat": 45.7264, "lon": 5.090829}, "countryCode": "FR"}, "averageDailyFlights": 0.14, "operators": [{"name": "Israir Airlines", "iata": "6H", "icao": "ISR"}]}, {"destination": {"icao": "FSIA", "iata": "SEZ", "name": "Mahe Island Seychelles", "shortName": "Seychelles", "municipalityName": "Mahe Island", "location": {"lat": -4.674339, "lon": 55.5218}, "countryCode": "SC"}, "averageDailyFlights": 0.14, "operators": [{"name": "Arkia Israeli Airlines", "iata": "IZ", "icao": "AIZ"}]}, {"destination": {"icao": "LFML", "iata": "MRS", "name": "Marseille Provence", "shortName": "Provence", "municipalityName": "Marseille", "location": {"lat": 43.43927, "lon": 5.221424}, "countryCode": "FR"}, "averageDailyFlights": 0.14, "operators": [{"name": "Ryanair", "iata": "FR", "icao": "RYR"}]}, {"destination": {"icao": "EFRO", "iata": "RVN", "name": "Rovaniemi ", "shortName": "Rovaniemi", "municipalityName": "Rovaniemi", "location": {"lat": 66.5648, "lon": 25.8304}, "countryCode": "FI"}, "averageDailyFlights": 0.14, "operators": [{"name": "Israir Airlines", "iata": "6H", "icao": "ISR"}]}, {"destination": {"icao": "EPRZ", "iata": "RZE", "name": "Rzesz\u00f3w -Jasionka", "shortName": "-Jasionka", "municipalityName": "Rzesz\u00f3w", "location": {"lat": 50.11, "lon": 22.019}, "countryCode": "PL"}, "averageDailyFlights": 0.14, "operators": [{"name": "Israir Airlines", "iata": "6H", "icao": "ISR"}]}, {"destination": {"icao": "LRTR", "iata": "TSR", "name": "Timi\u015foara Traian Vuia", "shortName": "Traian Vuia", "municipalityName": "Timi\u015foara", "location": {"lat": 45.8099, "lon": 21.3379}, "countryCode": "RO"}, "averageDailyFlights": 0.14, "operators": [{"name": "HiSky", "iata": "H4", "icao": "HYS"}]}, {"destination": {"icao": "RJAA", "iata": "NRT", "name": "Tokyo Narita", "shortName": "Narita", "municipalityName": "Tokyo", "location": {"lat": 35.7647, "lon": 140.386}, "countryCode": "JP"}, "averageDailyFlights": 0.14, "operators": [{"name": "El Al", "iata": "LY", "icao": "ELY"}]}, {"destination": {"icao": "LIPX", "iata": "VRN", "name": "Verona Villafranca", "shortName": "Villafranca", "municipalityName": "Verona", "location": {"lat": 45.3957, "lon": 10.8885}, "countryCode": "IT"}, "averageDailyFlights": 0.14, "operators": [{"name": "Israir Airlines", "iata": "6H", "icao": "ISR"}]}, {"destination": {"name": "Kluzh"}, "averageDailyFlights": 0.14, "operators": [{"name": "HiSky", "iata": "H4", "icao": "HYS"}]}, {"destination": {"name": "Victoria"}, "averageDailyFlights": 0.14, "operators": [{"name": "Air Seychelles", "iata": "HM", "icao": "SEY"}]}, {"destination": {"name": "Zhukovsky"}, "averageDailyFlights": 0.14, "operators": [{"name": "Red Wings", "iata": "WZ", "icao": "RWZ"}]}]}