{"routes": [{"destination": {"icao": "MMTJ", "iata": "TIJ", "name": "Tijuana General Abelardo L. Rodr\u00edguez", "shortName": "General Abelardo L. Rodr\u00edguez", "municipalityName": "Tijuana", "location": {"lat": 32.5411, "lon": -116.97}, "countryCode": "MX"}, "averageDailyFlights": 3.29, "operators": [{"name": "Volaris", "iata": "Y4", "icao": "VOI"}, {"name": "VivaAerobus", "iata": "VB", "icao": "VIV"}]}, {"destination": {"icao": "MMUN", "iata": "CUN", "name": "Canc\u00fan ", "shortName": "Canc\u00fan", "municipalityName": "Canc\u00fan", "location": {"lat": 21.0365, "lon": -86.8771}, "countryCode": "MX"}, "averageDailyFlights": 2.71, "operators": [{"name": "Volaris", "iata": "Y4", "icao": "VOI"}, {"name": "VivaAerobus", "iata": "VB", "icao": "VIV"}]}, {"destination": {"icao": "MMMY", "iata": "MTY", "name": "Monterrey General Mariano Escobedo", "shortName": "General Mariano Escobedo", "municipalityName": "Monterrey", "location": {"lat": 25.7785, "lon": -100.107}, "countryCode": "MX"}, "averageDailyFlights": 1.71, "operators": [{"name": "VivaAerobus", "iata": "VB", "icao": "VIV"}]}, {"destination": {"icao": "MMGL", "iata": "GDL", "name": "Guadalajara Don Miguel Hidalgo Y Costilla", "shortName": "Don Miguel Hidalgo Y Costilla", "municipalityName": "Guadalajara", "location": {"lat": 20.5218, "lon": -103.311}, "countryCode": "MX"}, "averageDailyFlights": 0.86, "operators": [{"name": "VivaAerobus", "iata": "VB", "icao": "VIV"}]}, {"destination": {"icao": "MMMD", "iata": "MID", "name": "M\u00e9rida Licenciado Manuel Crescencio Rejon Int", "shortName": "Licenciado Manuel Crescencio Rejon Int", "municipalityName": "M\u00e9rida", "location": {"lat": 20.937, "lon": -89.6577}, "countryCode": "MX"}, "averageDailyFlights": 0.57, "operators": [{"name": "VivaAerobus", "iata": "VB", "icao": "VIV"}]}, {"destination": {"name": "Houston"}, "averageDailyFlights": 0.14, "operators": [{"name": "United Airlines", "iata": "UA", "icao": "UAL"}]}]}