{"routes": [{"destination": {"icao": "RJTT", "iata": "HND", "name": "Tokyo ", "shortName": "Tokyo", "municipalityName": "Tokyo", "location": {"lat": 35.5523, "lon": 139.78}, "countryCode": "JP"}, "averageDailyFlights": 15.0, "operators": [{"name": "JAL", "iata": "JL", "icao": "JAL"}, {"name": "ANA", "iata": "NH", "icao": "ANA"}, {"name": "Solaseed Air", "iata": "6J", "icao": "SNJ"}, {"name": "Japan Airlines"}]}, {"destination": {"icao": "RJOO", "iata": "ITM", "name": "Osaka ", "shortName": "Osaka", "municipalityName": "Osaka", "location": {"lat": 34.7855, "lon": 135.438}, "countryCode": "JP"}, "averageDailyFlights": 8.0, "operators": [{"name": "IBEX Airlines", "iata": "FW", "icao": "IBX"}, {"name": "JAL", "iata": "JL", "icao": "JAL"}, {"name": "Japan Airlines"}, {"name": "ANA", "iata": "NH", "icao": "ANA"}]}, {"destination": {"icao": "RJGG", "iata": "NGO", "name": "Tokoname Chubu Centrair", "shortName": "Chubu Centrair", "municipalityName": "Tokoname", "location": {"lat": 34.8584, "lon": 136.805}, "countryCode": "JP"}, "averageDailyFlights": 2.29, "operators": [{"name": "IBEX Airlines", "iata": "FW", "icao": "IBX"}]}, {"destination": {"icao": "RJAA", "iata": "NRT", "name": "Tokyo Narita", "shortName": "Narita", "municipalityName": "Tokyo", "location": {"lat": 35.7647, "lon": 140.386}, "countryCode": "JP"}, "averageDailyFlights": 2.29, "operators": [{"name": "Jetstar Japan", "iata": "GK", "icao": "JJP"}, {"name": "Peach Aviation", "iata": "MM", "icao": "APJ"}]}, {"destination": {"icao": "RKSI", "iata": "ICN", "name": "Seoul Incheon", "shortName": "Incheon", "municipalityName": "Seoul", "location": {"lat": 37.4691, "lon": 126.451}, "countryCode": "KR"}, "averageDailyFlights": 1.43, "operators": [{"name": "Jeju Air", "iata": "7C", "icao": "JJA"}, {"name": "Korean Air", "iata": "KE", "icao": "KAL"}]}]}