{"routes": [{"destination": {"icao": "RKPC", "iata": "CJU", "name": "Jeju City Jeju", "shortName": "Jeju", "municipalityName": "Jeju City", "location": {"lat": 33.5113, "lon": 126.493}, "countryCode": "KR"}, "averageDailyFlights": 33.29, "operators": [{"name": "T'Way Air", "iata": "TW", "icao": "TWB"}, {"name": "EASTAR JET", "iata": "ZE", "icao": "ESR"}, {"name": "Aero K Airlines", "iata": "RF", "icao": "EOK"}, {"name": "Korean Air", "iata": "KE", "icao": "KAL"}, {"name": "Jeju Air", "iata": "7C", "icao": "JJA"}, {"name": "Jin Air", "iata": "LJ", "icao": "JNA"}, {"name": "Asiana Airlines", "iata": "OZ", "icao": "AAR"}]}, {"destination": {"icao": "RJBB", "iata": "KIX", "name": "Osaka Kansai", "shortName": "Kansai", "municipalityName": "Osaka", "location": {"lat": 34.4273, "lon": 135.244}, "countryCode": "JP"}, "averageDailyFlights": 3.43, "operators": [{"name": "Aero K Airlines", "iata": "RF", "icao": "EOK"}, {"name": "T'Way Air", "iata": "TW", "icao": "TWB"}]}, {"destination": {"icao": "RCTP", "iata": "TPE", "name": "Taipei Taiwan Taoyuan", "shortName": "Taiwan Taoyuan", "municipalityName": "Taipei", "location": {"lat": 25.0777, "lon": 121.233}, "countryCode": "TW"}, "averageDailyFlights": 3.0, "operators": [{"name": "Aero K Airlines", "iata": "RF", "icao": "EOK"}, {"name": "EASTAR JET", "iata": "ZE", "icao": "ESR"}]}, {"destination": {"icao": "RJAA", "iata": "NRT", "name": "Tokyo Narita", "shortName": "Narita", "municipalityName": "Tokyo", "location": {"lat": 35.7647, "lon": 140.386}, "countryCode": "JP"}, "averageDailyFlights": 2.29, "operators": [{"name": "Aero K Airlines", "iata": "RF", "icao": "EOK"}]}, {"destination": {"icao": "VVDN", "iata": "DAD", "name": "Da Nang ", "shortName": "Da Nang", "municipalityName": "Da Nang", "location": {"lat": 16.0439, "lon": 108.199}, "countryCode": "VN"}, "averageDailyFlights": 2.0, "operators": [{"name": "Aero K Airlines", "iata": "RF", "icao": "EOK"}, {"name": "T'Way Air", "iata": "TW", "icao": "TWB"}]}, {"destination": {"icao": "RPLC", "iata": "CRK", "name": "Angeles City Clark", "shortName": "Clark", "municipalityName": "Angeles City", "location": {"lat": 15.185999, "lon": 120.56}, "countryCode": "PH"}, "averageDailyFlights": 1.14, "operators": [{"name": "Aero K Airlines", "iata": "RF", "icao": "EOK"}]}, {"destination": {"icao": "VTBD", "iata": "DMK", "name": "Bangkok Don Mueang", "shortName": "Don Mueang", "municipalityName": "Bangkok", "location": {"lat": 13.912599, "lon": 100.607}, "countryCode": "TH"}, "averageDailyFlights": 1.14, "operators": [{"name": "T'Way Air", "iata": "TW", "icao": "TWB"}]}, {"destination": {"icao": "RJFF", "iata": "FUK", "name": "Fukuoka ", "shortName": "Fukuoka", "municipalityName": "Fukuoka", "location": {"lat": 33.5859, "lon": 130.451}, "countryCode": "JP"}, "averageDailyFlights": 1.14, "operators": [{"name": "T'Way Air", "iata": "TW", "icao": "TWB"}]}, {"destination": {"icao": "VVCR", "iata": "CXR", "name": "Nha Trang Cam Ranh", "shortName": "Cam Ranh", "municipalityName": "Nha Trang", "location": {"lat": 11.9982, "lon": 109.219}, "countryCode": "VN"}, "averageDailyFlights": 0.71, "operators": [{"name": "T'Way Air", "iata": "TW", "icao": "TWB"}]}, {"destination": {"name": "Danang"}, "averageDailyFlights": 0.29, "operators": [{"name": "Aero K Airlines", "iata": "RF", "icao": "EOK"}, {"name": "T'Way Air", "iata": "TW", "icao": "TWB"}]}, {"destination": {"name": "Yantszi"}, "averageDailyFlights": 0.29, "operators": [{"name": "T'Way Air", "iata": "TW", "icao": "TWB"}]}, {"destination": {"icao": "VLVT", "iata": "VTE", "name": "Vientiane Wattay", "shortName": "Wattay", "municipalityName": "Vientiane", "location": {"lat": 17.9883, "lon": 102.563}, "countryCode": "LA"}, "averageDailyFlights": 0.14, "operators": [{"name": "Lao Airlines", "iata": "QV", "icao": "LAO"}]}, {"destination": {"name": "Taybey"}, "averageDailyFlights": 0.14, "operators": [{"name": "EASTAR JET", "iata": "ZE", "icao": "ESR"}]}]}