{"routes": [{"destination": {"icao": "SBRF", "iata": "REC", "name": "Recife Guararapes - Gilberto Freyre", "shortName": "Guararapes - Gilberto Freyre", "municipalityName": "Recife", "location": {"lat": -8.126489, "lon": -34.9236}, "countryCode": "BR"}, "averageDailyFlights": 15.0, "operators": [{"name": "SID"}, {"name": "LATAM Brasil", "iata": "JJ", "icao": "TAM"}, {"name": "Azul", "iata": "AD", "icao": "AZU"}, {"name": "Gol", "iata": "G3", "icao": "GLO"}]}, {"destination": {"icao": "SBGL", "iata": "GIG", "name": "Rio de Janeiro RIOgale\u00e3o \u2013 Tom Jobim", "shortName": "RIOgale\u00e3o \u2013 Tom Jobim", "municipalityName": "Rio de Janeiro", "location": {"lat": -22.81, "lon": -43.250557}, "countryCode": "BR"}, "averageDailyFlights": 9.15, "operators": [{"name": "LATAM Brasil", "iata": "JJ", "icao": "TAM"}, {"name": "SID"}, {"name": "Gol", "iata": "G3", "icao": "GLO"}, {"name": "Azul", "iata": "AD", "icao": "AZU"}, {"name": "TTL"}, {"name": "VoePass", "iata": "2Z", "icao": "PTB"}]}, {"destination": {"icao": "SBPA", "iata": "POA", "name": "Porto Alegre Salgado Filho", "shortName": "Salgado Filho", "municipalityName": "Porto Alegre", "location": {"lat": -29.9944, "lon": -51.1714}, "countryCode": "BR"}, "averageDailyFlights": 9.0, "operators": [{"name": "Gol", "iata": "G3", "icao": "GLO"}, {"name": "Azul", "iata": "AD", "icao": "AZU"}]}, {"destination": {"icao": "SCEL", "iata": "SCL", "name": "Santiago Comodoro Arturo Merino Ben\u00edtez", "shortName": "Comodoro Arturo Merino Ben\u00edtez", "municipalityName": "Santiago", "location": {"lat": -33.393, "lon": -70.7858}, "countryCode": "CL"}, "averageDailyFlights": 8.73, "operators": [{"name": "Atlas Air", "iata": "5Y", "icao": "GTI"}, {"name": "LATAM", "iata": "LA", "icao": "LAN"}, {"name": "Sky Airline", "iata": "H2", "icao": "SKU"}, {"name": "JetSMART", "iata": "JA", "icao": "JAT"}, {"name": "Ethiopian Airlines", "iata": "ET", "icao": "ETH"}, {"name": "LATAM Brasil", "iata": "JJ", "icao": "TAM"}]}, {"destination": {"icao": "SBCY", "iata": "CGB", "name": "Cuiab\u00e1 Marechal Rondon", "shortName": "Marechal Rondon", "municipalityName": "Cuiab\u00e1", "location": {"lat": -15.652899, "lon": -56.1167}, "countryCode": "BR"}, "averageDailyFlights": 8.43, "operators": [{"name": "LATAM Brasil", "iata": "JJ", "icao": "TAM"}, {"name": "Azul", "iata": "AD", "icao": "AZU"}, {"name": "Gol", "iata": "G3", "icao": "GLO"}]}, {"destination": {"icao": "SBCF", "iata": "CNF", "name": "Belo Horizonte Tancredo Neves", "shortName": "Tancredo Neves", "municipalityName": "Belo Horizonte", "location": {"lat": -19.624443, "lon": -43.971943}, "countryCode": "BR"}, "averageDailyFlights": 8.29, "operators": [{"name": "LATAM Brasil", "iata": "JJ", "icao": "TAM"}, {"name": "Azul", "iata": "AD", "icao": "AZU"}, {"name": "SID"}, {"name": "Gol", "iata": "G3", "icao": "GLO"}]}, {"destination": {"icao": "SBFZ", "iata": "FOR", "name": "Fortaleza Pinto Martins", "shortName": "Pinto Martins", "municipalityName": "Fortaleza", "location": {"lat": -3.776279, "lon": -38.5326}, "countryCode": "BR"}, "averageDailyFlights": 7.14, "operators": [{"name": "LATAM Brasil", "iata": "JJ", "icao": "TAM"}, {"name": "Gol", "iata": "G3", "icao": "GLO"}]}, {"destination": {"icao": "SABE", "iata": "AEP", "name": "Buenos Aires Jorge Newbery Airpark", "shortName": "Jorge Newbery Airpark", "municipalityName": "Buenos Aires", "location": {"lat": -34.5592, "lon": -58.4156}, "countryCode": "AR"}, "averageDailyFlights": 7.0, "operators": [{"name": "LATAM Brasil", "iata": "JJ", "icao": "TAM"}, {"name": "Aerolineas Argentinas", "iata": "AR", "icao": "ARG"}]}, {"destination": {"icao": "SBCT", "iata": "CWB", "name": "Curitiba Afonso Pena", "shortName": "Afonso Pena", "municipalityName": "Curitiba", "location": {"lat": -25.5285, "lon": -49.1758}, "countryCode": "BR"}, "averageDailyFlights": 7.0, "operators": [{"name": "Azul", "iata": "AD", "icao": "AZU"}, {"name": "Gol", "iata": "G3", "icao": "GLO"}, {"name": "LATAM Brasil", "iata": "JJ", "icao": "TAM"}]}, {"destination": {"icao": "SBBR", "iata": "BSB", "name": "Bras\u00edlia Presidente Juscelino Kubistschek", "shortName": "Presidente Juscelino Kubistschek", "municipalityName": "Bras\u00edlia", "location": {"lat": -15.869167, "lon": -47.920834}, "countryCode": "BR"}, "averageDailyFlights": 6.72, "operators": [{"name": "SID"}, {"name": "LATAM Brasil", "iata": "JJ", "icao": "TAM"}, {"name": "Gol", "iata": "G3", "icao": "GLO"}]}, {"destination": {"name": "Gale\u00e3o RJ"}, "averageDailyFlights": 5.95, "operators": [{"name": "LATAM Brasil", "iata": "JJ", "icao": "TAM"}, {"name": "Gol", "iata": "G3", "icao": "GLO"}, {"name": "Iberia", "iata": "IB", "icao": "IBE"}, {"name": "SID"}]}, {"destination": {"icao": "SBFL", "iata": "FLN", "name": "Florian\u00f3polis Herc\u00edlio Luz", "shortName": "Herc\u00edlio Luz", "municipalityName": "Florian\u00f3polis", "location": {"lat": -27.670279, "lon": -48.5525}, "countryCode": "BR"}, "averageDailyFlights": 5.86, "operators": [{"name": "LATAM Brasil", "iata": "JJ", "icao": "TAM"}, {"name": "Gol", "iata": "G3", "icao": "GLO"}]}, {"destination": {"icao": "SBFI", "iata": "IGU", "name": "Foz do Igua\u00e7u Cataratas", "shortName": "Cataratas", "municipalityName": "Foz do Igua\u00e7u", "location": {"lat": -25.600279, "lon": -54.485}, "countryCode": "BR"}, "averageDailyFlights": 5.71, "operators": [{"name": "LATAM Brasil", "iata": "JJ", "icao": "TAM"}, {"name": "Gol", "iata": "G3", "icao": "GLO"}]}, {"destination": {"icao": "SBEG", "iata": "MAO", "name": "Manaus Eduardo Gomes", "shortName": "Eduardo Gomes", "municipalityName": "Manaus", "location": {"lat": -3.038609, "lon": -60.0497}, "countryCode": "BR"}, "averageDailyFlights": 5.43, "operators": [{"name": "LATAM Brasil", "iata": "JJ", "icao": "TAM"}, {"name": "Gol", "iata": "G3", "icao": "GLO"}]}, {"destination": {"icao": "SBBE", "iata": "BEL", "name": "Bel\u00e9m J\u00falio Cezar Ribeiro", "shortName": "J\u00falio Cezar Ribeiro", "municipalityName": "Bel\u00e9m", "location": {"lat": -1.37925, "lon": -48.4763}, "countryCode": "BR"}, "averageDailyFlights": 5.29, "operators": [{"name": "LATAM Brasil", "iata": "JJ", "icao": "TAM"}, {"name": "Gol", "iata": "G3", "icao": "GLO"}]}, {"destination": {"icao": "SBPS", "iata": "BPS", "name": "Porto Seguro ", "shortName": "Porto Seguro", "municipalityName": "Porto Seguro", "location": {"lat": -16.4386, "lon": -39.0809}, "countryCode": "BR"}, "averageDailyFlights": 5.14, "operators": [{"name": "LATAM Brasil", "iata": "JJ", "icao": "TAM"}, {"name": "Gol", "iata": "G3", "icao": "GLO"}, {"name": "Azul", "iata": "AD", "icao": "AZU"}]}, {"destination": {"icao": "SBNF", "iata": "NVT", "name": "Navegantes Ministro Victor Konder", "shortName": "Ministro Victor Konder", "municipalityName": "Navegantes", "location": {"lat": -26.88, "lon": -48.6514}, "countryCode": "BR"}, "averageDailyFlights": 5.01, "operators": [{"name": "LATAM Brasil", "iata": "JJ", "icao": "TAM"}, {"name": "Gol", "iata": "G3", "icao": "GLO"}, {"name": "Emirates", "iata": "EK", "icao": "UAE"}]}, {"destination": {"icao": "SBSG", "iata": "NAT", "name": "Natal Governador Alu\u00edzio Alves", "shortName": "Governador Alu\u00edzio Alves", "municipalityName": "Natal", "location": {"lat": -5.768056, "lon": -35.37611}, "countryCode": "BR"}, "averageDailyFlights": 5.0, "operators": [{"name": "LATAM Brasil", "iata": "JJ", "icao": "TAM"}, {"name": "Gol", "iata": "G3", "icao": "GLO"}]}, {"destination": {"icao": "MPTO", "iata": "PTY", "name": "Tocumen ", "shortName": "Tocumen", "municipalityName": "Tocumen", "location": {"lat": 9.071359, "lon": -79.3835}, "countryCode": "PA"}, "averageDailyFlights": 5.0, "operators": [{"name": "Copa Airlines", "iata": "CM", "icao": "CMP"}]}, {"destination": {"icao": "SBCG", "iata": "CGR", "name": "Campo Grande ", "shortName": "Campo Grande", "municipalityName": "Campo Grande", "location": {"lat": -20.4687, "lon": -54.6725}, "countryCode": "BR"}, "averageDailyFlights": 4.43, "operators": [{"name": "LATAM Brasil", "iata": "JJ", "icao": "TAM"}, {"name": "Gol", "iata": "G3", "icao": "GLO"}]}, {"destination": {"icao": "SBJP", "iata": "JPA", "name": "Jo\u00e3o Pessoa Presidente Castro Pinto", "shortName": "Presidente Castro Pinto", "municipalityName": "Jo\u00e3o Pessoa", "location": {"lat": -7.145833, "lon": -34.948612}, "countryCode": "BR"}, "averageDailyFlights": 4.43, "operators": [{"name": "LATAM Brasil", "iata": "JJ", "icao": "TAM"}, {"name": "Gol", "iata": "G3", "icao": "GLO"}]}, {"destination": {"icao": "SPJC", "iata": "LIM", "name": "Lima Jorge Ch\u00e1vez", "shortName": "Jorge Ch\u00e1vez", "municipalityName": "Lima", "location": {"lat": -12.0219, "lon": -77.1143}, "countryCode": "PE"}, "averageDailyFlights": 4.43, "operators": [{"name": "LATAM Brasil", "iata": "JJ", "icao": "TAM"}, {"name": "Sky Airline", "iata": "H2", "icao": "SKU"}]}, {"destination": {"icao": "LPPT", "iata": "LIS", "name": "Lisbon Portela", "shortName": "Portela", "municipalityName": "Lisbon", "location": {"lat": 38.7813, "lon": -9.135919}, "countryCode": "PT"}, "averageDailyFlights": 4.29, "operators": [{"name": "TAP Air Portugal", "iata": "TP", "icao": "TAP"}, {"name": "LATAM Brasil", "iata": "JJ", "icao": "TAM"}]}, {"destination": {"icao": "KMIA", "iata": "MIA", "name": "Miami ", "shortName": "Miami", "municipalityName": "Miami", "location": {"lat": 25.7932, "lon": -80.2906}, "countryCode": "US"}, "averageDailyFlights": 4.14, "operators": [{"name": "LATAM Brasil", "iata": "JJ", "icao": "TAM"}, {"name": "American Airlines", "iata": "AA", "icao": "AAL"}]}, {"destination": {"icao": "SBSV", "iata": "SSA", "name": "Salvador Deputado Luiz Eduardo Magalh\u00e3es", "shortName": "Deputado Luiz Eduardo Magalh\u00e3es", "municipalityName": "Salvador", "location": {"lat": -12.908611, "lon": -38.3225}, "countryCode": "BR"}, "averageDailyFlights": 4.12, "operators": [{"name": "Gol", "iata": "G3", "icao": "GLO"}, {"name": "LATAM Brasil", "iata": "JJ", "icao": "TAM"}]}, {"destination": {"icao": "SBQV", "iata": "VDC", "name": "Vit\u00f3ria da Conquista ", "shortName": "Vit\u00f3ria da Conquista", "municipalityName": "Vit\u00f3ria da Conquista", "location": {"lat": -14.862799, "lon": -40.8631}, "countryCode": "BR"}, "averageDailyFlights": 3.46, "operators": [{"name": "Gol", "iata": "G3", "icao": "GLO"}, {"name": "LATAM Brasil", "iata": "JJ", "icao": "TAM"}]}, {"destination": {"icao": "SBLO", "iata": "LDB", "name": "Londrina Governador Jos\u00e9 Richa", "shortName": "Governador Jos\u00e9 Richa", "municipalityName": "Londrina", "location": {"lat": -23.3336, "lon": -51.1301}, "countryCode": "BR"}, "averageDailyFlights": 3.43, "operators": [{"name": "LATAM Brasil", "iata": "JJ", "icao": "TAM"}, {"name": "Gol", "iata": "G3", "icao": "GLO"}]}, {"destination": {"icao": "SUMU", "iata": "MVD", "name": "Montevideo General C L Berisso", "shortName": "General C L Berisso", "municipalityName": "Montevideo", "location": {"lat": -34.8384, "lon": -56.0308}, "countryCode": "UY"}, "averageDailyFlights": 3.43, "operators": [{"name": "LATAM Brasil", "iata": "JJ", "icao": "TAM"}, {"name": "Gol", "iata": "G3", "icao": "GLO"}]}, {"destination": {"icao": "SKBO", "iata": "BOG", "name": "Bogot\u00e1 El Dorado", "shortName": "El Dorado", "municipalityName": "Bogot\u00e1", "location": {"lat": 4.70159, "lon": -74.1469}, "countryCode": "CO"}, "averageDailyFlights": 3.33, "operators": [{"name": "LATAM Brasil", "iata": "JJ", "icao": "TAM"}, {"name": "Avianca", "iata": "AV", "icao": "AVA"}, {"name": "Gol", "iata": "G3", "icao": "GLO"}]}, {"destination": {"icao": "SBCH", "iata": "XAP", "name": "Chapec\u00f3 ", "shortName": "Chapec\u00f3", "municipalityName": "Chapec\u00f3", "location": {"lat": -27.1342, "lon": -52.6566}, "countryCode": "BR"}, "averageDailyFlights": 3.29, "operators": [{"name": "LATAM Brasil", "iata": "JJ", "icao": "TAM"}, {"name": "Gol", "iata": "G3", "icao": "GLO"}]}, {"destination": {"icao": "SAEZ", "iata": "EZE", "name": "Buenos Aires Ministro Pistarini", "shortName": "Ministro Pistarini", "municipalityName": "Buenos Aires", "location": {"lat": -34.8222, "lon": -58.5358}, "countryCode": "AR"}, "averageDailyFlights": 3.16, "operators": [{"name": "Qatar Airways", "iata": "QR", "icao": "QTR"}, {"name": "Ethiopian Airlines", "iata": "ET", "icao": "ETH"}, {"name": "Turkish Airlines", "iata": "TK", "icao": "THY"}, {"name": "Flybondi", "iata": "FO", "icao": "FBZ"}, {"name": "SWISS", "iata": "LX", "icao": "SWR"}, {"name": "Gol", "iata": "G3", "icao": "GLO"}, {"name": "Air Canada", "iata": "AC", "icao": "ACA"}]}, {"destination": {"icao": "LFPG", "iata": "CDG", "name": "Paris Charles de Gaulle", "shortName": "Charles de Gaulle", "municipalityName": "Paris", "location": {"lat": 49.0128, "lon": 2.549999}, "countryCode": "FR"}, "averageDailyFlights": 3.14, "operators": [{"name": "LATAM Brasil", "iata": "JJ", "icao": "TAM"}, {"name": "Air France", "iata": "AF", "icao": "AFR"}]}, {"destination": {"icao": "KJFK", "iata": "JFK", "name": "New York John F Kennedy", "shortName": "John F Kennedy", "municipalityName": "New York", "location": {"lat": 40.6398, "lon": -73.7789}, "countryCode": "US"}, "averageDailyFlights": 3.01, "operators": [{"name": "LATAM Brasil", "iata": "JJ", "icao": "TAM"}, {"name": "Delta Air Lines", "iata": "DL", "icao": "DAL"}, {"name": "American Airlines", "iata": "AA", "icao": "AAL"}]}, {"destination": {"icao": "SBMO", "iata": "MCZ", "name": "Macei\u00f3 Zumbi dos Palmares", "shortName": "Zumbi dos Palmares", "municipalityName": "Macei\u00f3", "location": {"lat": -9.510809, "lon": -35.7917}, "countryCode": "BR"}, "averageDailyFlights": 2.88, "operators": [{"name": "LATAM Brasil", "iata": "JJ", "icao": "TAM"}, {"name": "Gol", "iata": "G3", "icao": "GLO"}]}, {"destination": {"icao": "LEMD", "iata": "MAD", "name": "Madrid Adolfo Su\u00e1rez \u2013Barajas", "shortName": "Adolfo Su\u00e1rez \u2013Barajas", "municipalityName": "Madrid", "location": {"lat": 40.4936, "lon": -3.56676}, "countryCode": "ES"}, "averageDailyFlights": 2.86, "operators": [{"name": "Iberia", "iata": "IB", "icao": "IBE"}, {"name": "LATAM", "iata": "LA", "icao": "LAN"}, {"name": "Air Europa", "iata": "UX", "icao": "AEA"}]}, {"destination": {"icao": "SBGO", "iata": "GYN", "name": "Goi\u00e2nia Santa Genoveva", "shortName": "Santa Genoveva", "municipalityName": "Goi\u00e2nia", "location": {"lat": -16.631998, "lon": -49.2207}, "countryCode": "BR"}, "averageDailyFlights": 2.77, "operators": [{"name": "Gol", "iata": "G3", "icao": "GLO"}, {"name": "LATAM Brasil", "iata": "JJ", "icao": "TAM"}]}, {"destination": {"icao": "SBAR", "iata": "AJU", "name": "Aracaju Santa Maria", "shortName": "Santa Maria", "municipalityName": "Aracaju", "location": {"lat": -10.984, "lon": -37.0703}, "countryCode": "BR"}, "averageDailyFlights": 2.71, "operators": [{"name": "LATAM Brasil", "iata": "JJ", "icao": "TAM"}, {"name": "Gol", "iata": "G3", "icao": "GLO"}]}, {"destination": {"icao": "SBIL", "iata": "IOS", "name": "Ilh\u00e9us Bahia - Jorge Amado", "shortName": "Bahia - Jorge Amado", "municipalityName": "Ilh\u00e9us", "location": {"lat": -14.815999, "lon": -39.0332}, "countryCode": "BR"}, "averageDailyFlights": 2.57, "operators": [{"name": "LATAM Brasil", "iata": "JJ", "icao": "TAM"}, {"name": "Gol", "iata": "G3", "icao": "GLO"}]}, {"destination": {"icao": "LIRF", "iata": "FCO", "name": "Rome Leonardo da Vinci\u2013Fiumicino", "shortName": "Leonardo da Vinci\u2013Fiumicino", "municipalityName": "Rome", "location": {"lat": 41.8045, "lon": 12.2508}, "countryCode": "IT"}, "averageDailyFlights": 2.57, "operators": [{"name": "LATAM Brasil", "iata": "JJ", "icao": "TAM"}, {"name": "ITA Airways", "iata": "AZ", "icao": "ITY"}]}, {"destination": {"icao": "SLVR", "iata": "VVI", "name": "Santa Cruz de la Sierra Viru Viru", "shortName": "Viru Viru", "municipalityName": "Santa Cruz de la Sierra", "location": {"lat": -17.6448, "lon": -63.1354}, "countryCode": "BO"}, "averageDailyFlights": 2.57, "operators": [{"name": "Gol", "iata": "G3", "icao": "GLO"}, {"name": "BoA", "iata": "OB", "icao": "BOV"}]}, {"destination": {"icao": "SBUL", "iata": "UDI", "name": "Uberl\u00e2ndia Ten. Cel. Aviador C\u00e9sar Bombonato", "shortName": "Ten. Cel. Aviador C\u00e9sar Bombonato", "municipalityName": "Uberl\u00e2ndia", "location": {"lat": -18.883612, "lon": -48.225277}, "countryCode": "BR"}, "averageDailyFlights": 2.57, "operators": [{"name": "LATAM Brasil", "iata": "JJ", "icao": "TAM"}, {"name": "Gol", "iata": "G3", "icao": "GLO"}]}, {"destination": {"icao": "SBPV", "iata": "PVH", "name": "Porto Velho Governador Jorge Teixeira de Oliveira", "shortName": "Governador Jorge Teixeira de Oliveira", "municipalityName": "Porto Velho", "location": {"lat": -8.709289, "lon": -63.9023}, "countryCode": "BR"}, "averageDailyFlights": 2.49, "operators": [{"name": "LATAM Brasil", "iata": "JJ", "icao": "TAM"}, {"name": "Azul", "iata": "AD", "icao": "AZU"}]}, {"destination": {"icao": "SBMG", "iata": "MGF", "name": "Maring\u00e1 Regional de  - S\u00edlvio Nane Junior", "shortName": "Regional de  - S\u00edlvio Nane Junior", "municipalityName": "Maring\u00e1", "location": {"lat": -23.479445, "lon": -52.012222}, "countryCode": "BR"}, "averageDailyFlights": 2.43, "operators": [{"name": "LATAM Brasil", "iata": "JJ", "icao": "TAM"}, {"name": "Gol", "iata": "G3", "icao": "GLO"}]}, {"destination": {"icao": "SBTE", "iata": "THE", "name": "Teresina Senador Petr\u00f4nio Portela", "shortName": "Senador Petr\u00f4nio Portela", "municipalityName": "Teresina", "location": {"lat": -5.059939, "lon": -42.8235}, "countryCode": "BR"}, "averageDailyFlights": 2.29, "operators": [{"name": "LATAM Brasil", "iata": "JJ", "icao": "TAM"}, {"name": "Gol", "iata": "G3", "icao": "GLO"}]}, {"destination": {"icao": "KATL", "iata": "ATL", "name": "Atlanta Hartsfield Jackson", "shortName": "Hartsfield Jackson", "municipalityName": "Atlanta", "location": {"lat": 33.6367, "lon": -84.4281}, "countryCode": "US"}, "averageDailyFlights": 2.14, "operators": [{"name": "Delta Air Lines", "iata": "DL", "icao": "DAL"}]}, {"destination": {"icao": "SBJU", "iata": "JDO", "name": "Juazeiro do Norte Orlando Bezerra de Menezes", "shortName": "Orlando Bezerra de Menezes", "municipalityName": "Juazeiro do Norte", "location": {"lat": -7.218959, "lon": -39.2701}, "countryCode": "BR"}, "averageDailyFlights": 2.1, "operators": [{"name": "LATAM Brasil", "iata": "JJ", "icao": "TAM"}, {"name": "Gol", "iata": "G3", "icao": "GLO"}]}, {"destination": {"icao": "EGLL", "iata": "LHR", "name": "London Heathrow", "shortName": "Heathrow", "municipalityName": "London", "location": {"lat": 51.4706, "lon": -0.461941}, "countryCode": "GB"}, "averageDailyFlights": 2.0, "operators": [{"name": "British Airways", "iata": "BA", "icao": "BAW"}, {"name": "LATAM Brasil", "iata": "JJ", "icao": "TAM"}]}, {"destination": {"icao": "SBPJ", "iata": "PMW", "name": "Palmas Brigadeiro Lysias Rodrigues", "shortName": "Brigadeiro Lysias Rodrigues", "municipalityName": "Palmas", "location": {"lat": -10.2915, "lon": -48.357}, "countryCode": "BR"}, "averageDailyFlights": 2.0, "operators": [{"name": "LATAM Brasil", "iata": "JJ", "icao": "TAM"}, {"name": "Gol", "iata": "G3", "icao": "GLO"}]}, {"destination": {"icao": "SBVT", "iata": "VIX", "name": "Vit\u00f3ria Eurico de Aguiar Salles", "shortName": "Eurico de Aguiar Salles", "municipalityName": "Vit\u00f3ria", "location": {"lat": -20.258057, "lon": -40.28639}, "countryCode": "BR"}, "averageDailyFlights": 2.0, "operators": [{"name": "Gol", "iata": "G3", "icao": "GLO"}]}, {"destination": {"icao": "EDDF", "iata": "FRA", "name": "Frankfurt-am-Main ", "shortName": "Frankfurt-am-Main", "municipalityName": "Frankfurt-am-Main", "location": {"lat": 50.0264, "lon": 8.543129}, "countryCode": "DE"}, "averageDailyFlights": 1.87, "operators": [{"name": "Lufthansa", "iata": "LH", "icao": "DLH"}, {"name": "LATAM Brasil", "iata": "JJ", "icao": "TAM"}]}, {"destination": {"icao": "SGAS", "iata": "ASU", "name": "Asunci\u00f3n Silvio Pettirossi", "shortName": "Silvio Pettirossi", "municipalityName": "Asunci\u00f3n", "location": {"lat": -25.24, "lon": -57.52}, "countryCode": "PY"}, "averageDailyFlights": 1.86, "operators": [{"name": "LATAM Paraguay", "iata": "PZ", "icao": "LAP"}, {"name": "Gol", "iata": "G3", "icao": "GLO"}]}, {"destination": {"icao": "OTHH", "iata": "DOH", "name": "Doha Hamad", "shortName": "Hamad", "municipalityName": "Doha", "location": {"lat": 25.273056, "lon": 51.608055}, "countryCode": "QA"}, "averageDailyFlights": 1.86, "operators": [{"name": "Qatar Airways", "iata": "QR", "icao": "QTR"}]}, {"destination": {"icao": "SBIZ", "iata": "IMP", "name": "Imperatriz Prefeito Renato Moreira", "shortName": "Prefeito Renato Moreira", "municipalityName": "Imperatriz", "location": {"lat": -5.53129, "lon": -47.46}, "countryCode": "BR"}, "averageDailyFlights": 1.86, "operators": [{"name": "LATAM Brasil", "iata": "JJ", "icao": "TAM"}]}, {"destination": {"icao": "SBSR", "iata": "SJP", "name": "S\u00e3o Jos\u00e9 Do Rio Preto Prof. Eribelto Manoel Reino State", "shortName": "Prof. Eribelto Manoel Reino State", "municipalityName": "S\u00e3o Jos\u00e9 Do Rio Preto", "location": {"lat": -20.8166, "lon": -49.4065}, "countryCode": "BR"}, "averageDailyFlights": 1.86, "operators": [{"name": "LATAM Brasil", "iata": "JJ", "icao": "TAM"}]}, {"destination": {"icao": "SBRP", "iata": "RAO", "name": "Ribeir\u00e3o Preto Leite Lopes", "shortName": "Leite Lopes", "municipalityName": "Ribeir\u00e3o Preto", "location": {"lat": -21.136389, "lon": -47.77667}, "countryCode": "BR"}, "averageDailyFlights": 1.71, "operators": [{"name": "VoePass", "iata": "2Z", "icao": "PTB"}]}, {"destination": {"icao": "SBCA", "iata": "CAC", "name": "Cascavel ", "shortName": "Cascavel", "municipalityName": "Cascavel", "location": {"lat": -25.0003, "lon": -53.5008}, "countryCode": "BR"}, "averageDailyFlights": 1.57, "operators": [{"name": "LATAM Brasil", "iata": "JJ", "icao": "TAM"}, {"name": "Gol", "iata": "G3", "icao": "GLO"}]}, {"destination": {"icao": "LTFM", "iata": "IST", "name": "Istanbul ", "shortName": "Istanbul", "municipalityName": "Istanbul", "location": {"lat": 41.275276, "lon": 28.751944}, "countryCode": "TR"}, "averageDailyFlights": 1.57, "operators": [{"name": "Turkish Airlines", "iata": "TK", "icao": "THY"}]}, {"destination": {"icao": "MMMX", "iata": "MEX", "name": "Mexico City Licenciado Benito Juarez", "shortName": "Licenciado Benito Juarez", "municipalityName": "Mexico City", "location": {"lat": 19.4363, "lon": -99.0721}, "countryCode": "MX"}, "averageDailyFlights": 1.57, "operators": [{"name": "LATAM Brasil", "iata": "JJ", "icao": "TAM"}, {"name": "Aeromexico", "iata": "AM", "icao": "AMX"}]}, {"destination": {"name": "Assun\u00e7\u00e3o"}, "averageDailyFlights": 1.57, "operators": [{"name": "Iberia", "iata": "IB", "icao": "IBE"}]}, {"destination": {"name": "Jericoacoara"}, "averageDailyFlights": 1.57, "operators": [{"name": "LATAM Brasil", "iata": "JJ", "icao": "TAM"}, {"name": "Gol", "iata": "G3", "icao": "GLO"}]}, {"destination": {"icao": "KEWR", "iata": "EWR", "name": "Newark Liberty", "shortName": "Liberty", "municipalityName": "Newark", "location": {"lat": 40.6925, "lon": -74.1687}, "countryCode": "US"}, "averageDailyFlights": 1.43, "operators": [{"name": "United Airlines", "iata": "UA", "icao": "UAL"}]}, {"destination": {"icao": "SWSI", "iata": "OPS", "name": "Sinop Presidente Jo\u00e3o Batista Figueiredo", "shortName": "Presidente Jo\u00e3o Batista Figueiredo", "municipalityName": "Sinop", "location": {"lat": -11.885, "lon": -55.58611}, "countryCode": "BR"}, "averageDailyFlights": 1.43, "operators": [{"name": "LATAM Brasil", "iata": "JJ", "icao": "TAM"}, {"name": "Gol", "iata": "G3", "icao": "GLO"}]}, {"destination": {"icao": "SBPL", "iata": "PNZ", "name": "Petrolina Senador Nilo Coelho", "shortName": "Senador Nilo Coelho", "municipalityName": "Petrolina", "location": {"lat": -9.362409, "lon": -40.5691}, "countryCode": "BR"}, "averageDailyFlights": 1.34, "operators": [{"name": "Gol", "iata": "G3", "icao": "GLO"}, {"name": "LATAM Brasil", "iata": "JJ", "icao": "TAM"}]}, {"destination": {"icao": "SAME", "iata": "MDZ", "name": "Mendoza El Plumerillo", "shortName": "El Plumerillo", "municipalityName": "Mendoza", "location": {"lat": -32.8317, "lon": -68.7929}, "countryCode": "AR"}, "averageDailyFlights": 1.29, "operators": [{"name": "LATAM Brasil", "iata": "JJ", "icao": "TAM"}, {"name": "Gol", "iata": "G3", "icao": "GLO"}, {"name": "Aerolineas Argentinas", "iata": "AR", "icao": "ARG"}]}, {"destination": {"icao": "SBPF", "iata": "PFB", "name": "Passo Fundo Lauro Kurtz", "shortName": "Lauro Kurtz", "municipalityName": "Passo Fundo", "location": {"lat": -28.244, "lon": -52.3266}, "countryCode": "BR"}, "averageDailyFlights": 1.25, "operators": [{"name": "LATAM Brasil", "iata": "JJ", "icao": "TAM"}, {"name": "Gol", "iata": "G3", "icao": "GLO"}]}, {"destination": {"icao": "KDFW", "iata": "DFW", "name": "Dallas-Fort Worth ", "shortName": "Dallas-Fort Worth", "municipalityName": "Dallas-Fort Worth", "location": {"lat": 32.8968, "lon": -97.038}, "countryCode": "US"}, "averageDailyFlights": 1.14, "operators": [{"name": "American Airlines", "iata": "AA", "icao": "AAL"}]}, {"destination": {"icao": "LSZH", "iata": "ZRH", "name": "Zurich Kloten", "shortName": "Kloten", "municipalityName": "Zurich", "location": {"lat": 47.4647, "lon": 8.549169}, "countryCode": "CH"}, "averageDailyFlights": 1.14, "operators": [{"name": "SWISS", "iata": "LX", "icao": "SWR"}]}, {"destination": {"icao": "HAAB", "iata": "ADD", "name": "Addis Ababa Bole", "shortName": "Bole", "municipalityName": "Addis Ababa", "location": {"lat": 8.97789, "lon": 38.7993}, "countryCode": "ET"}, "averageDailyFlights": 1.0, "operators": [{"name": "Ethiopian Airlines", "iata": "ET", "icao": "ETH"}]}, {"destination": {"icao": "EHAM", "iata": "AMS", "name": "Amsterdam Schiphol", "shortName": "Schiphol", "municipalityName": "Amsterdam", "location": {"lat": 52.3086, "lon": 4.763889}, "countryCode": "NL"}, "averageDailyFlights": 1.0, "operators": [{"name": "KLM", "iata": "KL", "icao": "KLM"}]}, {"destination": {"icao": "KORD", "iata": "ORD", "name": "Chicago O'Hare", "shortName": "O'Hare", "municipalityName": "Chicago", "location": {"lat": 41.9786, "lon": -87.9048}, "countryCode": "US"}, "averageDailyFlights": 1.0, "operators": [{"name": "United Airlines", "iata": "UA", "icao": "UAL"}]}, {"destination": {"icao": "KIAD", "iata": "IAD", "name": "District of Columbia Washington Dulles", "shortName": "Washington Dulles", "municipalityName": "District of Columbia", "location": {"lat": 38.9445, "lon": -77.4558}, "countryCode": "US"}, "averageDailyFlights": 1.0, "operators": [{"name": "United Airlines", "iata": "UA", "icao": "UAL"}]}, {"destination": {"icao": "OMDB", "iata": "DXB", "name": "Dubai ", "shortName": "Dubai", "municipalityName": "Dubai", "location": {"lat": 25.252798, "lon": 55.3644}, "countryCode": "AE"}, "averageDailyFlights": 1.0, "operators": [{"name": "Emirates", "iata": "EK", "icao": "UAE"}]}, {"destination": {"name": "JAGUARUNA"}, "averageDailyFlights": 1.0, "operators": [{"name": "LATAM Brasil", "iata": "JJ", "icao": "TAM"}]}, {"destination": {"icao": "KIAH", "iata": "IAH", "name": "Houston George Bush", "shortName": "George Bush", "municipalityName": "Houston", "location": {"lat": 29.9844, "lon": -95.3414}, "countryCode": "US"}, "averageDailyFlights": 0.86, "operators": [{"name": "United Airlines", "iata": "UA", "icao": "UAL"}]}, {"destination": {"icao": "FAOR", "iata": "JNB", "name": "Jo'anna OR Tambo", "shortName": "OR Tambo", "municipalityName": "Jo'anna", "location": {"lat": -26.1392, "lon": 28.246}, "countryCode": "ZA"}, "averageDailyFlights": 0.86, "operators": [{"name": "LATAM Brasil", "iata": "JJ", "icao": "TAM"}, {"name": "South African Airways", "iata": "SA", "icao": "SAA"}]}, {"destination": {"icao": "CYYZ", "iata": "YYZ", "name": "Toronto Pearson", "shortName": "Pearson", "municipalityName": "Toronto", "location": {"lat": 43.6772, "lon": -79.6306}, "countryCode": "CA"}, "averageDailyFlights": 0.86, "operators": [{"name": "Air Canada", "iata": "AC", "icao": "ACA"}]}, {"destination": {"name": "Montes Claros"}, "averageDailyFlights": 0.86, "operators": [{"name": "LATAM Brasil", "iata": "JJ", "icao": "TAM"}, {"name": "Gol", "iata": "G3", "icao": "GLO"}]}, {"destination": {"icao": "LEBL", "iata": "BCN", "name": "Barcelona ", "shortName": "Barcelona", "municipalityName": "Barcelona", "location": {"lat": 41.2971, "lon": 2.078459}, "countryCode": "ES"}, "averageDailyFlights": 0.71, "operators": [{"name": "LATAM Brasil", "iata": "JJ", "icao": "TAM"}]}, {"destination": {"icao": "SACO", "iata": "COR", "name": "C\u00f3rdoba Ingeniero Ambrosio Taravella", "shortName": "Ingeniero Ambrosio Taravella", "municipalityName": "C\u00f3rdoba", "location": {"lat": -31.3236, "lon": -64.208}, "countryCode": "AR"}, "averageDailyFlights": 0.71, "operators": [{"name": "Gol", "iata": "G3", "icao": "GLO"}, {"name": "Aerolineas Argentinas", "iata": "AR", "icao": "ARG"}]}, {"destination": {"icao": "SBSL", "iata": "SLZ", "name": "S\u00e3o Lu\u00eds Marechal Cunha Machado", "shortName": "Marechal Cunha Machado", "municipalityName": "S\u00e3o Lu\u00eds", "location": {"lat": -2.58536, "lon": -44.2341}, "countryCode": "BR"}, "averageDailyFlights": 0.71, "operators": [{"name": "LATAM Brasil", "iata": "JJ", "icao": "TAM"}]}, {"destination": {"name": "Joinville"}, "averageDailyFlights": 0.71, "operators": [{"name": "LATAM Brasil", "iata": "JJ", "icao": "TAM"}]}, {"destination": {"icao": "FNLU", "iata": "LAD", "name": "Luanda Quatro de Fevereiro", "shortName": "Quatro de Fevereiro", "municipalityName": "Luanda", "location": {"lat": -8.858369, "lon": 13.2312}, "countryCode": "AO"}, "averageDailyFlights": 0.57, "operators": [{"name": "TAAG", "iata": "DT", "icao": "DTA"}]}, {"destination": {"icao": "LIMC", "iata": "MXP", "name": "Milan Malpensa", "shortName": "Malpensa", "municipalityName": "Milan", "location": {"lat": 45.6306, "lon": 8.72811}, "countryCode": "IT"}, "averageDailyFlights": 0.57, "operators": [{"name": "LATAM Brasil", "iata": "JJ", "icao": "TAM"}]}, {"destination": {"icao": "CYUL", "iata": "YUL", "name": "Montreal Trudeau", "shortName": "Trudeau", "municipalityName": "Montreal", "location": {"lat": 45.4706, "lon": -73.7408}, "countryCode": "CA"}, "averageDailyFlights": 0.57, "operators": [{"name": "Air Canada", "iata": "AC", "icao": "ACA"}]}, {"destination": {"icao": "LPPR", "iata": "OPO", "name": "Porto Francisco de S\u00e1 Carneiro", "shortName": "Francisco de S\u00e1 Carneiro", "municipalityName": "Porto", "location": {"lat": 41.2481, "lon": -8.681389}, "countryCode": "PT"}, "averageDailyFlights": 0.57, "operators": [{"name": "TAP Air Portugal", "iata": "TP", "icao": "TAP"}]}, {"destination": {"icao": "SAAR", "iata": "ROS", "name": "Rosario Islas Malvinas", "shortName": "Islas Malvinas", "municipalityName": "Rosario", "location": {"lat": -32.9036, "lon": -60.785}, "countryCode": "AR"}, "averageDailyFlights": 0.57, "operators": [{"name": "Gol", "iata": "G3", "icao": "GLO"}]}, {"destination": {"icao": "SBNM", "iata": "GEL", "name": "Santo \u00c2ngelo ", "shortName": "Santo \u00c2ngelo", "municipalityName": "Santo \u00c2ngelo", "location": {"lat": -28.2817, "lon": -54.1691}, "countryCode": "BR"}, "averageDailyFlights": 0.57, "operators": [{"name": "Gol", "iata": "G3", "icao": "GLO"}]}, {"destination": {"name": "Lisboa"}, "averageDailyFlights": 0.57, "operators": [{"name": "Azul", "iata": "AD", "icao": "AZU"}]}, {"destination": {"icao": "KLAX", "iata": "LAX", "name": "Los Angeles ", "shortName": "Los Angeles", "municipalityName": "Los Angeles", "location": {"lat": 33.9425, "lon": -118.408}, "countryCode": "US"}, "averageDailyFlights": 0.43, "operators": [{"name": "LATAM Brasil", "iata": "JJ", "icao": "TAM"}]}, {"destination": {"icao": "SBPK", "iata": "PET", "name": "Pelotas ", "shortName": "Pelotas", "municipalityName": "Pelotas", "location": {"lat": -31.7184, "lon": -52.3277}, "countryCode": "BR"}, "averageDailyFlights": 0.43, "operators": [{"name": "Gol", "iata": "G3", "icao": "GLO"}]}, {"destination": {"icao": "SULS", "iata": "PDP", "name": "Punta del Este Capitan Corbeta CA Curbelo", "shortName": "Capitan Corbeta CA Curbelo", "municipalityName": "Punta del Este", "location": {"lat": -34.8551, "lon": -55.0943}, "countryCode": "UY"}, "averageDailyFlights": 0.43, "operators": [{"name": "Azul", "iata": "AD", "icao": "AZU"}]}, {"destination": {"icao": "FACT", "iata": "CPT", "name": "Cape Town ", "shortName": "Cape Town", "municipalityName": "Cape Town", "location": {"lat": -33.9648, "lon": 18.6017}, "countryCode": "ZA"}, "averageDailyFlights": 0.29, "operators": [{"name": "South African Airways", "iata": "SA", "icao": "SAA"}]}, {"destination": {"icao": "SBCX", "iata": "CXJ", "name": "Caxias do Sul Hugo Cantergiani Regional", "shortName": "Hugo Cantergiani Regional", "municipalityName": "Caxias do Sul", "location": {"lat": -29.1971, "lon": -51.1875}, "countryCode": "BR"}, "averageDailyFlights": 0.29, "operators": [{"name": "Gol", "iata": "G3", "icao": "GLO"}]}, {"destination": {"icao": "KMCO", "iata": "MCO", "name": "Orlando ", "shortName": "Orlando", "municipalityName": "Orlando", "location": {"lat": 28.4294, "lon": -81.309}, "countryCode": "US"}, "averageDailyFlights": 0.29, "operators": [{"name": "LATAM Brasil", "iata": "JJ", "icao": "TAM"}]}, {"destination": {"icao": "MDPC", "iata": "PUJ", "name": "Punta Cana ", "shortName": "Punta Cana", "municipalityName": "Punta Cana", "location": {"lat": 18.567398, "lon": -68.3634}, "countryCode": "DO"}, "averageDailyFlights": 0.29, "operators": [{"name": "Gol", "iata": "G3", "icao": "GLO"}]}, {"destination": {"icao": "SASA", "iata": "SLA", "name": "Salta Martin Miguel De Guemes", "shortName": "Martin Miguel De Guemes", "municipalityName": "Salta", "location": {"lat": -24.856, "lon": -65.4862}, "countryCode": "AR"}, "averageDailyFlights": 0.14, "operators": [{"name": "Aerolineas Argentinas", "iata": "AR", "icao": "ARG"}]}, {"destination": {"icao": "MDSD", "iata": "SDQ", "name": "Santo Domingo City Las Am\u00e9ricas", "shortName": "Las Am\u00e9ricas", "municipalityName": "Santo Domingo City", "location": {"lat": 18.4297, "lon": -69.6689}, "countryCode": "DO"}, "averageDailyFlights": 0.14, "operators": [{"name": "Dominican Wings", "iata": "DW", "icao": "DWI"}]}, {"destination": {"name": "Arax\u00e1"}, "averageDailyFlights": 0.14, "operators": [{"name": "Azul", "iata": "AD", "icao": "AZU"}]}, {"destination": {"name": "Boston"}, "averageDailyFlights": 0.14, "operators": [{"name": "LATAM Brasil", "iata": "JJ", "icao": "TAM"}]}, {"destination": {"name": "Ipatinga"}, "averageDailyFlights": 0.14, "operators": [{"name": "VoePass", "iata": "2Z", "icao": "PTB"}]}, {"destination": {"name": "Joanesburgo"}, "averageDailyFlights": 0.14, "operators": [{"name": "LATAM Brasil", "iata": "JJ", "icao": "TAM"}]}, {"destination": {"name": "Londres"}, "averageDailyFlights": 0.14, "operators": [{"name": "LATAM Brasil", "iata": "JJ", "icao": "TAM"}]}, {"destination": {"name": "Martinica"}, "averageDailyFlights": 0.14, "operators": [{"name": "Gol", "iata": "G3", "icao": "GLO"}]}, {"destination": {"name": "Mil\u00e3o"}, "averageDailyFlights": 0.14, "operators": [{"name": "LATAM Brasil", "iata": "JJ", "icao": "TAM"}]}, {"destination": {"name": "S\u00e3o Paulo"}, "averageDailyFlights": 0.14, "operators": [{"name": "Gol", "iata": "G3", "icao": "GLO"}]}, {"destination": {"name": "Washington"}, "averageDailyFlights": 0.14, "operators": [{"name": "United Airlines", "iata": "UA", "icao": "UAL"}]}]}