{"routes": [{"destination": {"icao": "UHHH", "iata": "KHV", "localCode": "\u0425\u0411\u0420", "name": "Khabarovsk Novy", "shortName": "Novy", "municipalityName": "Khabarovsk", "location": {"lat": 48.528, "lon": 135.188}, "countryCode": "RU"}, "averageDailyFlights": 3.0, "operators": [{"name": "Aurora", "iata": "HZ", "icao": "SHU"}]}, {"destination": {"icao": "UHWW", "iata": "VVO", "localCode": "\u0412\u0412\u041e", "name": "Vladivostok Knevichi", "shortName": "Knevichi", "municipalityName": "Vladivostok", "location": {"lat": 43.399, "lon": 132.148}, "countryCode": "RU"}, "averageDailyFlights": 2.16, "operators": [{"name": "Aurora", "iata": "HZ", "icao": "SHU"}, {"name": "S7 Airlines", "iata": "S7", "icao": "SBI"}]}, {"destination": {"icao": "UHSM", "iata": "DEE", "localCode": "\u042e\u0416\u041a", "name": "Kunashir Island Mendeleyevo", "shortName": "Mendeleyevo", "municipalityName": "Kunashir Island", "location": {"lat": 43.9584, "lon": 145.683}, "countryCode": "RU"}, "averageDailyFlights": 1.14, "operators": [{"name": "Aurora", "iata": "HZ", "icao": "SHU"}]}, {"destination": {"icao": "UNNT", "iata": "OVB", "localCode": "\u0422\u041b\u0427", "name": "Novosibirsk Tolmachevo", "shortName": "Tolmachevo", "municipalityName": "Novosibirsk", "location": {"lat": 55.0126, "lon": 82.6507}, "countryCode": "RU"}, "averageDailyFlights": 1.14, "operators": [{"name": "S7 Airlines", "iata": "S7", "icao": "SBI"}]}, {"destination": {"name": "Kurilsk"}, "averageDailyFlights": 1.14, "operators": [{"name": "Aurora", "iata": "HZ", "icao": "SHU"}]}, {"destination": {"icao": "UHSH", "iata": "OHH", "localCode": "\u041e\u0425\u0410", "name": "Okha ", "shortName": "Okha", "municipalityName": "Okha", "location": {"lat": 53.52, "lon": 142.89}, "countryCode": "RU"}, "averageDailyFlights": 0.86, "operators": [{"name": "Aurora", "iata": "HZ", "icao": "SHU"}]}, {"destination": {"icao": "UHBB", "iata": "BQS", "localCode": "\u0411\u0413\u0429", "name": "Blagoveschensk Ignatyevo", "shortName": "Ignatyevo", "municipalityName": "Blagoveschensk", "location": {"lat": 50.4254, "lon": 127.412}, "countryCode": "RU"}, "averageDailyFlights": 0.43, "operators": [{"name": "Aurora", "iata": "HZ", "icao": "SHU"}, {"name": "Rossiya Airlines", "iata": "FV", "icao": "SDM"}]}, {"destination": {"icao": "UIAA", "iata": "HTA", "localCode": "\u0421\u0425\u0422", "name": "Chita Kadala", "shortName": "Kadala", "municipalityName": "Chita", "location": {"lat": 52.0263, "lon": 113.306}, "countryCode": "RU"}, "averageDailyFlights": 0.29, "operators": [{"name": "IrAero", "iata": "IO", "icao": "IAE"}]}, {"destination": {"icao": "UHPP", "iata": "PKC", "localCode": "\u041f\u0420\u041b", "name": "Petropavlovsk-Kamchatskiy Yelizovo", "shortName": "Yelizovo", "municipalityName": "Petropavlovsk-Kamchatskiy", "location": {"lat": 53.1679, "lon": 158.454}, "countryCode": "RU"}, "averageDailyFlights": 0.29, "operators": [{"name": "Aurora", "iata": "HZ", "icao": "SHU"}]}, {"destination": {"icao": "UNKL", "iata": "KJA", "localCode": "\u041a\u042f\u0410", "name": "Krasnoyarsk Yemelyanovo", "shortName": "Yemelyanovo", "municipalityName": "Krasnoyarsk", "location": {"lat": 56.1729, "lon": 92.4933}, "countryCode": "RU"}, "averageDailyFlights": 0.14, "operators": [{"name": "Aurora", "iata": "HZ", "icao": "SHU"}]}, {"destination": {"name": "Irkutsk"}, "averageDailyFlights": 0.14, "operators": [{"name": "IrAero", "iata": "IO", "icao": "IAE"}]}, {"destination": {"name": "Moscow"}, "averageDailyFlights": 0.14, "operators": [{"name": "Rossiya Airlines", "iata": "FV", "icao": "SDM"}]}]}