{"routes": [{"destination": {"icao": "UUEE", "iata": "SVO", "localCode": "\u0428\u0420\u041c", "name": "Moscow Sheremetyevo", "shortName": "Sheremetyevo", "municipalityName": "Moscow", "location": {"lat": 55.9726, "lon": 37.4146}, "countryCode": "RU"}, "averageDailyFlights": 9.43, "operators": [{"name": "Aeroflot", "iata": "SU", "icao": "AFL"}, {"name": "Pobeda", "iata": "DP", "icao": "PBD"}, {"name": "Rossiya Airlines", "iata": "FV", "icao": "SDM"}, {"name": "Smartavia", "iata": "5N", "icao": "AUL"}]}, {"destination": {"icao": "ULLI", "iata": "LED", "localCode": "\u041f\u041b\u041a", "name": "Saint-Petersburg Pulkovo", "shortName": "Pulkovo", "municipalityName": "Saint-Petersburg", "location": {"lat": 59.8003, "lon": 30.2625}, "countryCode": "RU"}, "averageDailyFlights": 9.38, "operators": [{"name": "Pobeda", "iata": "DP", "icao": "PBD"}, {"name": "Rossiya Airlines", "iata": "FV", "icao": "SDM"}, {"name": "Ural Airlines", "iata": "U6", "icao": "SVR"}, {"name": "Smartavia", "iata": "5N", "icao": "AUL"}]}, {"destination": {"icao": "UUDD", "iata": "DME", "localCode": "\u0414\u041c\u0414", "name": "Moscow Domodedovo", "shortName": "Domodedovo", "municipalityName": "Moscow", "location": {"lat": 55.4088, "lon": 37.9063}, "countryCode": "RU"}, "averageDailyFlights": 3.88, "operators": [{"name": "S7 Airlines", "iata": "S7", "icao": "SBI"}, {"name": "Ural Airlines", "iata": "U6", "icao": "SVR"}, {"name": "Smartavia", "iata": "5N", "icao": "AUL"}, {"name": "Pobeda", "iata": "DP", "icao": "PBD"}, {"name": "Aeroflot", "iata": "SU", "icao": "AFL"}]}, {"destination": {"name": "Minsk"}, "averageDailyFlights": 0.57, "operators": [{"name": "Belavia", "iata": "B2", "icao": "BRU"}]}, {"destination": {"icao": "ULWC", "iata": "CEE", "localCode": "\u0427\u0420\u0412", "name": "Cherepovets ", "shortName": "Cherepovets", "municipalityName": "Cherepovets", "location": {"lat": 59.2736, "lon": 38.0158}, "countryCode": "RU"}, "averageDailyFlights": 0.43, "operators": [{"name": "Severstal Aircompany", "iata": "D2", "icao": "SSF"}]}, {"destination": {"icao": "USSS", "iata": "SVX", "localCode": "\u041a\u041b\u0426", "name": "Ekaterinburg Koltsovo", "shortName": "Koltsovo", "municipalityName": "Ekaterinburg", "location": {"lat": 56.7431, "lon": 60.8027}, "countryCode": "RU"}, "averageDailyFlights": 0.43, "operators": [{"name": "Ural Airlines", "iata": "U6", "icao": "SVR"}]}, {"destination": {"icao": "UUBI", "iata": "IWA", "localCode": "\u0418\u0412\u0412", "name": "Ivanovo South", "shortName": "South", "municipalityName": "Ivanovo", "location": {"lat": 56.9394, "lon": 40.9408}, "countryCode": "RU"}, "averageDailyFlights": 0.43, "operators": [{"name": "Pegas Fly", "iata": "EO", "icao": "KAR"}]}, {"destination": {"icao": "UWKD", "iata": "KZN", "name": "Kazan ", "shortName": "Kazan", "municipalityName": "Kazan", "location": {"lat": 55.6062, "lon": 49.2787}, "countryCode": "RU"}, "averageDailyFlights": 0.43, "operators": [{"name": "Nordwind Airlines", "iata": "N4", "icao": "NWS"}]}, {"destination": {"icao": "USPP", "iata": "PEE", "localCode": "\u041f\u0420\u042c", "name": "Perm Bolshoye Savino", "shortName": "Bolshoye Savino", "municipalityName": "Perm", "location": {"lat": 57.9145, "lon": 56.0212}, "countryCode": "RU"}, "averageDailyFlights": 0.43, "operators": [{"name": "Pegas Fly", "iata": "EO", "icao": "KAR"}]}, {"destination": {"icao": "ULOO", "iata": "PKV", "localCode": "\u041f\u0421\u041a", "name": "Pskov ", "shortName": "Pskov", "municipalityName": "Pskov", "location": {"lat": 57.7839, "lon": 28.3956}, "countryCode": "RU"}, "averageDailyFlights": 0.43, "operators": [{"name": "Azimuth Airlines", "iata": "A4", "icao": "AZO"}]}, {"destination": {"icao": "UWGG", "iata": "GOJ", "localCode": "\u041d\u0416\u0421", "name": "Nizhniy Novgorod Strigino", "shortName": "Strigino", "municipalityName": "Nizhniy Novgorod", "location": {"lat": 56.2301, "lon": 43.784}, "countryCode": "RU"}, "averageDailyFlights": 0.32, "operators": [{"name": "Nordwind Airlines", "iata": "N4", "icao": "NWS"}]}, {"destination": {"icao": "ULAA", "iata": "ARH", "localCode": "\u0410\u0425\u0413", "name": "Arkhangelsk Talagi", "shortName": "Talagi", "municipalityName": "Arkhangelsk", "location": {"lat": 64.6003, "lon": 40.7167}, "countryCode": "RU"}, "averageDailyFlights": 0.29, "operators": [{"name": "Smartavia", "iata": "5N", "icao": "AUL"}]}, {"destination": {"icao": "USCC", "iata": "CEK", "localCode": "\u0427\u041b\u0411", "name": "Chelyabinsk Balandino", "shortName": "Balandino", "municipalityName": "Chelyabinsk", "location": {"lat": 55.3058, "lon": 61.5033}, "countryCode": "RU"}, "averageDailyFlights": 0.29, "operators": [{"name": "Smartavia", "iata": "5N", "icao": "AUL"}]}, {"destination": {"icao": "ULMM", "iata": "MMK", "localCode": "\u041c\u0423\u041d", "name": "Murmansk ", "shortName": "Murmansk", "municipalityName": "Murmansk", "location": {"lat": 68.7817, "lon": 32.7508}, "countryCode": "RU"}, "averageDailyFlights": 0.29, "operators": [{"name": "Smartavia", "iata": "5N", "icao": "AUL"}]}, {"destination": {"icao": "ULPB", "iata": "PES", "localCode": "\u041f\u0422\u0411", "name": "Petrozavodsk ", "shortName": "Petrozavodsk", "municipalityName": "Petrozavodsk", "location": {"lat": 61.8852, "lon": 34.1547}, "countryCode": "RU"}, "averageDailyFlights": 0.29, "operators": [{"name": "Severstal Aircompany", "iata": "D2", "icao": "SSF"}]}, {"destination": {"icao": "UWWW", "iata": "KUF", "localCode": "\u0421\u041a\u0427", "name": "Samara Kurumoch", "shortName": "Kurumoch", "municipalityName": "Samara", "location": {"lat": 53.5049, "lon": 50.1643}, "countryCode": "RU"}, "averageDailyFlights": 0.29, "operators": [{"name": "Nordwind Airlines", "iata": "N4", "icao": "NWS"}]}, {"destination": {"name": "Kaliningrad"}, "averageDailyFlights": 0.29, "operators": [{"name": "Lanmei Airlines", "iata": "LQ", "icao": "MKR"}]}, {"destination": {"name": "Sochi"}, "averageDailyFlights": 0.14, "operators": [{"name": "Ural Airlines", "iata": "U6", "icao": "SVR"}]}, {"destination": {"name": "Yekaterinburg"}, "averageDailyFlights": 0.14, "operators": [{"name": "Ural Airlines", "iata": "U6", "icao": "SVR"}]}]}