{"routes": [{"destination": {"icao": "UUEE", "iata": "SVO", "localCode": "\u0428\u0420\u041c", "name": "Moscow Sheremetyevo", "shortName": "Sheremetyevo", "municipalityName": "Moscow", "location": {"lat": 55.9726, "lon": 37.4146}, "countryCode": "RU"}, "averageDailyFlights": 8.0, "operators": [{"name": "Pobeda", "iata": "DP", "icao": "PBD"}, {"name": "Aeroflot", "iata": "SU", "icao": "AFL"}, {"name": "Nordwind Airlines", "iata": "N4", "icao": "NWS"}]}, {"destination": {"icao": "ULLI", "iata": "LED", "localCode": "\u041f\u041b\u041a", "name": "Saint-Petersburg Pulkovo", "shortName": "Pulkovo", "municipalityName": "Saint-Petersburg", "location": {"lat": 59.8003, "lon": 30.2625}, "countryCode": "RU"}, "averageDailyFlights": 3.29, "operators": [{"name": "Pobeda", "iata": "DP", "icao": "PBD"}, {"name": "Smartavia", "iata": "5N", "icao": "AUL"}, {"name": "Nordwind Airlines", "iata": "N4", "icao": "NWS"}, {"name": "Aeroflot", "iata": "SU", "icao": "AFL"}, {"name": "Rossiya Airlines", "iata": "FV", "icao": "SDM"}]}, {"destination": {"icao": "UUDD", "iata": "DME", "localCode": "\u0414\u041c\u0414", "name": "Moscow Domodedovo", "shortName": "Domodedovo", "municipalityName": "Moscow", "location": {"lat": 55.4088, "lon": 37.9063}, "countryCode": "RU"}, "averageDailyFlights": 2.71, "operators": [{"name": "S7 Airlines", "iata": "S7", "icao": "SBI"}, {"name": "NordStar Airlines", "iata": "Y7", "icao": "TYA"}]}, {"destination": {"icao": "USSS", "iata": "SVX", "localCode": "\u041a\u041b\u0426", "name": "Ekaterinburg Koltsovo", "shortName": "Koltsovo", "municipalityName": "Ekaterinburg", "location": {"lat": 56.7431, "lon": 60.8027}, "countryCode": "RU"}, "averageDailyFlights": 1.71, "operators": [{"name": "UTAir", "iata": "UT", "icao": "UTA"}]}, {"destination": {"icao": "USMU", "iata": "NUX", "localCode": "\u041d\u0423\u0420", "name": "Novyy Urengoy Novy Urengoy", "shortName": "Novy Urengoy", "municipalityName": "Novyy Urengoy", "location": {"lat": 66.0694, "lon": 76.5203}, "countryCode": "RU"}, "averageDailyFlights": 1.43, "operators": [{"name": "UTAir", "iata": "UT", "icao": "UTA"}, {"name": "Yamal Airlines", "iata": "YC", "icao": "LLM"}, {"name": "Gazpromavia", "iata": "4G", "icao": "GZP"}, {"name": "UVT Aero", "iata": "RT", "icao": "UVT"}]}, {"destination": {"icao": "URMM", "iata": "MRV", "localCode": "\u041c\u0420\u0412", "name": "Mineralnyye Vody ", "shortName": "Mineralnyye Vody", "municipalityName": "Mineralnyye Vody", "location": {"lat": 44.2251, "lon": 43.0819}, "countryCode": "RU"}, "averageDailyFlights": 1.29, "operators": [{"name": "Azimuth Airlines", "iata": "A4", "icao": "AZO"}, {"name": "Aeroflot", "iata": "SU", "icao": "AFL"}]}, {"destination": {"icao": "UUWW", "iata": "VKO", "localCode": "\u0412\u041d\u041a", "name": "Moscow Vnukovo", "shortName": "Vnukovo", "municipalityName": "Moscow", "location": {"lat": 55.5915, "lon": 37.2615}, "countryCode": "RU"}, "averageDailyFlights": 1.16, "operators": [{"name": "UTAir", "iata": "UT", "icao": "UTA"}, {"name": "Gazpromavia", "iata": "4G", "icao": "GZP"}]}, {"destination": {"icao": "URSS", "iata": "AER", "localCode": "\u0421\u041e\u0427", "name": "Sochi ", "shortName": "Sochi", "municipalityName": "Sochi", "location": {"lat": 43.4499, "lon": 39.9566}, "countryCode": "RU"}, "averageDailyFlights": 1.15, "operators": [{"name": "Nordwind Airlines", "iata": "N4", "icao": "NWS"}, {"name": "Pobeda", "iata": "DP", "icao": "PBD"}, {"name": "Aeroflot", "iata": "SU", "icao": "AFL"}, {"name": "Pegas Fly", "iata": "EO", "icao": "KAR"}]}, {"destination": {"icao": "UWKD", "iata": "KZN", "name": "Kazan ", "shortName": "Kazan", "municipalityName": "Kazan", "location": {"lat": 55.6062, "lon": 49.2787}, "countryCode": "RU"}, "averageDailyFlights": 1.14, "operators": [{"name": "UTAir", "iata": "UT", "icao": "UTA"}]}, {"destination": {"icao": "UNNT", "iata": "OVB", "localCode": "\u0422\u041b\u0427", "name": "Novosibirsk Tolmachevo", "shortName": "Tolmachevo", "municipalityName": "Novosibirsk", "location": {"lat": 55.0126, "lon": 82.6507}, "countryCode": "RU"}, "averageDailyFlights": 1.14, "operators": [{"name": "S7 Airlines", "iata": "S7", "icao": "SBI"}]}, {"destination": {"name": "Surgut"}, "averageDailyFlights": 1.14, "operators": [{"name": "UTAir", "iata": "UT", "icao": "UTA"}]}, {"destination": {"icao": "USTR", "iata": "TJM", "localCode": "\u0420\u0429\u041d", "name": "Tyumen Roshchino", "shortName": "Roshchino", "municipalityName": "Tyumen", "location": {"lat": 57.1896, "lon": 65.3243}, "countryCode": "RU"}, "averageDailyFlights": 1.0, "operators": [{"name": "UTAir", "iata": "UT", "icao": "UTA"}, {"name": "Gazpromavia", "iata": "4G", "icao": "GZP"}]}, {"destination": {"icao": "USRK", "iata": "KGP", "localCode": "\u041a\u041e\u0413", "name": "Kogalym ", "shortName": "Kogalym", "municipalityName": "Kogalym", "location": {"lat": 62.1904, "lon": 74.5338}, "countryCode": "RU"}, "averageDailyFlights": 0.71, "operators": [{"name": "UTAir", "iata": "UT", "icao": "UTA"}]}, {"destination": {"icao": "UBBB", "iata": "GYD", "localCode": "\u0411\u0410\u041a", "name": "Baku Heydar Aliyev", "shortName": "Heydar Aliyev", "municipalityName": "Baku", "location": {"lat": 40.4675, "lon": 50.0467}, "countryCode": "AZ"}, "averageDailyFlights": 0.57, "operators": [{"name": "AZAL Azerbaijan Airlines", "iata": "J2", "icao": "AHY"}, {"name": "UTAir", "iata": "UT", "icao": "UTA"}]}, {"destination": {"icao": "OMDB", "iata": "DXB", "name": "Dubai ", "shortName": "Dubai", "municipalityName": "Dubai", "location": {"lat": 25.252798, "lon": 55.3644}, "countryCode": "AE"}, "averageDailyFlights": 0.57, "operators": [{"name": "flydubai", "iata": "FZ", "icao": "FDB"}]}, {"destination": {"icao": "USHH", "iata": "HMA", "localCode": "\u0425\u0410\u0421", "name": "Khanty-Mansiysk Khanty Mansiysk", "shortName": "Khanty Mansiysk", "municipalityName": "Khanty-Mansiysk", "location": {"lat": 61.0285, "lon": 69.0861}, "countryCode": "RU"}, "averageDailyFlights": 0.57, "operators": [{"name": "UTAir", "iata": "UT", "icao": "UTA"}]}, {"destination": {"icao": "USNN", "iata": "NJC", "localCode": "\u041d\u0416\u0412", "name": "Nizhnevartovsk ", "shortName": "Nizhnevartovsk", "municipalityName": "Nizhnevartovsk", "location": {"lat": 60.9493, "lon": 76.4836}, "countryCode": "RU"}, "averageDailyFlights": 0.57, "operators": [{"name": "UTAir", "iata": "UT", "icao": "UTA"}, {"name": "Izhavia", "iata": "I8", "icao": "IZA"}]}, {"destination": {"icao": "OMSJ", "iata": "SHJ", "name": "Sharjah ", "shortName": "Sharjah", "municipalityName": "Sharjah", "location": {"lat": 25.3286, "lon": 55.5172}, "countryCode": "AE"}, "averageDailyFlights": 0.57, "operators": [{"name": "Air Arabia", "iata": "G9", "icao": "ABY"}]}, {"destination": {"icao": "UTTT", "iata": "TAS", "localCode": "\u0422\u0410\u0421", "name": "Tashkent ", "shortName": "Tashkent", "municipalityName": "Tashkent", "location": {"lat": 41.2579, "lon": 69.2812}, "countryCode": "UZ"}, "averageDailyFlights": 0.57, "operators": [{"name": "UTAir", "iata": "UT", "icao": "UTA"}, {"name": "Uzbekistan Airways", "iata": "HY", "icao": "UZB"}]}, {"destination": {"icao": "UTDD", "iata": "DYU", "localCode": "\u0414\u0428\u0411", "name": "Dushanbe ", "shortName": "Dushanbe", "municipalityName": "Dushanbe", "location": {"lat": 38.5433, "lon": 68.825}, "countryCode": "TJ"}, "averageDailyFlights": 0.45, "operators": [{"name": "Nordwind Airlines", "iata": "N4", "icao": "NWS"}, {"name": "Ural Airlines", "iata": "U6", "icao": "SVR"}]}, {"destination": {"icao": "UIII", "iata": "IKT", "localCode": "\u0418\u041a\u0422", "name": "Irkutsk ", "shortName": "Irkutsk", "municipalityName": "Irkutsk", "location": {"lat": 52.268, "lon": 104.389}, "countryCode": "RU"}, "averageDailyFlights": 0.43, "operators": [{"name": "NordStar Airlines", "iata": "Y7", "icao": "TYA"}, {"name": "S7 Airlines", "iata": "S7", "icao": "SBI"}]}, {"destination": {"icao": "UNKL", "iata": "KJA", "localCode": "\u041a\u042f\u0410", "name": "Krasnoyarsk Yemelyanovo", "shortName": "Yemelyanovo", "municipalityName": "Krasnoyarsk", "location": {"lat": 56.1729, "lon": 92.4933}, "countryCode": "RU"}, "averageDailyFlights": 0.43, "operators": [{"name": "NordStar Airlines", "iata": "Y7", "icao": "TYA"}, {"name": "Azimuth Airlines", "iata": "A4", "icao": "AZO"}]}, {"destination": {"icao": "UOOO", "iata": "NSK", "localCode": "\u041d\u0410\u041a", "name": "Norilsk Alykel", "shortName": "Alykel", "municipalityName": "Norilsk", "location": {"lat": 69.3111, "lon": 87.3322}, "countryCode": "RU"}, "averageDailyFlights": 0.43, "operators": [{"name": "NordStar Airlines", "iata": "Y7", "icao": "TYA"}]}, {"destination": {"icao": "USRO", "iata": "NOJ", "localCode": "\u041d\u041e\u042f", "name": "Noyabrsk ", "shortName": "Noyabrsk", "municipalityName": "Noyabrsk", "location": {"lat": 63.1833, "lon": 75.27}, "countryCode": "RU"}, "averageDailyFlights": 0.43, "operators": [{"name": "Yamal Airlines", "iata": "YC", "icao": "LLM"}]}, {"destination": {"icao": "UNOO", "iata": "OMS", "localCode": "\u041e\u041c\u0421", "name": "Omsk Central", "shortName": "Central", "municipalityName": "Omsk", "location": {"lat": 54.967, "lon": 73.3105}, "countryCode": "RU"}, "averageDailyFlights": 0.43, "operators": [{"name": "Azimuth Airlines", "iata": "A4", "icao": "AZO"}]}, {"destination": {"icao": "UECT", "iata": "TLK", "localCode": "\u0422\u041b\u041a", "name": "Talakan ", "shortName": "Talakan", "municipalityName": "Talakan", "location": {"lat": 59.868214, "lon": 111.03635}, "countryCode": "RU"}, "averageDailyFlights": 0.43, "operators": [{"name": "UTAir", "iata": "UT", "icao": "UTA"}]}, {"destination": {"name": "Vladikavkaz"}, "averageDailyFlights": 0.43, "operators": [{"name": "Pegas Fly", "iata": "EO", "icao": "KAR"}]}, {"destination": {"icao": "UDYZ", "iata": "EVN", "localCode": "\u0417\u0412\u0420", "name": "Yerevan Zvartnots", "shortName": "Zvartnots", "municipalityName": "Yerevan", "location": {"lat": 40.1473, "lon": 44.3959}, "countryCode": "AM"}, "averageDailyFlights": 0.36, "operators": [{"name": "Red Wings", "iata": "WZ", "icao": "RWZ"}, {"name": "Azimuth Airlines", "iata": "A4", "icao": "AZO"}, {"name": "Shirak Avia", "iata": "5G", "icao": "SHS"}]}, {"destination": {"icao": "LTAI", "iata": "AYT", "name": "Antalya ", "shortName": "Antalya", "municipalityName": "Antalya", "location": {"lat": 36.8987, "lon": 30.8005}, "countryCode": "TR"}, "averageDailyFlights": 0.32, "operators": [{"name": "Red Wings", "iata": "WZ", "icao": "RWZ"}, {"name": "Air Stork", "iata": "2S", "icao": "MSB"}]}, {"destination": {"icao": "URWA", "iata": "ASF", "localCode": "\u0410\u0421\u0420", "name": "Astrakhan ", "shortName": "Astrakhan", "municipalityName": "Astrakhan", "location": {"lat": 46.2833, "lon": 48.0063}, "countryCode": "RU"}, "averageDailyFlights": 0.29, "operators": [{"name": "Azimuth Airlines", "iata": "A4", "icao": "AZO"}]}, {"destination": {"icao": "URML", "iata": "MCX", "localCode": "\u041c\u0425\u041b", "name": "Makhachkala Uytash", "shortName": "Uytash", "municipalityName": "Makhachkala", "location": {"lat": 42.8168, "lon": 47.6523}, "countryCode": "RU"}, "averageDailyFlights": 0.29, "operators": [{"name": "Nordwind Airlines", "iata": "N4", "icao": "NWS"}]}, {"destination": {"icao": "USMM", "iata": "NYM", "localCode": "\u041d\u0414\u041c", "name": "Nadym ", "shortName": "Nadym", "municipalityName": "Nadym", "location": {"lat": 65.4809, "lon": 72.6989}, "countryCode": "RU"}, "averageDailyFlights": 0.29, "operators": [{"name": "Yamal Airlines", "iata": "YC", "icao": "LLM"}]}, {"destination": {"icao": "UTFN", "iata": "NMA", "localCode": "\u041d\u041c\u0413", "name": "Namangan ", "shortName": "Namangan", "municipalityName": "Namangan", "location": {"lat": 40.9846, "lon": 71.5567}, "countryCode": "UZ"}, "averageDailyFlights": 0.29, "operators": [{"name": "Uzbekistan Airways", "iata": "HY", "icao": "UZB"}]}, {"destination": {"icao": "ULAM", "iata": "NNM", "localCode": "\u041d\u041d\u0420", "name": "Naryan Mar ", "shortName": "Naryan Mar", "municipalityName": "Naryan Mar", "location": {"lat": 67.64, "lon": 53.1219}, "countryCode": "RU"}, "averageDailyFlights": 0.29, "operators": [{"name": "RusLine", "iata": "7R", "icao": "RLU"}]}, {"destination": {"icao": "UCFO", "iata": "OSS", "localCode": "\u041e\u0428\u0428", "name": "Osh ", "shortName": "Osh", "municipalityName": "Osh", "location": {"lat": 40.609, "lon": 72.7933}, "countryCode": "KG"}, "averageDailyFlights": 0.29, "operators": [{"name": "Nordwind Airlines", "iata": "N4", "icao": "NWS"}]}, {"destination": {"icao": "VTSP", "iata": "HKT", "name": "Phuket ", "shortName": "Phuket", "municipalityName": "Phuket", "location": {"lat": 8.1132, "lon": 98.3169}, "countryCode": "TH"}, "averageDailyFlights": 0.29, "operators": [{"name": "AZUR Air", "iata": "ZF", "icao": "KTK"}, {"name": "Red Wings", "iata": "WZ", "icao": "RWZ"}]}, {"destination": {"icao": "USDD", "iata": "SLY", "localCode": "\u0421\u0425\u0414", "name": "Salekhard ", "shortName": "Salekhard", "municipalityName": "Salekhard", "location": {"lat": 66.5908, "lon": 66.611}, "countryCode": "RU"}, "averageDailyFlights": 0.29, "operators": [{"name": "Yamal Airlines", "iata": "YC", "icao": "LLM"}]}, {"destination": {"icao": "UWSG", "iata": "GSV", "localCode": "\u0413\u0421\u0412", "name": "Saratov Gagarin International", "shortName": "Gagarin International", "municipalityName": "Saratov", "location": {"lat": 51.71811, "lon": 46.169918}, "countryCode": "RU"}, "averageDailyFlights": 0.29, "operators": [{"name": "Azimuth Airlines", "iata": "A4", "icao": "AZO"}]}, {"destination": {"icao": "UUYS", "iata": "USK", "localCode": "\u0423\u0421\u041d", "name": "Usinsk ", "shortName": "Usinsk", "municipalityName": "Usinsk", "location": {"lat": 66.0047, "lon": 57.3672}, "countryCode": "RU"}, "averageDailyFlights": 0.29, "operators": [{"name": "UVT Aero", "iata": "RT", "icao": "UVT"}]}, {"destination": {"name": "Istanbul"}, "averageDailyFlights": 0.29, "operators": [{"name": "Red Wings", "iata": "WZ", "icao": "RWZ"}]}, {"destination": {"name": "Sharm el Sheikh"}, "averageDailyFlights": 0.29, "operators": [{"name": "Air Stork", "iata": "2S", "icao": "MSB"}]}, {"destination": {"name": "Yamburg"}, "averageDailyFlights": 0.29, "operators": [{"name": "Gazpromavia", "iata": "4G", "icao": "GZP"}]}, {"destination": {"icao": "UAAA", "iata": "ALA", "localCode": "\u0410\u041b\u0410", "name": "Almaty ", "shortName": "Almaty", "municipalityName": "Almaty", "location": {"lat": 43.3521, "lon": 77.0405}, "countryCode": "KZ"}, "averageDailyFlights": 0.14, "operators": [{"name": "Red Wings", "iata": "WZ", "icao": "RWZ"}]}, {"destination": {"icao": "UTFF", "iata": "FEG", "localCode": "\u0424\u0413\u041d", "name": "Fergana ", "shortName": "Fergana", "municipalityName": "Fergana", "location": {"lat": 40.3588, "lon": 71.745}, "countryCode": "UZ"}, "averageDailyFlights": 0.14, "operators": [{"name": "Uzbekistan Airways", "iata": "HY", "icao": "UZB"}]}, {"destination": {"icao": "UNEE", "iata": "KEJ", "localCode": "\u041a\u0420\u0412", "name": "Kemerovo ", "shortName": "Kemerovo", "municipalityName": "Kemerovo", "location": {"lat": 55.2701, "lon": 86.1072}, "countryCode": "RU"}, "averageDailyFlights": 0.14, "operators": [{"name": "Azimuth Airlines", "iata": "A4", "icao": "AZO"}]}, {"destination": {"icao": "UTDL", "iata": "LBD", "localCode": "\u0425\u0414\u0422", "name": "Khudzhand ", "shortName": "Khudzhand", "municipalityName": "Khudzhand", "location": {"lat": 40.2154, "lon": 69.6947}, "countryCode": "TJ"}, "averageDailyFlights": 0.14, "operators": [{"name": "Nordwind Airlines", "iata": "N4", "icao": "NWS"}]}, {"destination": {"icao": "UMMS", "iata": "MSQ", "localCode": "\u041c\u0418\u041a", "name": "Minsk National", "shortName": "National", "municipalityName": "Minsk", "location": {"lat": 53.8825, "lon": 28.0307}, "countryCode": "BY"}, "averageDailyFlights": 0.14, "operators": [{"name": "Red Wings", "iata": "WZ", "icao": "RWZ"}]}, {"destination": {"icao": "UERR", "iata": "MJZ", "localCode": "\u041c\u0418\u0420", "name": "Mirny ", "shortName": "Mirny", "municipalityName": "Mirny", "location": {"lat": 62.5347, "lon": 114.039}, "countryCode": "RU"}, "averageDailyFlights": 0.14, "operators": [{"name": "NordStar Airlines", "iata": "Y7", "icao": "TYA"}]}, {"destination": {"icao": "UNWW", "iata": "NOZ", "localCode": "\u041d\u0412\u041a", "name": "Novokuznetsk Spichenkovo", "shortName": "Spichenkovo", "municipalityName": "Novokuznetsk", "location": {"lat": 53.8114, "lon": 86.8772}, "countryCode": "RU"}, "averageDailyFlights": 0.14, "operators": [{"name": "Red Wings", "iata": "WZ", "icao": "RWZ"}]}, {"destination": {"icao": "UTSS", "iata": "SKD", "localCode": "\u0421\u041a\u0414", "name": "Samarkand ", "shortName": "Samarkand", "municipalityName": "Samarkand", "location": {"lat": 39.7005, "lon": 66.9838}, "countryCode": "UZ"}, "averageDailyFlights": 0.14, "operators": [{"name": "Azimuth Airlines", "iata": "A4", "icao": "AZO"}]}, {"destination": {"icao": "UGTB", "iata": "TBS", "name": "Tbilisi ", "shortName": "Tbilisi", "municipalityName": "Tbilisi", "location": {"lat": 41.6692, "lon": 44.9547}, "countryCode": "GE"}, "averageDailyFlights": 0.14, "operators": [{"name": "Azimuth Airlines", "iata": "A4", "icao": "AZO"}]}, {"destination": {"icao": "URWW", "iata": "VOG", "localCode": "\u0412\u0413\u0413", "name": "Volgograd ", "shortName": "Volgograd", "municipalityName": "Volgograd", "location": {"lat": 48.7825, "lon": 44.3455}, "countryCode": "RU"}, "averageDailyFlights": 0.14, "operators": [{"name": "Azimuth Airlines", "iata": "A4", "icao": "AZO"}]}, {"destination": {"name": "Astana"}, "averageDailyFlights": 0.14, "operators": [{"name": "Red Wings", "iata": "WZ", "icao": "RWZ"}]}]}