{"routes": [{"destination": {"icao": "VTBS", "iata": "BKK", "name": "Bangkok Suvarnabhumi", "shortName": "Suvarnabhumi", "municipalityName": "Bangkok", "location": {"lat": 13.681099, "lon": 100.747}, "countryCode": "TH"}, "averageDailyFlights": 1.14, "operators": [{"name": "Thai Airways International", "iata": "TG", "icao": "THA"}]}, {"destination": {"icao": "VECC", "iata": "CCU", "name": "Kolkata Netaji Subhash Chandra Bose", "shortName": "Netaji Subhash Chandra Bose", "municipalityName": "Kolkata", "location": {"lat": 22.6547, "lon": 88.4467}, "countryCode": "IN"}, "averageDailyFlights": 1.14, "operators": [{"name": "IndiGo", "iata": "6E", "icao": "IGO"}]}, {"destination": {"icao": "VIDP", "iata": "DEL", "name": "New Delhi Indira Gandhi", "shortName": "Indira Gandhi", "municipalityName": "New Delhi", "location": {"lat": 28.5665, "lon": 77.1031}, "countryCode": "IN"}, "averageDailyFlights": 1.14, "operators": [{"name": "IndiGo", "iata": "6E", "icao": "IGO"}]}, {"destination": {"icao": "VTBD", "iata": "DMK", "name": "Bangkok Don Mueang", "shortName": "Don Mueang", "municipalityName": "Bangkok", "location": {"lat": 13.912599, "lon": 100.607}, "countryCode": "TH"}, "averageDailyFlights": 0.43, "operators": [{"name": "Thai AirAsia", "iata": "FD", "icao": "AIQ"}]}, {"destination": {"icao": "VYYY", "iata": "RGN", "name": "Yangon ", "shortName": "Yangon", "municipalityName": "Yangon", "location": {"lat": 16.9073, "lon": 96.1332}, "countryCode": "MM"}, "averageDailyFlights": 0.43, "operators": [{"name": "Myanmar Airways International", "iata": "8M", "icao": "MMA"}]}]}