{"routes": [{"destination": {"icao": "VIDP", "iata": "DEL", "name": "New Delhi Indira Gandhi", "shortName": "Indira Gandhi", "municipalityName": "New Delhi", "location": {"lat": 28.5665, "lon": 77.1031}, "countryCode": "IN"}, "averageDailyFlights": 11.43, "operators": [{"name": "Air India", "iata": "AI", "icao": "AIC"}, {"name": "IndiGo", "iata": "6E", "icao": "IGO"}, {"name": "Vistara", "iata": "UK", "icao": "VTI"}, {"name": "Nepal Airlines", "iata": "RA", "icao": "RNA"}, {"name": "Bhutan Airlines", "iata": "B3", "icao": "BTN"}]}, {"destination": {"icao": "VNPK", "iata": "PKR", "name": "Pokhara ", "shortName": "Pokhara", "municipalityName": "Pokhara", "location": {"lat": 28.2009, "lon": 83.9821}, "countryCode": "NP"}, "averageDailyFlights": 9.29, "operators": [{"name": "Yeti Airlines", "iata": "YT", "icao": "NYT"}, {"name": "Buddha Air", "iata": "U4", "icao": "BHA"}]}, {"destination": {"icao": "VNVT", "iata": "BIR", "name": "Biratnagar ", "shortName": "Biratnagar", "municipalityName": "Biratnagar", "location": {"lat": 26.4815, "lon": 87.264}, "countryCode": "NP"}, "averageDailyFlights": 8.0, "operators": [{"name": "Yeti Airlines", "iata": "YT", "icao": "NYT"}, {"name": "Buddha Air", "iata": "U4", "icao": "BHA"}]}, {"destination": {"icao": "VNBW", "iata": "BWA", "name": "Bhairawa Bhairahawa", "shortName": "Bhairahawa", "municipalityName": "Bhairawa", "location": {"lat": 27.5057, "lon": 83.4163}, "countryCode": "NP"}, "averageDailyFlights": 6.71, "operators": [{"name": "Yeti Airlines", "iata": "YT", "icao": "NYT"}, {"name": "Buddha Air", "iata": "U4", "icao": "BHA"}]}, {"destination": {"icao": "OMDB", "iata": "DXB", "name": "Dubai ", "shortName": "Dubai", "municipalityName": "Dubai", "location": {"lat": 25.252798, "lon": 55.3644}, "countryCode": "AE"}, "averageDailyFlights": 5.36, "operators": [{"name": "Nepal Airlines", "iata": "RA", "icao": "RNA"}, {"name": "flydubai", "iata": "FZ", "icao": "FDB"}, {"name": "Himalaya Airlines", "iata": "H9", "icao": "HIM"}]}, {"destination": {"icao": "OTHH", "iata": "DOH", "name": "Doha Hamad", "shortName": "Hamad", "municipalityName": "Doha", "location": {"lat": 25.273056, "lon": 51.608055}, "countryCode": "QA"}, "averageDailyFlights": 5.14, "operators": [{"name": "Qatar Airways", "iata": "QR", "icao": "QTR"}, {"name": "Himalaya Airlines", "iata": "H9", "icao": "HIM"}, {"name": "Nepal Airlines", "iata": "RA", "icao": "RNA"}]}, {"destination": {"icao": "WMKK", "iata": "KUL", "name": "Kuala Lumpur ", "shortName": "Kuala Lumpur", "municipalityName": "Kuala Lumpur", "location": {"lat": 2.745579, "lon": 101.71}, "countryCode": "MY"}, "averageDailyFlights": 4.0, "operators": [{"name": "Himalaya Airlines", "iata": "H9", "icao": "HIM"}, {"name": "Malindo Air", "iata": "OD", "icao": "MXD"}, {"name": "Malaysia Airlines", "iata": "MH", "icao": "MAS"}, {"name": "Nepal Airlines", "iata": "RA", "icao": "RNA"}]}, {"destination": {"icao": "VNSI", "iata": "SIF", "name": "Simara ", "shortName": "Simara", "municipalityName": "Simara", "location": {"lat": 27.1595, "lon": 84.9801}, "countryCode": "NP"}, "averageDailyFlights": 3.14, "operators": [{"name": "Yeti Airlines", "iata": "YT", "icao": "NYT"}, {"name": "Buddha Air", "iata": "U4", "icao": "BHA"}]}, {"destination": {"icao": "VNCG", "iata": "BDP", "name": "Bhadrapur ", "shortName": "Bhadrapur", "municipalityName": "Bhadrapur", "location": {"lat": 26.5708, "lon": 88.0796}, "countryCode": "NP"}, "averageDailyFlights": 2.86, "operators": [{"name": "Yeti Airlines", "iata": "YT", "icao": "NYT"}, {"name": "Buddha Air", "iata": "U4", "icao": "BHA"}]}, {"destination": {"icao": "VTBS", "iata": "BKK", "name": "Bangkok Suvarnabhumi", "shortName": "Suvarnabhumi", "municipalityName": "Bangkok", "location": {"lat": 13.681099, "lon": 100.747}, "countryCode": "TH"}, "averageDailyFlights": 2.71, "operators": [{"name": "Thai Airways International", "iata": "TG", "icao": "THA"}, {"name": "Nepal Airlines", "iata": "RA", "icao": "RNA"}]}, {"destination": {"icao": "VGHS", "iata": "DAC", "name": "Dhaka Hazrat Shahjalal", "shortName": "Hazrat Shahjalal", "municipalityName": "Dhaka", "location": {"lat": 23.843348, "lon": 90.39778}, "countryCode": "BD"}, "averageDailyFlights": 2.71, "operators": [{"name": "Biman Bangladesh Airlines", "iata": "BG", "icao": "BBC"}, {"name": "Himalaya Airlines", "iata": "H9", "icao": "HIM"}]}, {"destination": {"name": "Chengdu"}, "averageDailyFlights": 2.29, "operators": [{"name": "Sichuan Airlines", "iata": "3U", "icao": "CSC"}, {"name": "Air China", "iata": "CA", "icao": "CCA"}]}, {"destination": {"icao": "OKBK", "iata": "KWI", "name": "Kuwait City Kuwait", "shortName": "Kuwait", "municipalityName": "Kuwait City", "location": {"lat": 29.2266, "lon": 47.9689}, "countryCode": "KW"}, "averageDailyFlights": 2.0, "operators": [{"name": "Jazeera Airways", "iata": "J9", "icao": "JZR"}, {"name": "Kuwait Airways", "iata": "KU", "icao": "KAC"}]}, {"destination": {"icao": "VNNG", "iata": "KEP", "name": "Nepalgunj ", "shortName": "Nepalgunj", "municipalityName": "Nepalgunj", "location": {"lat": 28.1036, "lon": 81.667}, "countryCode": "NP"}, "averageDailyFlights": 2.0, "operators": [{"name": "Yeti Airlines", "iata": "YT", "icao": "NYT"}, {"name": "Buddha Air", "iata": "U4", "icao": "BHA"}]}, {"destination": {"icao": "VABB", "iata": "BOM", "name": "Mumbai Chhatrapati Shivaji", "shortName": "Chhatrapati Shivaji", "municipalityName": "Mumbai", "location": {"lat": 19.0887, "lon": 72.8679}, "countryCode": "IN"}, "averageDailyFlights": 1.57, "operators": [{"name": "IndiGo", "iata": "6E", "icao": "IGO"}, {"name": "Nepal Airlines", "iata": "RA", "icao": "RNA"}]}, {"destination": {"icao": "OMSJ", "iata": "SHJ", "name": "Sharjah ", "shortName": "Sharjah", "municipalityName": "Sharjah", "location": {"lat": 25.3286, "lon": 55.5172}, "countryCode": "AE"}, "averageDailyFlights": 1.57, "operators": [{"name": "Air Arabia", "iata": "G9", "icao": "ABY"}]}, {"destination": {"icao": "VQPR", "iata": "PBH", "name": "Paro ", "shortName": "Paro", "municipalityName": "Paro", "location": {"lat": 27.4032, "lon": 89.4246}, "countryCode": "BT"}, "averageDailyFlights": 1.43, "operators": [{"name": "Drukair", "iata": "KB", "icao": "DRK"}, {"name": "Bhutan Airlines", "iata": "B3", "icao": "BTN"}]}, {"destination": {"icao": "VNBP", "iata": "BHR", "name": "Bharatpur ", "shortName": "Bharatpur", "municipalityName": "Bharatpur", "location": {"lat": 27.6781, "lon": 84.4294}, "countryCode": "NP"}, "averageDailyFlights": 1.29, "operators": [{"name": "Buddha Air", "iata": "U4", "icao": "BHA"}]}, {"destination": {"icao": "VHHH", "iata": "HKG", "name": "Hong Kong Chek Lap Kok", "shortName": "Chek Lap Kok", "municipalityName": "Hong Kong", "location": {"lat": 22.3089, "lon": 113.915}, "countryCode": "HK"}, "averageDailyFlights": 1.16, "operators": [{"name": "Nepal Airlines", "iata": "RA", "icao": "RNA"}, {"name": "Cathay Pacific", "iata": "CX", "icao": "CPA"}, {"name": "Himalaya Airlines", "iata": "H9", "icao": "HIM"}]}, {"destination": {"icao": "ZGGG", "iata": "CAN", "name": "Guangzhou Baiyun", "shortName": "Baiyun", "municipalityName": "Guangzhou", "location": {"lat": 23.3924, "lon": 113.299}, "countryCode": "CN"}, "averageDailyFlights": 1.14, "operators": [{"name": "China Southern Airlines", "iata": "CZ", "icao": "CSN"}]}, {"destination": {"icao": "WSSS", "iata": "SIN", "name": "Singapore Changi", "shortName": "Changi", "municipalityName": "Singapore", "location": {"lat": 1.35019, "lon": 103.994}, "countryCode": "SG"}, "averageDailyFlights": 1.14, "operators": [{"name": "Singapore Airlines", "iata": "SQ", "icao": "SIA"}]}, {"destination": {"icao": "OEDF", "iata": "DMM", "name": "Ad Dammam King Fahd", "shortName": "King Fahd", "municipalityName": "Ad Dammam", "location": {"lat": 26.4712, "lon": 49.7979}, "countryCode": "SA"}, "averageDailyFlights": 1.0, "operators": [{"name": "Himalaya Airlines", "iata": "H9", "icao": "HIM"}]}, {"destination": {"icao": "VNLK", "iata": "LUA", "name": "Lukla ", "shortName": "Lukla", "municipalityName": "Lukla", "location": {"lat": 27.6869, "lon": 86.7297}, "countryCode": "NP"}, "averageDailyFlights": 1.0, "operators": [{"name": "Yeti Airlines", "iata": "YT", "icao": "NYT"}]}, {"destination": {"icao": "VCBI", "iata": "CMB", "name": "Colombo Bandaranaike", "shortName": "Bandaranaike", "municipalityName": "Colombo", "location": {"lat": 7.180759, "lon": 79.8841}, "countryCode": "LK"}, "averageDailyFlights": 0.86, "operators": [{"name": "SriLankan Airlines", "iata": "UL", "icao": "ALK"}]}, {"destination": {"icao": "VNJP", "iata": "JKR", "name": "Janakpur Dham Janakpur", "shortName": "Janakpur", "municipalityName": "Janakpur Dham", "location": {"lat": 26.7088, "lon": 85.9224}, "countryCode": "NP"}, "averageDailyFlights": 0.86, "operators": [{"name": "Buddha Air", "iata": "U4", "icao": "BHA"}, {"name": "Yeti Airlines", "iata": "YT", "icao": "NYT"}]}, {"destination": {"icao": "OMAA", "iata": "AUH", "name": "Abu Dhabi Island and Internal Islands City Abu Dhabi", "shortName": "Abu Dhabi", "municipalityName": "Abu Dhabi Island and Internal Islands City", "location": {"lat": 24.433, "lon": 54.6511}, "countryCode": "AE"}, "averageDailyFlights": 0.71, "operators": [{"name": "Air Arabia Abu Dhabi", "iata": "3L", "icao": "ADY"}]}, {"destination": {"icao": "VECC", "iata": "CCU", "name": "Kolkata Netaji Subhash Chandra Bose", "shortName": "Netaji Subhash Chandra Bose", "municipalityName": "Kolkata", "location": {"lat": 22.6547, "lon": 88.4467}, "countryCode": "IN"}, "averageDailyFlights": 0.71, "operators": [{"name": "Air India", "iata": "AI", "icao": "AIC"}]}, {"destination": {"icao": "ZPPP", "iata": "KMG", "name": "Kunming Changshui", "shortName": "Changshui", "municipalityName": "Kunming", "location": {"lat": 25.101944, "lon": 102.92917}, "countryCode": "CN"}, "averageDailyFlights": 0.57, "operators": [{"name": "China Eastern Airlines", "iata": "MU", "icao": "CES"}]}, {"destination": {"name": "Istanbul"}, "averageDailyFlights": 0.57, "operators": [{"name": "Turkish Airlines", "iata": "TK", "icao": "THY"}]}, {"destination": {"icao": "RKSI", "iata": "ICN", "name": "Seoul Incheon", "shortName": "Incheon", "municipalityName": "Seoul", "location": {"lat": 37.4691, "lon": 126.451}, "countryCode": "KR"}, "averageDailyFlights": 0.46, "operators": [{"name": "Korean Air", "iata": "KE", "icao": "KAL"}]}, {"destination": {"icao": "VOBL", "iata": "BLR", "name": "Bangalore Bengaluru", "shortName": "Bengaluru", "municipalityName": "Bangalore", "location": {"lat": 13.197899, "lon": 77.7063}, "countryCode": "IN"}, "averageDailyFlights": 0.43, "operators": [{"name": "Nepal Airlines", "iata": "RA", "icao": "RNA"}]}, {"destination": {"icao": "RJAA", "iata": "NRT", "name": "Tokyo Narita", "shortName": "Narita", "municipalityName": "Tokyo", "location": {"lat": 35.7647, "lon": 140.386}, "countryCode": "JP"}, "averageDailyFlights": 0.43, "operators": [{"name": "Nepal Airlines", "iata": "RA", "icao": "RNA"}]}, {"destination": {"icao": "VTBD", "iata": "DMK", "name": "Bangkok Don Mueang", "shortName": "Don Mueang", "municipalityName": "Bangkok", "location": {"lat": 13.912599, "lon": 100.607}, "countryCode": "TH"}, "averageDailyFlights": 0.29, "operators": [{"name": "Thai Lion Air", "iata": "SL", "icao": "TLM"}]}, {"destination": {"icao": "ZUCK", "iata": "CKG", "name": "Chongqing Jiangbei", "shortName": "Jiangbei", "municipalityName": "Chongqing", "location": {"lat": 29.7192, "lon": 106.642}, "countryCode": "CN"}, "averageDailyFlights": 0.29, "operators": [{"name": "Himalaya Airlines", "iata": "H9", "icao": "HIM"}]}, {"destination": {"icao": "VNDH", "iata": "DHI", "name": "Dhangarhi ", "shortName": "Dhangarhi", "municipalityName": "Dhangarhi", "location": {"lat": 28.7533, "lon": 80.5819}, "countryCode": "NP"}, "averageDailyFlights": 0.29, "operators": [{"name": "Buddha Air", "iata": "U4", "icao": "BHA"}]}, {"destination": {"icao": "OERK", "iata": "RUH", "name": "Riyadh King Khaled", "shortName": "King Khaled", "municipalityName": "Riyadh", "location": {"lat": 24.9576, "lon": 46.6988}, "countryCode": "SA"}, "averageDailyFlights": 0.29, "operators": [{"name": "Himalaya Airlines", "iata": "H9", "icao": "HIM"}]}, {"destination": {"icao": "ZSPD", "iata": "PVG", "name": "Shanghai Pudong", "shortName": "Pudong", "municipalityName": "Shanghai", "location": {"lat": 31.1434, "lon": 121.805}, "countryCode": "CN"}, "averageDailyFlights": 0.29, "operators": [{"name": "Himalaya Airlines", "iata": "H9", "icao": "HIM"}]}, {"destination": {"icao": "VNSK", "iata": "SKH", "name": "Surkhet ", "shortName": "Surkhet", "municipalityName": "Surkhet", "location": {"lat": 28.586, "lon": 81.636}, "countryCode": "NP"}, "averageDailyFlights": 0.29, "operators": [{"name": "Buddha Air", "iata": "U4", "icao": "BHA"}]}, {"destination": {"icao": "ZBAD", "iata": "PKX", "name": "Beijing Daxing", "shortName": "Daxing", "municipalityName": "Beijing", "location": {"lat": 39.509167, "lon": 116.41055}, "countryCode": "CN"}, "averageDailyFlights": 0.14, "operators": [{"name": "Himalaya Airlines", "iata": "H9", "icao": "HIM"}]}, {"destination": {"icao": "ZSQD", "iata": "TAO", "name": "Qingdao Liuting", "shortName": "Liuting", "municipalityName": "Qingdao", "location": {"lat": 36.2661, "lon": 120.374}, "countryCode": "CN"}, "averageDailyFlights": 0.14, "operators": [{"name": "Himalaya Airlines", "iata": "H9", "icao": "HIM"}]}, {"destination": {"icao": "VNRB", "iata": "RJB", "name": "Rajbiraj ", "shortName": "Rajbiraj", "municipalityName": "Rajbiraj", "location": {"lat": 26.517, "lon": 86.75}, "countryCode": "NP"}, "averageDailyFlights": 0.14, "operators": [{"name": "Buddha Air", "iata": "U4", "icao": "BHA"}]}, {"destination": {"icao": "VNTR", "iata": "TMI", "name": "Tumling Tar ", "shortName": "Tumling Tar", "municipalityName": "Tumling Tar", "location": {"lat": 27.315, "lon": 87.1933}, "countryCode": "NP"}, "averageDailyFlights": 0.14, "operators": [{"name": "Buddha Air", "iata": "U4", "icao": "BHA"}]}, {"destination": {"name": "Lhasa"}, "averageDailyFlights": 0.14, "operators": [{"name": "Himalaya Airlines", "iata": "H9", "icao": "HIM"}]}]}