{"routes": [{"destination": {"icao": "WAAA", "iata": "UPG", "name": "Ujung Pandang-Celebes Island Hasanuddin", "shortName": "Hasanuddin", "municipalityName": "Ujung Pandang-Celebes Island", "location": {"lat": -5.061629, "lon": 119.554}, "countryCode": "ID"}, "averageDailyFlights": 3.29, "operators": [{"name": "Sriwijaya Air", "iata": "SJ", "icao": "SJY"}, {"name": "Batik Air", "iata": "ID", "icao": "BTK"}, {"name": "Lion Air", "iata": "JT", "icao": "LNI"}, {"name": "Garuda Indonesia", "iata": "GA", "icao": "GIA"}]}, {"destination": {"icao": "WIII", "iata": "CGK", "name": "Jakarta Soekarno-Hatta", "shortName": "Soekarno-Hatta", "municipalityName": "Jakarta", "location": {"lat": -6.125569, "lon": 106.656}, "countryCode": "ID"}, "averageDailyFlights": 2.29, "operators": [{"name": "Garuda Indonesia", "iata": "GA", "icao": "GIA"}, {"name": "Batik Air", "iata": "ID", "icao": "BTK"}]}, {"destination": {"icao": "WASF", "iata": "FKQ", "name": "Fakfak-Papua Island Fakfak", "shortName": "Fakfak", "municipalityName": "Fakfak-Papua Island", "location": {"lat": -2.92019, "lon": 132.267}, "countryCode": "ID"}, "averageDailyFlights": 2.14, "operators": [{"name": "Wings Air (Indonesia)", "iata": "IW", "icao": "WON"}]}, {"destination": {"icao": "WASR", "iata": "MKW", "name": "Manokwari-Papua Island Rendani", "shortName": "Rendani", "municipalityName": "Manokwari-Papua Island", "location": {"lat": -0.891833, "lon": 134.049}, "countryCode": "ID"}, "averageDailyFlights": 1.86, "operators": [{"name": "Lion Air", "iata": "JT", "icao": "LNI"}, {"name": "Sriwijaya Air", "iata": "SJ", "icao": "SJY"}]}, {"destination": {"icao": "WAPP", "iata": "AMQ", "name": "Ambon City Ambon", "shortName": "Ambon", "municipalityName": "Ambon City", "location": {"lat": -3.710259, "lon": 128.089}, "countryCode": "ID"}, "averageDailyFlights": 1.14, "operators": [{"name": "Wings Air (Indonesia)", "iata": "IW", "icao": "WON"}]}, {"destination": {"icao": "WASK", "iata": "KNG", "name": "Kaimana-Papua Island Kaimana", "shortName": "Kaimana", "municipalityName": "Kaimana-Papua Island", "location": {"lat": -3.64452, "lon": 133.696}, "countryCode": "ID"}, "averageDailyFlights": 1.14, "operators": [{"name": "Wings Air (Indonesia)", "iata": "IW", "icao": "WON"}]}, {"destination": {"icao": "WASO", "iata": "BXB", "name": "Babo-Papua Island Babo", "shortName": "Babo", "municipalityName": "Babo-Papua Island", "location": {"lat": -2.532239, "lon": 133.439}, "countryCode": "ID"}, "averageDailyFlights": 1.0, "operators": [{"name": "Wings Air (Indonesia)", "iata": "IW", "icao": "WON"}]}, {"destination": {"icao": "WAJJ", "iata": "DJJ", "name": "Jayapura-Papua Island Sentani", "shortName": "Sentani", "municipalityName": "Jayapura-Papua Island", "location": {"lat": -2.57695, "lon": 140.516}, "countryCode": "ID"}, "averageDailyFlights": 0.57, "operators": [{"name": "Lion Air", "iata": "JT", "icao": "LNI"}]}, {"destination": {"icao": "WAMM", "iata": "MDC", "name": "Manado-Celebes Island Sam Ratulangi", "shortName": "Sam Ratulangi", "municipalityName": "Manado-Celebes Island", "location": {"lat": 1.54926, "lon": 124.926}, "countryCode": "ID"}, "averageDailyFlights": 0.57, "operators": [{"name": "Lion Air", "iata": "JT", "icao": "LNI"}]}, {"destination": {"icao": "WADD", "iata": "DPS", "name": "Denpasar-Bali Island Ngurah Rai (Bali)", "shortName": "Ngurah Rai (Bali)", "municipalityName": "Denpasar-Bali Island", "location": {"lat": -8.748169, "lon": 115.167}, "countryCode": "ID"}, "averageDailyFlights": 0.14, "operators": [{"name": "Garuda Indonesia", "iata": "GA", "icao": "GIA"}]}]}