{"routes": [{"destination": {"name": "\u00dcr\u00fcmqi"}, "averageDailyFlights": 7.86, "operators": [{"name": "Loong Air", "iata": "GJ", "icao": "CDC"}, {"name": "Xiamen Airlines", "iata": "MF", "icao": "CXA"}, {"name": "Shandong Airlines", "iata": "SC", "icao": "CDG"}, {"name": "Okay Airways", "iata": "BK", "icao": "OKA"}, {"name": "Tianjin Airlines", "iata": "GS", "icao": "GCR"}]}, {"destination": {"icao": "ZHCC", "iata": "CGO", "name": "Zhengzhou Xinzheng", "shortName": "Xinzheng", "municipalityName": "Zhengzhou", "location": {"lat": 34.5197, "lon": 113.841}, "countryCode": "CN"}, "averageDailyFlights": 6.43, "operators": [{"name": "Xiamen Airlines", "iata": "MF", "icao": "CXA"}, {"name": "Shenzhen Airlines", "iata": "ZH", "icao": "CSZ"}, {"name": "China Southern Airlines", "iata": "CZ", "icao": "CSN"}, {"name": "Hainan Airlines", "iata": "HU", "icao": "CHH"}, {"name": "Shanghai Airlines", "iata": "FM", "icao": "CSH"}, {"name": "Shandong Airlines", "iata": "SC", "icao": "CDG"}, {"name": "Urumqi Airlines", "iata": "UQ", "icao": "CUH"}]}, {"destination": {"name": "Chengdu"}, "averageDailyFlights": 5.71, "operators": [{"name": "Loong Air", "iata": "GJ", "icao": "CDC"}, {"name": "Air China", "iata": "CA", "icao": "CCA"}, {"name": "China Eastern Airlines", "iata": "MU", "icao": "CES"}, {"name": "Sichuan Airlines", "iata": "3U", "icao": "CSC"}]}, {"destination": {"icao": "ZPPP", "iata": "KMG", "name": "Kunming Changshui", "shortName": "Changshui", "municipalityName": "Kunming", "location": {"lat": 25.101944, "lon": 102.92917}, "countryCode": "CN"}, "averageDailyFlights": 4.0, "operators": [{"name": "China Eastern Airlines", "iata": "MU", "icao": "CES"}, {"name": "Lucky Air", "iata": "8L", "icao": "LKE"}]}, {"destination": {"icao": "ZHHH", "iata": "WUH", "name": "Wuhan Tianhe", "shortName": "Tianhe", "municipalityName": "Wuhan", "location": {"lat": 30.7838, "lon": 114.208}, "countryCode": "CN"}, "averageDailyFlights": 3.57, "operators": [{"name": "China Southern Airlines", "iata": "CZ", "icao": "CSN"}, {"name": "Xiamen Airlines", "iata": "MF", "icao": "CXA"}, {"name": "Loong Air", "iata": "GJ", "icao": "CDC"}, {"name": "China Eastern Airlines", "iata": "MU", "icao": "CES"}]}, {"destination": {"icao": "ZSHC", "iata": "HGH", "name": "Hangzhou Xiaoshan", "shortName": "Xiaoshan", "municipalityName": "Hangzhou", "location": {"lat": 30.2295, "lon": 120.434}, "countryCode": "CN"}, "averageDailyFlights": 3.51, "operators": [{"name": "Beijing Capital Airlines", "iata": "JD", "icao": "CBJ"}, {"name": "Air China", "iata": "CA", "icao": "CCA"}, {"name": "Loong Air", "iata": "GJ", "icao": "CDC"}]}, {"destination": {"icao": "ZUCK", "iata": "CKG", "name": "Chongqing Jiangbei", "shortName": "Jiangbei", "municipalityName": "Chongqing", "location": {"lat": 29.7192, "lon": 106.642}, "countryCode": "CN"}, "averageDailyFlights": 3.43, "operators": [{"name": "Sichuan Airlines", "iata": "3U", "icao": "CSC"}, {"name": "LongJiang Airlines", "iata": "LT", "icao": "SNG"}, {"name": "Air China", "iata": "CA", "icao": "CCA"}]}, {"destination": {"icao": "ZSNJ", "iata": "NKG", "name": "Nanjing Lukou", "shortName": "Lukou", "municipalityName": "Nanjing", "location": {"lat": 31.742, "lon": 118.862}, "countryCode": "CN"}, "averageDailyFlights": 3.43, "operators": [{"name": "China Eastern Airlines", "iata": "MU", "icao": "CES"}, {"name": "Shenzhen Airlines", "iata": "ZH", "icao": "CSZ"}]}, {"destination": {"icao": "ZBAD", "iata": "PKX", "name": "Beijing Daxing", "shortName": "Daxing", "municipalityName": "Beijing", "location": {"lat": 39.509167, "lon": 116.41055}, "countryCode": "CN"}, "averageDailyFlights": 2.95, "operators": [{"name": "China Eastern Airlines", "iata": "MU", "icao": "CES"}, {"name": "Hebei Airlines", "iata": "NS", "icao": "HBH"}, {"name": "Xiamen Airlines", "iata": "MF", "icao": "CXA"}, {"name": "Air China", "iata": "CA", "icao": "CCA"}]}, {"destination": {"icao": "ZSPD", "iata": "PVG", "name": "Shanghai Pudong", "shortName": "Pudong", "municipalityName": "Shanghai", "location": {"lat": 31.1434, "lon": 121.805}, "countryCode": "CN"}, "averageDailyFlights": 2.86, "operators": [{"name": "Spring Airlines", "iata": "9C", "icao": "CQH"}, {"name": "Air China", "iata": "CA", "icao": "CCA"}, {"name": "China Eastern Airlines", "iata": "MU", "icao": "CES"}]}, {"destination": {"icao": "ZGGG", "iata": "CAN", "name": "Guangzhou Baiyun", "shortName": "Baiyun", "municipalityName": "Guangzhou", "location": {"lat": 23.3924, "lon": 113.299}, "countryCode": "CN"}, "averageDailyFlights": 2.71, "operators": [{"name": "China Southern Airlines", "iata": "CZ", "icao": "CSN"}, {"name": "Beijing Capital Airlines", "iata": "JD", "icao": "CBJ"}]}, {"destination": {"icao": "ZGHA", "iata": "CSX", "name": "Changsha Huanghua", "shortName": "Huanghua", "municipalityName": "Changsha", "location": {"lat": 28.1892, "lon": 113.22}, "countryCode": "CN"}, "averageDailyFlights": 2.48, "operators": [{"name": "Loong Air", "iata": "GJ", "icao": "CDC"}, {"name": "Xiamen Airlines", "iata": "MF", "icao": "CXA"}, {"name": "Okay Airways", "iata": "BK", "icao": "OKA"}]}, {"destination": {"icao": "ZBHH", "iata": "HET", "name": "Hohhot Baita", "shortName": "Baita", "municipalityName": "Hohhot", "location": {"lat": 40.8514, "lon": 111.824}, "countryCode": "CN"}, "averageDailyFlights": 2.29, "operators": [{"name": "Air China", "iata": "CA", "icao": "CCA"}, {"name": "China Eastern Airlines", "iata": "MU", "icao": "CES"}]}, {"destination": {"icao": "ZSSS", "iata": "SHA", "name": "Shanghai Hongqiao", "shortName": "Hongqiao", "municipalityName": "Shanghai", "location": {"lat": 31.1979, "lon": 121.336}, "countryCode": "CN"}, "averageDailyFlights": 2.29, "operators": [{"name": "Xiamen Airlines", "iata": "MF", "icao": "CXA"}, {"name": "Loong Air", "iata": "GJ", "icao": "CDC"}]}, {"destination": {"icao": "ZSFZ", "iata": "FOC", "name": "Fuzhou Changle", "shortName": "Changle", "municipalityName": "Fuzhou", "location": {"lat": 25.9351, "lon": 119.663}, "countryCode": "CN"}, "averageDailyFlights": 2.14, "operators": [{"name": "Xiamen Airlines", "iata": "MF", "icao": "CXA"}, {"name": "China Eastern Airlines", "iata": "MU", "icao": "CES"}]}, {"destination": {"icao": "ZSOF", "iata": "HFE", "name": "Hefei Luogang", "shortName": "Luogang", "municipalityName": "Hefei", "location": {"lat": 31.78, "lon": 117.298}, "countryCode": "CN"}, "averageDailyFlights": 1.71, "operators": [{"name": "Spring Airlines", "iata": "9C", "icao": "CQH"}, {"name": "China Eastern Airlines", "iata": "MU", "icao": "CES"}]}, {"destination": {"icao": "ZSQD", "iata": "TAO", "name": "Qingdao Liuting", "shortName": "Liuting", "municipalityName": "Qingdao", "location": {"lat": 36.2661, "lon": 120.374}, "countryCode": "CN"}, "averageDailyFlights": 1.71, "operators": [{"name": "Shandong Airlines", "iata": "SC", "icao": "CDG"}, {"name": "China Eastern Airlines", "iata": "MU", "icao": "CES"}]}, {"destination": {"icao": "ZLXY", "iata": "XIY", "name": "Xianyang Xi'an", "shortName": "Xi'an", "municipalityName": "Xianyang", "location": {"lat": 34.4471, "lon": 108.752}, "countryCode": "CN"}, "averageDailyFlights": 1.71, "operators": [{"name": "China Eastern Airlines", "iata": "MU", "icao": "CES"}]}, {"destination": {"icao": "ZLXN", "iata": "XNN", "name": "Xining Caojiabu", "shortName": "Caojiabu", "municipalityName": "Xining", "location": {"lat": 36.5275, "lon": 102.043}, "countryCode": "CN"}, "averageDailyFlights": 1.71, "operators": [{"name": "Shandong Airlines", "iata": "SC", "icao": "CDG"}]}, {"destination": {"icao": "ZBAA", "iata": "PEK", "name": "Beijing Capital", "shortName": "Capital", "municipalityName": "Beijing", "location": {"lat": 40.0801, "lon": 116.585}, "countryCode": "CN"}, "averageDailyFlights": 1.14, "operators": [{"name": "Grand China Air", "iata": "CN", "icao": "GDC"}]}, {"destination": {"icao": "ZYCC", "iata": "CGQ", "name": "Changchun Longjia", "shortName": "Longjia", "municipalityName": "Changchun", "location": {"lat": 43.9962, "lon": 125.685}, "countryCode": "CN"}, "averageDailyFlights": 1.14, "operators": [{"name": "Loong Air", "iata": "GJ", "icao": "CDC"}]}, {"destination": {"icao": "ZHES", "iata": "ENH", "name": "Enshi ", "shortName": "Enshi", "municipalityName": "Enshi", "location": {"lat": 30.3203, "lon": 109.485}, "countryCode": "CN"}, "averageDailyFlights": 1.14, "operators": [{"name": "China Eastern Airlines", "iata": "MU", "icao": "CES"}]}, {"destination": {"icao": "ZUGY", "iata": "KWE", "name": "Guiyang Longdongbao", "shortName": "Longdongbao", "municipalityName": "Guiyang", "location": {"lat": 26.5385, "lon": 106.801}, "countryCode": "CN"}, "averageDailyFlights": 1.14, "operators": [{"name": "China Southern Airlines", "iata": "CZ", "icao": "CSN"}]}, {"destination": {"icao": "ZLGY", "iata": "GYU", "name": "Guyuan Liupanshan", "shortName": "Liupanshan", "municipalityName": "Guyuan", "location": {"lat": 36.078888, "lon": 106.21694}, "countryCode": "CN"}, "averageDailyFlights": 1.14, "operators": [{"name": "Hebei Airlines", "iata": "NS", "icao": "HBH"}, {"name": "China Express Airlines", "iata": "G5", "icao": "HXA"}]}, {"destination": {"icao": "ZJHK", "iata": "HAK", "name": "Haikou Meilan", "shortName": "Meilan", "municipalityName": "Haikou", "location": {"lat": 19.9349, "lon": 110.459}, "countryCode": "CN"}, "averageDailyFlights": 1.14, "operators": [{"name": "Beijing Capital Airlines", "iata": "JD", "icao": "CBJ"}]}, {"destination": {"icao": "ZGNN", "iata": "NNG", "name": "Nanning Wuxu", "shortName": "Wuxu", "municipalityName": "Nanning", "location": {"lat": 22.6083, "lon": 108.172}, "countryCode": "CN"}, "averageDailyFlights": 1.14, "operators": [{"name": "Okay Airways", "iata": "BK", "icao": "OKA"}]}, {"destination": {"icao": "ZYTX", "iata": "SHE", "name": "Shenyang Taoxian", "shortName": "Taoxian", "municipalityName": "Shenyang", "location": {"lat": 41.6398, "lon": 123.483}, "countryCode": "CN"}, "averageDailyFlights": 1.14, "operators": [{"name": "China Eastern Airlines", "iata": "MU", "icao": "CES"}]}, {"destination": {"icao": "ZGSZ", "iata": "SZX", "name": "Shenzhen Bao'an", "shortName": "Bao'an", "municipalityName": "Shenzhen", "location": {"lat": 22.6393, "lon": 113.811}, "countryCode": "CN"}, "averageDailyFlights": 1.14, "operators": [{"name": "Shenzhen Airlines", "iata": "ZH", "icao": "CSZ"}]}, {"destination": {"icao": "ZBYN", "iata": "TYN", "name": "Taiyuan Wusu", "shortName": "Wusu", "municipalityName": "Taiyuan", "location": {"lat": 37.7469, "lon": 112.628}, "countryCode": "CN"}, "averageDailyFlights": 1.14, "operators": [{"name": "China Eastern Airlines", "iata": "MU", "icao": "CES"}]}, {"destination": {"icao": "ZSAM", "iata": "XMN", "name": "Xiamen Gaoqi", "shortName": "Gaoqi", "municipalityName": "Xiamen", "location": {"lat": 24.544, "lon": 118.128}, "countryCode": "CN"}, "averageDailyFlights": 1.14, "operators": [{"name": "Xiamen Airlines", "iata": "MF", "icao": "CXA"}]}, {"destination": {"icao": "ZLYA", "iata": "ENY", "name": "Yan'an ", "shortName": "Yan'an", "municipalityName": "Yan'an", "location": {"lat": 36.6369, "lon": 109.554}, "countryCode": "CN"}, "averageDailyFlights": 1.14, "operators": [{"name": "Qingdao Airlines", "iata": "QW", "icao": "QDA"}, {"name": "China Express Airlines", "iata": "G5", "icao": "HXA"}]}, {"destination": {"icao": "ZSYT", "iata": "YNT", "name": "Yantai Laishan", "shortName": "Laishan", "municipalityName": "Yantai", "location": {"lat": 37.4017, "lon": 121.372}, "countryCode": "CN"}, "averageDailyFlights": 1.14, "operators": [{"name": "China Eastern Airlines", "iata": "MU", "icao": "CES"}]}, {"destination": {"icao": "ZGZJ", "iata": "ZHA", "name": "Zhanjiang ", "shortName": "Zhanjiang", "municipalityName": "Zhanjiang", "location": {"lat": 21.2144, "lon": 110.358}, "countryCode": "CN"}, "averageDailyFlights": 1.14, "operators": [{"name": "Urumqi Airlines", "iata": "UQ", "icao": "CUH"}]}, {"destination": {"name": "Aqs\u016b"}, "averageDailyFlights": 1.14, "operators": [{"name": "Loong Air", "iata": "GJ", "icao": "CDC"}]}, {"destination": {"name": "Jinan"}, "averageDailyFlights": 1.14, "operators": [{"name": "Shandong Airlines", "iata": "SC", "icao": "CDG"}]}, {"destination": {"name": "Nantong"}, "averageDailyFlights": 1.14, "operators": [{"name": "Tianjin Airlines", "iata": "GS", "icao": "GCR"}]}, {"destination": {"name": "Xuzhou"}, "averageDailyFlights": 1.14, "operators": [{"name": "Loong Air", "iata": "GJ", "icao": "CDC"}]}, {"destination": {"name": "Zhuhai"}, "averageDailyFlights": 1.14, "operators": [{"name": "Xiamen Airlines", "iata": "MF", "icao": "CXA"}]}, {"destination": {"icao": "ZBTJ", "iata": "TSN", "name": "Tianjin Binhai", "shortName": "Binhai", "municipalityName": "Tianjin", "location": {"lat": 39.1244, "lon": 117.346}, "countryCode": "CN"}, "averageDailyFlights": 1.0, "operators": [{"name": "Air China", "iata": "CA", "icao": "CCA"}]}, {"destination": {"icao": "ZYHB", "iata": "HRB", "name": "Harbin Taiping", "shortName": "Taiping", "municipalityName": "Harbin", "location": {"lat": 45.6234, "lon": 126.25}, "countryCode": "CN"}, "averageDailyFlights": 0.71, "operators": [{"name": "LongJiang Airlines", "iata": "LT", "icao": "SNG"}]}, {"destination": {"icao": "ZSCN", "iata": "KHN", "name": "Nanchang Changbei", "shortName": "Changbei", "municipalityName": "Nanchang", "location": {"lat": 28.865, "lon": 115.9}, "countryCode": "CN"}, "averageDailyFlights": 0.71, "operators": [{"name": "Spring Airlines", "iata": "9C", "icao": "CQH"}]}, {"destination": {"icao": "ZBYC", "iata": "YCU", "name": "Yuncheng Guangong", "shortName": "Guangong", "municipalityName": "Yuncheng", "location": {"lat": 35.11639, "lon": 111.03139}, "countryCode": "CN"}, "averageDailyFlights": 0.71, "operators": [{"name": "Xiamen Airlines", "iata": "MF", "icao": "CXA"}]}, {"destination": {"icao": "ZLJQ", "iata": "JGN", "name": "Jiayuguan City Jiayuguan", "shortName": "Jiayuguan", "municipalityName": "Jiayuguan City", "location": {"lat": 39.8569, "lon": 98.3414}, "countryCode": "CN"}, "averageDailyFlights": 0.57, "operators": [{"name": "China Eastern Airlines", "iata": "MU", "icao": "CES"}]}, {"destination": {"icao": "ZPJH", "iata": "JHG", "name": "Jinghong Xishuangbanna Gasa", "shortName": "Xishuangbanna Gasa", "municipalityName": "Jinghong", "location": {"lat": 21.9739, "lon": 100.76}, "countryCode": "CN"}, "averageDailyFlights": 0.57, "operators": [{"name": "Loong Air", "iata": "GJ", "icao": "CDC"}]}, {"destination": {"icao": "ZSLY", "iata": "LYI", "name": "Linyi Shubuling", "shortName": "Shubuling", "municipalityName": "Linyi", "location": {"lat": 35.0461, "lon": 118.412}, "countryCode": "CN"}, "averageDailyFlights": 0.57, "operators": [{"name": "Loong Air", "iata": "GJ", "icao": "CDC"}]}, {"destination": {"icao": "ZBSJ", "iata": "SJW", "name": "Shijiazhuang Daguocun", "shortName": "Daguocun", "municipalityName": "Shijiazhuang", "location": {"lat": 38.2807, "lon": 114.697}, "countryCode": "CN"}, "averageDailyFlights": 0.57, "operators": [{"name": "Spring Airlines", "iata": "9C", "icao": "CQH"}]}, {"destination": {"icao": "ZHXF", "iata": "XFN", "name": "Xiangfan ", "shortName": "Xiangfan", "municipalityName": "Xiangfan", "location": {"lat": 32.1506, "lon": 112.291}, "countryCode": "CN"}, "averageDailyFlights": 0.57, "operators": [{"name": "Loong Air", "iata": "GJ", "icao": "CDC"}]}, {"destination": {"icao": "ZHYC", "iata": "YIH", "name": "Yichang ", "shortName": "Yichang", "municipalityName": "Yichang", "location": {"lat": 30.55655, "lon": 111.47999}, "countryCode": "CN"}, "averageDailyFlights": 0.57, "operators": [{"name": "GX Airlines", "iata": "GX", "icao": "CBG"}]}, {"destination": {"icao": "ZLYL", "iata": "UYN", "name": "Yulin ", "shortName": "Yulin", "municipalityName": "Yulin", "location": {"lat": 38.2692, "lon": 109.731}, "countryCode": "CN"}, "averageDailyFlights": 0.57, "operators": [{"name": "Tianjin Airlines", "iata": "GS", "icao": "GCR"}]}, {"destination": {"name": "Shankhayguan"}, "averageDailyFlights": 0.57, "operators": [{"name": "Urumqi Airlines", "iata": "UQ", "icao": "CUH"}]}, {"destination": {"name": "Yanchzhou"}, "averageDailyFlights": 0.57, "operators": [{"name": "Spring Airlines", "iata": "9C", "icao": "CQH"}]}, {"destination": {"icao": "VHHH", "iata": "HKG", "name": "Hong Kong Chek Lap Kok", "shortName": "Chek Lap Kok", "municipalityName": "Hong Kong", "location": {"lat": 22.3089, "lon": 113.915}, "countryCode": "HK"}, "averageDailyFlights": 0.29, "operators": [{"name": "Air China", "iata": "CA", "icao": "CCA"}]}, {"destination": {"icao": "ZBDS", "iata": "DSN", "name": "Ordos Ejin Horo", "shortName": "Ejin Horo", "municipalityName": "Ordos", "location": {"lat": 39.49, "lon": 109.86139}, "countryCode": "CN"}, "averageDailyFlights": 0.29, "operators": [{"name": "China Eastern Airlines", "iata": "MU", "icao": "CES"}]}, {"destination": {"name": "Dubai"}, "averageDailyFlights": 0.29, "operators": [{"name": "Sichuan Airlines", "iata": "3U", "icao": "CSC"}]}]}