{"routes": [{"destination": {"icao": "ZWWW", "iata": "URC", "name": "\u00dcr\u00fcmqi Diwopu", "shortName": "Diwopu", "municipalityName": "\u00dcr\u00fcmqi", "location": {"lat": 43.9071, "lon": 87.4742}, "countryCode": "CN"}, "averageDailyFlights": 3.29, "operators": [{"name": "China Southern Airlines", "iata": "CZ", "icao": "CSN"}, {"name": "Tianjin Airlines", "iata": "GS", "icao": "GCR"}]}, {"destination": {"icao": "ZWYN", "iata": "YIN", "name": "Yining ", "shortName": "Yining", "municipalityName": "Yining", "location": {"lat": 43.9558, "lon": 81.3303}, "countryCode": "CN"}, "averageDailyFlights": 1.14, "operators": [{"name": "China Express Airlines", "iata": "G5", "icao": "HXA"}, {"name": "Tianjin Airlines", "iata": "GS", "icao": "GCR"}]}, {"destination": {"icao": "ZWAK", "iata": "AKU", "name": "Aksu ", "shortName": "Aksu", "municipalityName": "Aksu", "location": {"lat": 41.2625, "lon": 80.2917}, "countryCode": "CN"}, "averageDailyFlights": 0.57, "operators": [{"name": "Chengdu Airlines", "iata": "EU", "icao": "UEA"}]}, {"destination": {"icao": "ZWAT", "iata": "AAT", "name": "Altay Air Base", "shortName": "Air Base", "municipalityName": "Altay", "location": {"lat": 47.749886, "lon": 88.08581}, "countryCode": "CN"}, "averageDailyFlights": 0.57, "operators": [{"name": "Tianjin Airlines", "iata": "GS", "icao": "GCR"}]}, {"destination": {"icao": "ZWKM", "iata": "KRY", "name": "Karamay ", "shortName": "Karamay", "municipalityName": "Karamay", "location": {"lat": 45.46655, "lon": 84.9527}, "countryCode": "CN"}, "averageDailyFlights": 0.57, "operators": [{"name": "Chengdu Airlines", "iata": "EU", "icao": "UEA"}]}, {"destination": {"name": "Chengdu"}, "averageDailyFlights": 0.57, "operators": [{"name": "Chengdu Airlines", "iata": "EU", "icao": "UEA"}]}, {"destination": {"name": "Xi'an"}, "averageDailyFlights": 0.57, "operators": [{"name": "Tianjin Airlines", "iata": "GS", "icao": "GCR"}]}, {"destination": {"icao": "ZSFZ", "iata": "FOC", "name": "Fuzhou Changle", "shortName": "Changle", "municipalityName": "Fuzhou", "location": {"lat": 25.9351, "lon": 119.663}, "countryCode": "CN"}, "averageDailyFlights": 0.43, "operators": [{"name": "Chengdu Airlines", "iata": "EU", "icao": "UEA"}]}, {"destination": {"icao": "ZYTX", "iata": "SHE", "name": "Shenyang Taoxian", "shortName": "Taoxian", "municipalityName": "Shenyang", "location": {"lat": 41.6398, "lon": 123.483}, "countryCode": "CN"}, "averageDailyFlights": 0.14, "operators": [{"name": "China Southern Airlines", "iata": "CZ", "icao": "CSN"}]}]}