{"routes": [{"destination": {"icao": "CYYZ", "iata": "YYZ", "name": "Toronto Pearson", "shortName": "Pearson", "municipalityName": "Toronto", "location": {"lat": 43.6772, "lon": -79.6306}, "countryCode": "CA"}, "averageDailyFlights": 5.57, "operators": [{"name": "Air Canada", "iata": "AC", "icao": "ACA"}]}, {"destination": {"icao": "CYUL", "iata": "YUL", "name": "Montreal Trudeau", "shortName": "Trudeau", "municipalityName": "Montreal", "location": {"lat": 45.4706, "lon": -73.7408}, "countryCode": "CA"}, "averageDailyFlights": 5.14, "operators": [{"name": "Air Canada", "iata": "AC", "icao": "ACA"}, {"name": "Air Inuit", "iata": "3H", "icao": "AIE"}]}, {"destination": {"icao": "CYZV", "iata": "YZV", "name": "Sept-\u00celes ", "shortName": "Sept-\u00celes", "municipalityName": "Sept-\u00celes", "location": {"lat": 50.2233, "lon": -66.2656}, "countryCode": "CA"}, "averageDailyFlights": 4.29, "operators": [{"name": "PAL Airlines", "iata": "PB", "icao": "PVL"}, {"name": "Air Liaison", "iata": "DU", "icao": "LIZ"}, {"name": "Air Inuit", "iata": "3H", "icao": "AIE"}]}, {"destination": {"icao": "CYHU", "iata": "YHU", "name": "Montreal Saint-Hubert", "shortName": "Saint-Hubert", "municipalityName": "Montreal", "location": {"lat": 45.5175, "lon": -73.4169}, "countryCode": "CA"}, "averageDailyFlights": 4.06, "operators": [{"name": "Pascan Aviation", "iata": "P6", "icao": "PSC"}, {"name": "Air Liaison", "iata": "DU", "icao": "LIZ"}, {"name": "PAL Airlines", "iata": "PB", "icao": "PVL"}, {"name": "Air Transat", "iata": "TS", "icao": "TSC"}]}, {"destination": {"icao": "KEWR", "iata": "EWR", "name": "Newark Liberty", "shortName": "Liberty", "municipalityName": "Newark", "location": {"lat": 40.6925, "lon": -74.1687}, "countryCode": "US"}, "averageDailyFlights": 2.57, "operators": [{"name": "United Airlines", "iata": "UA", "icao": "UAL"}]}, {"destination": {"icao": "CYGP", "iata": "YGP", "name": "Gasp\u00e9 (Michel-Pouliot)", "shortName": "(Michel-Pouliot)", "municipalityName": "Gasp\u00e9", "location": {"lat": 48.7753, "lon": -64.4786}, "countryCode": "CA"}, "averageDailyFlights": 2.0, "operators": [{"name": "Pascan Aviation", "iata": "P6", "icao": "PSC"}, {"name": "PAL Airlines", "iata": "PB", "icao": "PVL"}]}, {"destination": {"icao": "CYGR", "iata": "YGR", "name": "\u00celes-de-la-Madeleine ", "shortName": "\u00celes-de-la-Madeleine", "municipalityName": "\u00celes-de-la-Madeleine", "location": {"lat": 47.4247, "lon": -61.7781}, "countryCode": "CA"}, "averageDailyFlights": 1.57, "operators": [{"name": "Pascan Aviation", "iata": "P6", "icao": "PSC"}, {"name": "PAL Airlines", "iata": "PB", "icao": "PVL"}]}, {"destination": {"icao": "KPHL", "iata": "PHL", "name": "Philadelphia ", "shortName": "Philadelphia", "municipalityName": "Philadelphia", "location": {"lat": 39.8719, "lon": -75.2411}, "countryCode": "US"}, "averageDailyFlights": 1.29, "operators": [{"name": "American Airlines", "iata": "AA", "icao": "AAL"}, {"name": "Air Wisconsin", "iata": "ZW", "icao": "AWI"}]}, {"destination": {"icao": "KORD", "iata": "ORD", "name": "Chicago O'Hare", "shortName": "O'Hare", "municipalityName": "Chicago", "location": {"lat": 41.9786, "lon": -87.9048}, "countryCode": "US"}, "averageDailyFlights": 1.14, "operators": [{"name": "Envoy Air", "iata": "MQ", "icao": "ENY"}]}, {"destination": {"icao": "CYTZ", "iata": "YTZ", "name": "Toronto Billy Bishop  City Centre", "shortName": "Billy Bishop  City Centre", "municipalityName": "Toronto", "location": {"lat": 43.6275, "lon": -79.3962}, "countryCode": "CA"}, "averageDailyFlights": 1.14, "operators": [{"name": "Porter Airlines", "iata": "PD", "icao": "POE"}]}, {"destination": {"icao": "CYBC", "iata": "YBC", "name": "Baie-Comeau Baie Comeau", "shortName": "Baie Comeau", "municipalityName": "Baie-Comeau", "location": {"lat": 49.1325, "lon": -68.2044}, "countryCode": "CA"}, "averageDailyFlights": 1.0, "operators": [{"name": "Air Liaison", "iata": "DU", "icao": "LIZ"}]}, {"destination": {"icao": "CYYC", "iata": "YYC", "name": "Calgary ", "shortName": "Calgary", "municipalityName": "Calgary", "location": {"lat": 51.1139, "lon": -114.02}, "countryCode": "CA"}, "averageDailyFlights": 1.0, "operators": [{"name": "WestJet", "iata": "WS", "icao": "WJA"}, {"name": "Air Canada", "iata": "AC", "icao": "ACA"}]}, {"destination": {"icao": "CYYY", "iata": "YYY", "name": "Mont-Joli Mont Joli", "shortName": "Mont Joli", "municipalityName": "Mont-Joli", "location": {"lat": 48.6086, "lon": -68.2081}, "countryCode": "CA"}, "averageDailyFlights": 1.0, "operators": [{"name": "Pascan Aviation", "iata": "P6", "icao": "PSC"}]}, {"destination": {"icao": "CYOW", "iata": "YOW", "name": "Ottawa Macdonald-Cartier", "shortName": "Macdonald-Cartier", "municipalityName": "Ottawa", "location": {"lat": 45.3225, "lon": -75.6692}, "countryCode": "CA"}, "averageDailyFlights": 1.0, "operators": [{"name": "Air Canada", "iata": "AC", "icao": "ACA"}]}, {"destination": {"icao": "CYUY", "iata": "YUY", "name": "Rouyn-Noranda Rouyn Noranda", "shortName": "Rouyn Noranda", "municipalityName": "Rouyn-Noranda", "location": {"lat": 48.2061, "lon": -78.8356}, "countryCode": "CA"}, "averageDailyFlights": 0.86, "operators": [{"name": "Air Liaison", "iata": "DU", "icao": "LIZ"}]}, {"destination": {"icao": "CYVO", "iata": "YVO", "name": "Val-d'Or ", "shortName": "Val-d'Or", "municipalityName": "Val-d'Or", "location": {"lat": 48.0533, "lon": -77.7828}, "countryCode": "CA"}, "averageDailyFlights": 0.86, "operators": [{"name": "Air Liaison", "iata": "DU", "icao": "LIZ"}]}, {"destination": {"icao": "CYHZ", "iata": "YHZ", "name": "Halifax Stanfield", "shortName": "Stanfield", "municipalityName": "Halifax", "location": {"lat": 44.8808, "lon": -63.5086}, "countryCode": "CA"}, "averageDailyFlights": 0.57, "operators": [{"name": "Flair Airlines", "iata": "F8", "icao": "FLE"}]}, {"destination": {"icao": "LFPG", "iata": "CDG", "name": "Paris Charles de Gaulle", "shortName": "Charles de Gaulle", "municipalityName": "Paris", "location": {"lat": 49.0128, "lon": 2.549999}, "countryCode": "FR"}, "averageDailyFlights": 0.57, "operators": [{"name": "Air Transat", "iata": "TS", "icao": "TSC"}, {"name": "Air France", "iata": "AF", "icao": "AFR"}]}, {"destination": {"icao": "CYVR", "iata": "YVR", "name": "Vancouver ", "shortName": "Vancouver", "municipalityName": "Vancouver", "location": {"lat": 49.1939, "lon": -123.184}, "countryCode": "CA"}, "averageDailyFlights": 0.57, "operators": [{"name": "Air Canada", "iata": "AC", "icao": "ACA"}]}, {"destination": {"icao": "MMUN", "iata": "CUN", "name": "Canc\u00fan ", "shortName": "Canc\u00fan", "municipalityName": "Canc\u00fan", "location": {"lat": 21.0365, "lon": -86.8771}, "countryCode": "MX"}, "averageDailyFlights": 0.43, "operators": [{"name": "Air Canada", "iata": "AC", "icao": "ACA"}, {"name": "Sunwing", "iata": "WG", "icao": "SWG"}, {"name": "Air Transat", "iata": "TS", "icao": "TSC"}]}, {"destination": {"icao": "CYEG", "iata": "YEG", "name": "Edmonton ", "shortName": "Edmonton", "municipalityName": "Edmonton", "location": {"lat": 53.3097, "lon": -113.58}, "countryCode": "CA"}, "averageDailyFlights": 0.29, "operators": [{"name": "Flair Airlines", "iata": "F8", "icao": "FLE"}]}, {"destination": {"icao": "MDPC", "iata": "PUJ", "name": "Punta Cana ", "shortName": "Punta Cana", "municipalityName": "Punta Cana", "location": {"lat": 18.567398, "lon": -68.3634}, "countryCode": "DO"}, "averageDailyFlights": 0.29, "operators": [{"name": "Air Transat", "iata": "TS", "icao": "TSC"}, {"name": "Sunwing", "iata": "WG", "icao": "SWG"}]}, {"destination": {"icao": "MUCC", "iata": "CCC", "name": "Cayo Coco Jardines Del Rey", "shortName": "Jardines Del Rey", "municipalityName": "Cayo Coco", "location": {"lat": 22.461, "lon": -78.3284}, "countryCode": "CU"}, "averageDailyFlights": 0.14, "operators": [{"name": "Sunwing", "iata": "WG", "icao": "SWG"}]}, {"destination": {"icao": "KFLL", "iata": "FLL", "name": "Fort Lauderdale Hollywood", "shortName": "Hollywood", "municipalityName": "Fort Lauderdale", "location": {"lat": 26.0726, "lon": -80.1527}, "countryCode": "US"}, "averageDailyFlights": 0.14, "operators": [{"name": "Air Transat", "iata": "TS", "icao": "TSC"}]}, {"destination": {"icao": "KMDT", "iata": "MDT", "name": "Harrisburg ", "shortName": "Harrisburg", "municipalityName": "Harrisburg", "location": {"lat": 40.1935, "lon": -76.7634}, "countryCode": "US"}, "averageDailyFlights": 0.14, "operators": [{"name": "LXJ"}]}, {"destination": {"icao": "CYVP", "iata": "YVP", "name": "Kuujjuaq ", "shortName": "Kuujjuaq", "municipalityName": "Kuujjuaq", "location": {"lat": 58.0961, "lon": -68.4269}, "countryCode": "CA"}, "averageDailyFlights": 0.14, "operators": [{"name": "Air Inuit", "iata": "3H", "icao": "AIE"}]}, {"destination": {"icao": "EGKK", "iata": "LGW", "name": "London Gatwick", "shortName": "Gatwick", "municipalityName": "London", "location": {"lat": 51.1481, "lon": -0.190277}, "countryCode": "GB"}, "averageDailyFlights": 0.14, "operators": [{"name": "Air Transat", "iata": "TS", "icao": "TSC"}]}, {"destination": {"icao": "KTEB", "iata": "TEB", "name": "Teterboro ", "shortName": "Teterboro", "municipalityName": "Teterboro", "location": {"lat": 40.8501, "lon": -74.0608}, "countryCode": "US"}, "averageDailyFlights": 0.14, "operators": [{"name": "NetJets Aviation", "iata": "1I", "icao": "EJA"}]}, {"destination": {"icao": "MUVR", "iata": "VRA", "name": "Varadero Juan Gualberto Gomez", "shortName": "Juan Gualberto Gomez", "municipalityName": "Varadero", "location": {"lat": 23.0344, "lon": -81.4353}, "countryCode": "CU"}, "averageDailyFlights": 0.14, "operators": [{"name": "Sunwing", "iata": "WG", "icao": "SWG"}]}, {"destination": {"name": "Ostrova Madlen"}, "averageDailyFlights": 0.14, "operators": [{"name": "PAL Airlines", "iata": "PB", "icao": "PVL"}]}, {"destination": {"name": "Vabush"}, "averageDailyFlights": 0.14, "operators": [{"name": "PAL Airlines", "iata": "PB", "icao": "PVL"}]}]}