{"routes": [{"destination": {"icao": "CYYB", "iata": "YYB", "name": "North Bay ", "shortName": "North Bay", "municipalityName": "North Bay", "location": {"lat": 46.3636, "lon": -79.4228}, "countryCode": "CA"}, "averageDailyFlights": 1.86, "operators": [{"name": "Bearskin Airlines", "iata": "JV", "icao": "BLS"}]}, {"destination": {"icao": "CYYZ", "iata": "YYZ", "name": "Toronto Pearson", "shortName": "Pearson", "municipalityName": "Toronto", "location": {"lat": 43.6772, "lon": -79.6306}, "countryCode": "CA"}, "averageDailyFlights": 1.86, "operators": [{"name": "Air Canada", "iata": "AC", "icao": "ACA"}]}, {"destination": {"icao": "CYAM", "iata": "YAM", "name": "Sault Ste Marie ", "shortName": "Sault Ste Marie", "municipalityName": "Sault Ste Marie", "location": {"lat": 46.485, "lon": -84.5094}, "countryCode": "CA"}, "averageDailyFlights": 1.71, "operators": [{"name": "Bearskin Airlines", "iata": "JV", "icao": "BLS"}]}, {"destination": {"icao": "CYTZ", "iata": "YTZ", "name": "Toronto Billy Bishop  City Centre", "shortName": "Billy Bishop  City Centre", "municipalityName": "Toronto", "location": {"lat": 43.6275, "lon": -79.3962}, "countryCode": "CA"}, "averageDailyFlights": 1.0, "operators": [{"name": "Porter Airlines", "iata": "PD", "icao": "POE"}]}, {"destination": {"icao": "KBOS", "iata": "BOS", "name": "Boston General Edward Lawrence Logan", "shortName": "General Edward Lawrence Logan", "municipalityName": "Boston", "location": {"lat": 42.3643, "lon": -71.0052}, "countryCode": "US"}, "averageDailyFlights": 0.14, "operators": [{"name": "GAJ"}]}, {"destination": {"icao": "KMKE", "iata": "MKE", "name": "Milwaukee General Mitchell", "shortName": "General Mitchell", "municipalityName": "Milwaukee", "location": {"lat": 42.9472, "lon": -87.8966}, "countryCode": "US"}, "averageDailyFlights": 0.14, "operators": [{"name": "GAJ"}]}, {"destination": {"icao": "CYQT", "iata": "YQT", "name": "Thunder Bay ", "shortName": "Thunder Bay", "municipalityName": "Thunder Bay", "location": {"lat": 48.3719, "lon": -89.3239}, "countryCode": "CA"}, "averageDailyFlights": 0.14, "operators": [{"name": "Bearskin Airlines", "iata": "JV", "icao": "BLS"}]}]}