{"routes": [{"destination": {"icao": "LEPA", "iata": "PMI", "name": "Palma De Mallorca ", "shortName": "Palma De Mallorca", "municipalityName": "Palma De Mallorca", "location": {"lat": 39.5517, "lon": 2.73881}, "countryCode": "ES"}, "averageDailyFlights": 2.0, "operators": [{"name": "Ryanair", "iata": "FR", "icao": "RYR"}, {"name": "TUI Airways", "iata": "BY", "icao": "TOM"}, {"name": "AlbaStar", "iata": "AP", "icao": "LAV"}]}, {"destination": {"icao": "LEAL", "iata": "ALC", "name": "Alicante ", "shortName": "Alicante", "municipalityName": "Alicante", "location": {"lat": 38.2822, "lon": -0.558156}, "countryCode": "ES"}, "averageDailyFlights": 1.0, "operators": [{"name": "Ryanair", "iata": "FR", "icao": "RYR"}]}, {"destination": {"icao": "LEMG", "iata": "AGP", "name": "M\u00e1laga ", "shortName": "M\u00e1laga", "municipalityName": "M\u00e1laga", "location": {"lat": 36.6749, "lon": -4.49911}, "countryCode": "ES"}, "averageDailyFlights": 1.0, "operators": [{"name": "Ryanair", "iata": "FR", "icao": "RYR"}]}, {"destination": {"icao": "LPFR", "iata": "FAO", "name": "Faro ", "shortName": "Faro", "municipalityName": "Faro", "location": {"lat": 37.0144, "lon": -7.965909}, "countryCode": "PT"}, "averageDailyFlights": 0.86, "operators": [{"name": "Ryanair", "iata": "FR", "icao": "RYR"}]}, {"destination": {"icao": "LEGE", "iata": "GRO", "name": "Girona ", "shortName": "Girona", "municipalityName": "Girona", "location": {"lat": 41.901, "lon": 2.76055}, "countryCode": "ES"}, "averageDailyFlights": 0.86, "operators": [{"name": "Ryanair", "iata": "FR", "icao": "RYR"}]}, {"destination": {"icao": "ZUUU", "iata": "CTU", "name": "Chengdu Shuangliu", "shortName": "Shuangliu", "municipalityName": "Chengdu", "location": {"lat": 30.5785, "lon": 103.947}, "countryCode": "CN"}, "averageDailyFlights": 0.71, "operators": [{"name": "URO"}]}, {"destination": {"icao": "EGPH", "iata": "EDI", "name": "Edinburgh ", "shortName": "Edinburgh", "municipalityName": "Edinburgh", "location": {"lat": 55.95, "lon": -3.372499}, "countryCode": "GB"}, "averageDailyFlights": 0.57, "operators": [{"name": "Ryanair UK", "iata": "RK", "icao": "RUK"}]}, {"destination": {"icao": "GCTS", "iata": "TFS", "name": "Tenerife Island Tenerife South", "shortName": "Tenerife South", "municipalityName": "Tenerife Island", "location": {"lat": 28.0445, "lon": -16.5725}, "countryCode": "ES"}, "averageDailyFlights": 0.57, "operators": [{"name": "Ryanair", "iata": "FR", "icao": "RYR"}, {"name": "TUI Airways", "iata": "BY", "icao": "TOM"}]}, {"destination": {"icao": "EIDW", "iata": "DUB", "name": "Dublin ", "shortName": "Dublin", "municipalityName": "Dublin", "location": {"lat": 53.4213, "lon": -6.27007}, "countryCode": "IE"}, "averageDailyFlights": 0.43, "operators": [{"name": "Ryanair", "iata": "FR", "icao": "RYR"}]}, {"destination": {"icao": "LEMI", "iata": "RMU", "name": "Murcia -Corvera", "shortName": "-Corvera", "municipalityName": "Murcia", "location": {"lat": 37.80258, "lon": -1.125389}, "countryCode": "ES"}, "averageDailyFlights": 0.43, "operators": [{"name": "Ryanair", "iata": "FR", "icao": "RYR"}]}, {"destination": {"icao": "LTAI", "iata": "AYT", "name": "Antalya ", "shortName": "Antalya", "municipalityName": "Antalya", "location": {"lat": 36.8987, "lon": 30.8005}, "countryCode": "TR"}, "averageDailyFlights": 0.29, "operators": [{"name": "Freebird Airlines", "iata": "FH", "icao": "FHY"}]}, {"destination": {"icao": "LFBE", "iata": "EGC", "name": "Bergerac/Roumani\u00e8re Bergerac-Roumani\u00e8re", "shortName": "Bergerac-Roumani\u00e8re", "municipalityName": "Bergerac/Roumani\u00e8re", "location": {"lat": 44.8253, "lon": 0.518611}, "countryCode": "FR"}, "averageDailyFlights": 0.29, "operators": [{"name": "Ryanair", "iata": "FR", "icao": "RYR"}]}, {"destination": {"icao": "LHBP", "iata": "BUD", "name": "Budapest Ferenc Liszt", "shortName": "Ferenc Liszt", "municipalityName": "Budapest", "location": {"lat": 47.4369, "lon": 19.255598}, "countryCode": "HU"}, "averageDailyFlights": 0.29, "operators": [{"name": "Ryanair", "iata": "FR", "icao": "RYR"}]}, {"destination": {"icao": "LFMK", "iata": "CCF", "name": "Carcassonne/Salvaza Carcassonne", "shortName": "Carcassonne", "municipalityName": "Carcassonne/Salvaza", "location": {"lat": 43.216, "lon": 2.306319}, "countryCode": "FR"}, "averageDailyFlights": 0.29, "operators": [{"name": "Ryanair", "iata": "FR", "icao": "RYR"}]}, {"destination": {"icao": "LTBS", "iata": "DLM", "name": "Dalaman ", "shortName": "Dalaman", "municipalityName": "Dalaman", "location": {"lat": 36.7131, "lon": 28.7925}, "countryCode": "TR"}, "averageDailyFlights": 0.29, "operators": [{"name": "Freebird Airlines", "iata": "FH", "icao": "FHY"}]}, {"destination": {"icao": "GCLP", "iata": "LPA", "name": "Gran Canaria Island Gran Canaria", "shortName": "Gran Canaria", "municipalityName": "Gran Canaria Island", "location": {"lat": 27.9319, "lon": -15.386599}, "countryCode": "ES"}, "averageDailyFlights": 0.29, "operators": [{"name": "Ryanair", "iata": "FR", "icao": "RYR"}]}, {"destination": {"icao": "EPKK", "iata": "KRK", "name": "Krak\u00f3w John Paul II   -Balice", "shortName": "John Paul II   -Balice", "municipalityName": "Krak\u00f3w", "location": {"lat": 50.0777, "lon": 19.7848}, "countryCode": "PL"}, "averageDailyFlights": 0.29, "operators": [{"name": "Ryanair", "iata": "FR", "icao": "RYR"}]}, {"destination": {"icao": "GCRR", "iata": "ACE", "name": "Lanzarote Island Lanzarote", "shortName": "Lanzarote", "municipalityName": "Lanzarote Island", "location": {"lat": 28.9455, "lon": -13.605199}, "countryCode": "ES"}, "averageDailyFlights": 0.29, "operators": [{"name": "TUI Airways", "iata": "BY", "icao": "TOM"}]}, {"destination": {"icao": "LMML", "iata": "MLA", "name": "Luqa Malta", "shortName": "Malta", "municipalityName": "Luqa", "location": {"lat": 35.8575, "lon": 14.4775}, "countryCode": "MT"}, "averageDailyFlights": 0.29, "operators": [{"name": "Ryanair", "iata": "FR", "icao": "RYR"}]}, {"destination": {"icao": "LGRP", "iata": "RHO", "name": "Rodes Island Diagoras", "shortName": "Diagoras", "municipalityName": "Rodes Island", "location": {"lat": 36.4054, "lon": 28.0862}, "countryCode": "GR"}, "averageDailyFlights": 0.29, "operators": [{"name": "TUI Airways", "iata": "BY", "icao": "TOM"}, {"name": "Aegean Airlines", "iata": "A3", "icao": "AEE"}]}, {"destination": {"icao": "LIPZ", "iata": "VCE", "name": "Venice Marco Polo", "shortName": "Marco Polo", "municipalityName": "Venice", "location": {"lat": 45.5053, "lon": 12.3519}, "countryCode": "IT"}, "averageDailyFlights": 0.29, "operators": [{"name": "Ryanair", "iata": "FR", "icao": "RYR"}]}, {"destination": {"icao": "EPWR", "iata": "WRO", "name": "Wroc\u0142aw Copernicus", "shortName": "Copernicus", "municipalityName": "Wroc\u0142aw", "location": {"lat": 51.1027, "lon": 16.8858}, "countryCode": "PL"}, "averageDailyFlights": 0.29, "operators": [{"name": "Ryanair", "iata": "FR", "icao": "RYR"}]}, {"destination": {"icao": "LDZD", "iata": "ZAD", "name": "Zadar Zemunik", "shortName": "Zemunik", "municipalityName": "Zadar", "location": {"lat": 44.1083, "lon": 15.346699}, "countryCode": "HR"}, "averageDailyFlights": 0.29, "operators": [{"name": "Ryanair", "iata": "FR", "icao": "RYR"}]}, {"destination": {"icao": "LGIR", "iata": "HER", "name": "Heraklion Nikos Kazantzakis", "shortName": "Nikos Kazantzakis", "municipalityName": "Heraklion", "location": {"lat": 35.3397, "lon": 25.1803}, "countryCode": "GR"}, "averageDailyFlights": 0.14, "operators": [{"name": "TUI Airways", "iata": "BY", "icao": "TOM"}]}, {"destination": {"icao": "LGKF", "iata": "EFL", "name": "Kefallinia Island Kefallinia", "shortName": "Kefallinia", "municipalityName": "Kefallinia Island", "location": {"lat": 38.1201, "lon": 20.5005}, "countryCode": "GR"}, "averageDailyFlights": 0.14, "operators": [{"name": "TUI Airways", "iata": "BY", "icao": "TOM"}]}, {"destination": {"icao": "LEMH", "iata": "MAH", "name": "Menorca Island Menorca", "shortName": "Menorca", "municipalityName": "Menorca Island", "location": {"lat": 39.8626, "lon": 4.218649}, "countryCode": "ES"}, "averageDailyFlights": 0.14, "operators": [{"name": "TUI Airways", "iata": "BY", "icao": "TOM"}]}, {"destination": {"icao": "LCPH", "iata": "PFO", "name": "Paphos ", "shortName": "Paphos", "municipalityName": "Paphos", "location": {"lat": 34.718, "lon": 32.4857}, "countryCode": "CY"}, "averageDailyFlights": 0.14, "operators": [{"name": "TUI Airways", "iata": "BY", "icao": "TOM"}]}]}