{"routes": [{"destination": {"icao": "ESSV", "iata": "VBY", "name": "Visby ", "shortName": "Visby", "municipalityName": "Visby", "location": {"lat": 57.6628, "lon": 18.3462}, "countryCode": "SE"}, "averageDailyFlights": 7.29, "operators": [{"name": "Bra"}, {"name": "Braathens Regional", "iata": "TF", "icao": "BRX"}]}, {"destination": {"icao": "ESMS", "iata": "MMX", "name": "Malm\u00f6 Sturup", "shortName": "Sturup", "municipalityName": "Malm\u00f6", "location": {"lat": 55.536304, "lon": 13.376197}, "countryCode": "SE"}, "averageDailyFlights": 6.86, "operators": [{"name": "Braathens Regional", "iata": "TF", "icao": "BRX"}, {"name": "Bra"}]}, {"destination": {"icao": "ESGG", "iata": "GOT", "name": "Goteborg Gothenburg-Landvetter", "shortName": "Gothenburg-Landvetter", "municipalityName": "Goteborg", "location": {"lat": 57.6628, "lon": 12.2798}, "countryCode": "SE"}, "averageDailyFlights": 5.14, "operators": [{"name": "Bra"}, {"name": "Braathens Regional", "iata": "TF", "icao": "BRX"}, {"name": "JIV"}]}, {"destination": {"icao": "ESTA", "iata": "AGH", "name": "\u00c4ngelholm -Helsingborg", "shortName": "-Helsingborg", "municipalityName": "\u00c4ngelholm", "location": {"lat": 56.2961, "lon": 12.8471}, "countryCode": "SE"}, "averageDailyFlights": 4.86, "operators": [{"name": "Bra"}, {"name": "Braathens Regional", "iata": "TF", "icao": "BRX"}]}, {"destination": {"icao": "ESNU", "iata": "UME", "name": "Ume\u00e5 ", "shortName": "Ume\u00e5", "municipalityName": "Ume\u00e5", "location": {"lat": 63.7918, "lon": 20.2828}, "countryCode": "SE"}, "averageDailyFlights": 3.14, "operators": [{"name": "Braathens Regional", "iata": "TF", "icao": "BRX"}, {"name": "Bra"}]}, {"destination": {"icao": "EBBR", "iata": "BRU", "name": "Brussels ", "shortName": "Brussels", "municipalityName": "Brussels", "location": {"lat": 50.9014, "lon": 4.484439}, "countryCode": "BE"}, "averageDailyFlights": 2.86, "operators": [{"name": "Brussels Airlines", "iata": "SN", "icao": "BEL"}]}, {"destination": {"icao": "ESMT", "iata": "HAD", "name": "Halmstad ", "shortName": "Halmstad", "municipalityName": "Halmstad", "location": {"lat": 56.6911, "lon": 12.820199}, "countryCode": "SE"}, "averageDailyFlights": 2.86, "operators": [{"name": "Braathens Regional", "iata": "TF", "icao": "BRX"}, {"name": "Bra"}]}, {"destination": {"icao": "ESGT", "iata": "THN", "name": "Trollh\u00e4ttan -V\u00e4nersborg", "shortName": "-V\u00e4nersborg", "municipalityName": "Trollh\u00e4ttan", "location": {"lat": 58.3181, "lon": 12.345}, "countryCode": "SE"}, "averageDailyFlights": 1.57, "operators": [{"name": "Nyxair"}]}, {"destination": {"icao": "ESMX", "iata": "VXO", "name": "V\u00e4xj\u00f6 Kronoberg", "shortName": "Kronoberg", "municipalityName": "V\u00e4xj\u00f6", "location": {"lat": 56.9291, "lon": 14.727999}, "countryCode": "SE"}, "averageDailyFlights": 1.57, "operators": [{"name": "Bra"}]}, {"destination": {"icao": "EFHK", "iata": "HEL", "name": "Helsinki Vantaa", "shortName": "Vantaa", "municipalityName": "Helsinki", "location": {"lat": 60.3172, "lon": 24.9633}, "countryCode": "FI"}, "averageDailyFlights": 1.14, "operators": [{"name": "ABF"}, {"name": "Braathens Regional", "iata": "TF", "icao": "BRX"}, {"name": "Bra"}]}, {"destination": {"icao": "EKAH", "iata": "AAR", "name": "Aarhus ", "shortName": "Aarhus", "municipalityName": "Aarhus", "location": {"lat": 56.3, "lon": 10.619}, "countryCode": "DK"}, "averageDailyFlights": 0.86, "operators": [{"name": "Braathens Regional", "iata": "TF", "icao": "BRX"}, {"name": "Bra"}]}, {"destination": {"icao": "ESNZ", "iata": "OSD", "name": "\u00d6stersund \u00c5re", "shortName": "\u00c5re", "municipalityName": "\u00d6stersund", "location": {"lat": 63.1944, "lon": 14.5003}, "countryCode": "SE"}, "averageDailyFlights": 0.86, "operators": [{"name": "Bra"}, {"name": "Braathens Regional", "iata": "TF", "icao": "BRX"}]}, {"destination": {"icao": "ESNS", "iata": "SFT", "name": "Skellefte\u00e5 ", "shortName": "Skellefte\u00e5", "municipalityName": "Skellefte\u00e5", "location": {"lat": 64.6248, "lon": 21.0769}, "countryCode": "SE"}, "averageDailyFlights": 0.43, "operators": [{"name": "Braathens Regional", "iata": "TF", "icao": "BRX"}]}, {"destination": {"icao": "EDDF", "iata": "FRA", "name": "Frankfurt-am-Main ", "shortName": "Frankfurt-am-Main", "municipalityName": "Frankfurt-am-Main", "location": {"lat": 50.0264, "lon": 8.543129}, "countryCode": "DE"}, "averageDailyFlights": 0.14, "operators": [{"name": "VJT"}]}, {"destination": {"icao": "LSZH", "iata": "ZRH", "name": "Zurich Kloten", "shortName": "Kloten", "municipalityName": "Zurich", "location": {"lat": 47.4647, "lon": 8.549169}, "countryCode": "CH"}, "averageDailyFlights": 0.14, "operators": [{"name": "GMA"}]}]}