{"routes": [{"destination": {"icao": "GMMN", "iata": "CMN", "name": "Casablanca Mohammed V", "shortName": "Mohammed V", "municipalityName": "Casablanca", "location": {"lat": 33.3675, "lon": -7.58997}, "countryCode": "MA"}, "averageDailyFlights": 1.57, "operators": [{"name": "Royal Air Maroc", "iata": "AT", "icao": "RAM"}]}, {"destination": {"icao": "GMAD", "iata": "AGA", "name": "Agadir Al Massira", "shortName": "Al Massira", "municipalityName": "Agadir", "location": {"lat": 30.325, "lon": -9.413069}, "countryCode": "MA"}, "averageDailyFlights": 0.29, "operators": [{"name": "Royal Air Maroc", "iata": "AT", "icao": "RAM"}]}, {"destination": {"icao": "GCLP", "iata": "LPA", "name": "Gran Canaria Island Gran Canaria", "shortName": "Gran Canaria", "municipalityName": "Gran Canaria Island", "location": {"lat": 27.9319, "lon": -15.386599}, "countryCode": "ES"}, "averageDailyFlights": 0.29, "operators": [{"name": "Binter Canarias", "iata": "NT", "icao": "IBB"}]}, {"destination": {"icao": "GMML", "iata": "EUN", "name": "Laayoune Hassan I", "shortName": "Hassan I", "municipalityName": "Laayoune", "location": {"lat": 27.1517, "lon": -13.2192}, "countryCode": "EH"}, "averageDailyFlights": 0.29, "operators": [{"name": "Royal Air Maroc", "iata": "AT", "icao": "RAM"}]}, {"destination": {"icao": "LFPO", "iata": "ORY", "name": "Paris -Orly", "shortName": "-Orly", "municipalityName": "Paris", "location": {"lat": 48.7253, "lon": 2.35944}, "countryCode": "FR"}, "averageDailyFlights": 0.14, "operators": [{"name": "Royal Air Maroc", "iata": "AT", "icao": "RAM"}]}]}