{"routes": [{"destination": {"icao": "EBBR", "iata": "BRU", "name": "Brussels ", "shortName": "Brussels", "municipalityName": "Brussels", "location": {"lat": 50.9014, "lon": 4.484439}, "countryCode": "BE"}, "averageDailyFlights": 3.29, "operators": [{"name": "Air Arabia Maroc", "iata": "3O", "icao": "MAC"}, {"name": "Royal Air Maroc", "iata": "AT", "icao": "RAM"}, {"name": "TUI Airlines Belgium", "iata": "TB", "icao": "JAF"}, {"name": "Brussels Airlines", "iata": "SN", "icao": "BEL"}]}, {"destination": {"icao": "LEBL", "iata": "BCN", "name": "Barcelona ", "shortName": "Barcelona", "municipalityName": "Barcelona", "location": {"lat": 41.2971, "lon": 2.078459}, "countryCode": "ES"}, "averageDailyFlights": 1.86, "operators": [{"name": "Ryanair", "iata": "FR", "icao": "RYR"}, {"name": "Air Arabia Maroc", "iata": "3O", "icao": "MAC"}, {"name": "Royal Air Maroc", "iata": "AT", "icao": "RAM"}]}, {"destination": {"icao": "EDDK", "iata": "CGN", "name": "Cologne Bonn", "shortName": "Bonn", "municipalityName": "Cologne", "location": {"lat": 50.8659, "lon": 7.142739}, "countryCode": "DE"}, "averageDailyFlights": 1.57, "operators": [{"name": "Corendon Airlines Europe", "iata": "XR", "icao": "CXI"}, {"name": "Air Arabia Maroc", "iata": "3O", "icao": "MAC"}, {"name": "Eurowings", "iata": "EW", "icao": "EWG"}]}, {"destination": {"icao": "EHAM", "iata": "AMS", "name": "Amsterdam Schiphol", "shortName": "Schiphol", "municipalityName": "Amsterdam", "location": {"lat": 52.3086, "lon": 4.763889}, "countryCode": "NL"}, "averageDailyFlights": 1.14, "operators": [{"name": "Air Arabia Maroc", "iata": "3O", "icao": "MAC"}, {"name": "Royal Air Maroc", "iata": "AT", "icao": "RAM"}]}, {"destination": {"icao": "LEMG", "iata": "AGP", "name": "M\u00e1laga ", "shortName": "M\u00e1laga", "municipalityName": "M\u00e1laga", "location": {"lat": 36.6749, "lon": -4.49911}, "countryCode": "ES"}, "averageDailyFlights": 0.86, "operators": [{"name": "Iberia", "iata": "IB", "icao": "IBE"}, {"name": "Ryanair", "iata": "FR", "icao": "RYR"}]}, {"destination": {"icao": "LEPA", "iata": "PMI", "name": "Palma De Mallorca ", "shortName": "Palma De Mallorca", "municipalityName": "Palma De Mallorca", "location": {"lat": 39.5517, "lon": 2.73881}, "countryCode": "ES"}, "averageDailyFlights": 0.86, "operators": [{"name": "Iberia", "iata": "IB", "icao": "IBE"}, {"name": "Ryanair", "iata": "FR", "icao": "RYR"}, {"name": "Air Arabia Maroc", "iata": "3O", "icao": "MAC"}]}, {"destination": {"icao": "EHEH", "iata": "EIN", "name": "Eindhoven ", "shortName": "Eindhoven", "municipalityName": "Eindhoven", "location": {"lat": 51.4501, "lon": 5.374529}, "countryCode": "NL"}, "averageDailyFlights": 0.71, "operators": [{"name": "TUI Airlines Belgium", "iata": "TB", "icao": "JAF"}]}, {"destination": {"icao": "EDFH", "iata": "HHN", "name": "Hahn Frankfurt-", "shortName": "Frankfurt-", "municipalityName": "Hahn", "location": {"lat": 49.9487, "lon": 7.263889}, "countryCode": "DE"}, "averageDailyFlights": 0.71, "operators": [{"name": "Air Arabia Maroc", "iata": "3O", "icao": "MAC"}, {"name": "Ryanair", "iata": "FR", "icao": "RYR"}]}, {"destination": {"icao": "LEMD", "iata": "MAD", "name": "Madrid Adolfo Su\u00e1rez \u2013Barajas", "shortName": "Adolfo Su\u00e1rez \u2013Barajas", "municipalityName": "Madrid", "location": {"lat": 40.4936, "lon": -3.56676}, "countryCode": "ES"}, "averageDailyFlights": 0.71, "operators": [{"name": "Iberia", "iata": "IB", "icao": "IBE"}, {"name": "Ryanair", "iata": "FR", "icao": "RYR"}, {"name": "Air Arabia Maroc", "iata": "3O", "icao": "MAC"}]}, {"destination": {"icao": "GMMN", "iata": "CMN", "name": "Casablanca Mohammed V", "shortName": "Mohammed V", "municipalityName": "Casablanca", "location": {"lat": 33.3675, "lon": -7.58997}, "countryCode": "MA"}, "averageDailyFlights": 0.57, "operators": [{"name": "Royal Air Maroc", "iata": "AT", "icao": "RAM"}]}, {"destination": {"icao": "LFPO", "iata": "ORY", "name": "Paris -Orly", "shortName": "-Orly", "municipalityName": "Paris", "location": {"lat": 48.7253, "lon": 2.35944}, "countryCode": "FR"}, "averageDailyFlights": 0.57, "operators": [{"name": "Transavia France", "iata": "TO", "icao": "TVF"}]}, {"destination": {"icao": "LFOB", "iata": "BVA", "name": "Beauvais/Till\u00e9 Paris Beauvais Till\u00e9", "shortName": "Paris Beauvais Till\u00e9", "municipalityName": "Beauvais/Till\u00e9", "location": {"lat": 49.4544, "lon": 2.11278}, "countryCode": "FR"}, "averageDailyFlights": 0.43, "operators": [{"name": "Ryanair", "iata": "FR", "icao": "RYR"}]}, {"destination": {"icao": "LFMT", "iata": "MPL", "name": "Montpellier/M\u00e9diterran\u00e9e Montpellier-M\u00e9diterran\u00e9e", "shortName": "Montpellier-M\u00e9diterran\u00e9e", "municipalityName": "Montpellier/M\u00e9diterran\u00e9e", "location": {"lat": 43.5762, "lon": 3.96301}, "countryCode": "FR"}, "averageDailyFlights": 0.43, "operators": [{"name": "Air Arabia Maroc", "iata": "3O", "icao": "MAC"}]}, {"destination": {"icao": "GMTT", "iata": "TNG", "name": "Tangier Ibn Batouta", "shortName": "Ibn Batouta", "municipalityName": "Tangier", "location": {"lat": 35.7269, "lon": -5.91689}, "countryCode": "MA"}, "averageDailyFlights": 0.43, "operators": [{"name": "Air Arabia Maroc", "iata": "3O", "icao": "MAC"}, {"name": "Royal Air Maroc", "iata": "AT", "icao": "RAM"}]}, {"destination": {"icao": "EDLV", "iata": "NRN", "name": "Weeze Niederrhein", "shortName": "Niederrhein", "municipalityName": "Weeze", "location": {"lat": 51.6024, "lon": 6.142169}, "countryCode": "DE"}, "averageDailyFlights": 0.43, "operators": [{"name": "Ryanair", "iata": "FR", "icao": "RYR"}]}, {"destination": {"icao": "EBAW", "iata": "ANR", "name": "Antwerp (Deurne)", "shortName": "(Deurne)", "municipalityName": "Antwerp", "location": {"lat": 51.1894, "lon": 4.460279}, "countryCode": "BE"}, "averageDailyFlights": 0.29, "operators": [{"name": "TUI Airlines Belgium", "iata": "TB", "icao": "JAF"}]}, {"destination": {"icao": "EBCI", "iata": "CRL", "name": "Brussels South Charleroi", "shortName": "South Charleroi", "municipalityName": "Brussels", "location": {"lat": 50.4592, "lon": 4.45382}, "countryCode": "BE"}, "averageDailyFlights": 0.29, "operators": [{"name": "Ryanair", "iata": "FR", "icao": "RYR"}]}, {"destination": {"icao": "EDDL", "iata": "DUS", "name": "Duesseldorf D\u00fcsseldorf", "shortName": "D\u00fcsseldorf", "municipalityName": "Duesseldorf", "location": {"lat": 51.2895, "lon": 6.766779}, "countryCode": "DE"}, "averageDailyFlights": 0.29, "operators": [{"name": "Royal Air Maroc", "iata": "AT", "icao": "RAM"}]}, {"destination": {"icao": "LFQQ", "iata": "LIL", "name": "Lille/Lesquin Lille-Lesquin", "shortName": "Lille-Lesquin", "municipalityName": "Lille/Lesquin", "location": {"lat": 50.5619, "lon": 3.08944}, "countryCode": "FR"}, "averageDailyFlights": 0.29, "operators": [{"name": "TUI Airlines Belgium", "iata": "TB", "icao": "JAF"}]}, {"destination": {"icao": "LFML", "iata": "MRS", "name": "Marseille Provence", "shortName": "Provence", "municipalityName": "Marseille", "location": {"lat": 43.43927, "lon": 5.221424}, "countryCode": "FR"}, "averageDailyFlights": 0.29, "operators": [{"name": "Ryanair", "iata": "FR", "icao": "RYR"}]}, {"destination": {"icao": "EHRD", "iata": "RTM", "name": "Rotterdam The Hague", "shortName": "The Hague", "municipalityName": "Rotterdam", "location": {"lat": 51.9569, "lon": 4.43722}, "countryCode": "NL"}, "averageDailyFlights": 0.29, "operators": [{"name": "Transavia", "iata": "HV", "icao": "TRA"}]}, {"destination": {"icao": "LFST", "iata": "SXB", "name": "Strasbourg ", "shortName": "Strasbourg", "municipalityName": "Strasbourg", "location": {"lat": 48.5383, "lon": 7.62823}, "countryCode": "FR"}, "averageDailyFlights": 0.29, "operators": [{"name": "Air Arabia Maroc", "iata": "3O", "icao": "MAC"}]}, {"destination": {"icao": "LFBO", "iata": "TLS", "name": "Toulouse-Blagnac ", "shortName": "Toulouse-Blagnac", "municipalityName": "Toulouse-Blagnac", "location": {"lat": 43.6291, "lon": 1.363819}, "countryCode": "FR"}, "averageDailyFlights": 0.29, "operators": [{"name": "Ryanair", "iata": "FR", "icao": "RYR"}]}, {"destination": {"icao": "LEAL", "iata": "ALC", "name": "Alicante ", "shortName": "Alicante", "municipalityName": "Alicante", "location": {"lat": 38.2822, "lon": -0.558156}, "countryCode": "ES"}, "averageDailyFlights": 0.14, "operators": [{"name": "Iberia", "iata": "IB", "icao": "IBE"}]}, {"destination": {"icao": "EDDF", "iata": "FRA", "name": "Frankfurt-am-Main ", "shortName": "Frankfurt-am-Main", "municipalityName": "Frankfurt-am-Main", "location": {"lat": 50.0264, "lon": 8.543129}, "countryCode": "DE"}, "averageDailyFlights": 0.14, "operators": [{"name": "Royal Air Maroc", "iata": "AT", "icao": "RAM"}]}, {"destination": {"icao": "EDDH", "iata": "HAM", "name": "Hamburg ", "shortName": "Hamburg", "municipalityName": "Hamburg", "location": {"lat": 53.6304, "lon": 9.988229}, "countryCode": "DE"}, "averageDailyFlights": 0.14, "operators": [{"name": "Eurowings", "iata": "EW", "icao": "EWG"}]}]}