{"routes": [{"destination": {"icao": "LPPT", "iata": "LIS", "name": "Lisbon Portela", "shortName": "Portela", "municipalityName": "Lisbon", "location": {"lat": 38.7813, "lon": -9.135919}, "countryCode": "PT"}, "averageDailyFlights": 3.0, "operators": [{"name": "TACV Cabo Verde Airlines", "iata": "VR", "icao": "TCV"}, {"name": "TAP Air Portugal", "iata": "TP", "icao": "TAP"}]}, {"destination": {"name": "San-Visenti"}, "averageDailyFlights": 2.0, "operators": [{"name": "Binter Cabo Verde", "iata": "3B", "icao": "NTB"}]}, {"destination": {"icao": "GVSF", "iata": "SFL", "name": "S\u00e3o Filipe ", "shortName": "S\u00e3o Filipe", "municipalityName": "S\u00e3o Filipe", "location": {"lat": 14.885, "lon": -24.48}, "countryCode": "CV"}, "averageDailyFlights": 1.86, "operators": [{"name": "Binter Cabo Verde", "iata": "3B", "icao": "NTB"}]}, {"destination": {"name": "Espargos"}, "averageDailyFlights": 1.43, "operators": [{"name": "Binter Cabo Verde", "iata": "3B", "icao": "NTB"}]}, {"destination": {"icao": "GOBD", "iata": "DSS", "name": "Dakar Blaise Diagne", "shortName": "Blaise Diagne", "municipalityName": "Dakar", "location": {"lat": 14.671111, "lon": -17.066944}, "countryCode": "SN"}, "averageDailyFlights": 1.38, "operators": [{"name": "FlexFlight", "iata": "W2", "icao": "FXT"}, {"name": "Groupe Transair", "iata": "R2", "icao": "GTS"}, {"name": "ASKY", "iata": "KP", "icao": "SKK"}, {"name": "Air Senegal", "iata": "HC", "icao": "SZN"}]}, {"destination": {"icao": "GMMN", "iata": "CMN", "name": "Casablanca Mohammed V", "shortName": "Mohammed V", "municipalityName": "Casablanca", "location": {"lat": 33.3675, "lon": -7.58997}, "countryCode": "MA"}, "averageDailyFlights": 0.71, "operators": [{"name": "Royal Air Maroc", "iata": "AT", "icao": "RAM"}]}, {"destination": {"icao": "LPPD", "iata": "PDL", "name": "Ponta Delgada Jo\u00e3o Paulo II", "shortName": "Jo\u00e3o Paulo II", "municipalityName": "Ponta Delgada", "location": {"lat": 37.7412, "lon": -25.6979}, "countryCode": "PT"}, "averageDailyFlights": 0.71, "operators": [{"name": "Azores Airlines", "iata": "S4", "icao": "RZO"}]}, {"destination": {"icao": "GVMA", "iata": "MMO", "name": "Vila do Maio Maio", "shortName": "Maio", "municipalityName": "Vila do Maio", "location": {"lat": 15.1559, "lon": -23.2137}, "countryCode": "CV"}, "averageDailyFlights": 0.57, "operators": [{"name": "Binter Cabo Verde", "iata": "3B", "icao": "NTB"}]}, {"destination": {"icao": "GGOV", "iata": "OXB", "name": "Bissau Osvaldo Vieira", "shortName": "Osvaldo Vieira", "municipalityName": "Bissau", "location": {"lat": 11.8948, "lon": -15.653699}, "countryCode": "GW"}, "averageDailyFlights": 0.43, "operators": [{"name": "Royal Air Maroc", "iata": "AT", "icao": "RAM"}]}, {"destination": {"icao": "GVBA", "iata": "BVC", "name": "Rabil ", "shortName": "Rabil", "municipalityName": "Rabil", "location": {"lat": 16.1365, "lon": -22.8889}, "countryCode": "CV"}, "averageDailyFlights": 0.43, "operators": [{"name": "Binter Cabo Verde", "iata": "3B", "icao": "NTB"}]}, {"destination": {"icao": "LFPG", "iata": "CDG", "name": "Paris Charles de Gaulle", "shortName": "Charles de Gaulle", "municipalityName": "Paris", "location": {"lat": 49.0128, "lon": 2.549999}, "countryCode": "FR"}, "averageDailyFlights": 0.14, "operators": [{"name": "TACV Cabo Verde Airlines", "iata": "VR", "icao": "TCV"}]}, {"destination": {"icao": "GVSN", "iata": "SNE", "name": "Pregui\u00e7a ", "shortName": "Pregui\u00e7a", "municipalityName": "Pregui\u00e7a", "location": {"lat": 16.5884, "lon": -24.2847}, "countryCode": "CV"}, "averageDailyFlights": 0.14, "operators": [{"name": "Binter Cabo Verde", "iata": "3B", "icao": "NTB"}]}, {"destination": {"icao": "GVSV", "iata": "VXE", "name": "S\u00e3o Pedro ", "shortName": "S\u00e3o Pedro", "municipalityName": "S\u00e3o Pedro", "location": {"lat": 16.8332, "lon": -25.0553}, "countryCode": "CV"}, "averageDailyFlights": 0.14, "operators": [{"name": "Binter Cabo Verde", "iata": "3B", "icao": "NTB"}]}]}