{"routes": [{"destination": {"icao": "KATL", "iata": "ATL", "name": "Atlanta Hartsfield Jackson", "shortName": "Hartsfield Jackson", "municipalityName": "Atlanta", "location": {"lat": 33.6367, "lon": -84.4281}, "countryCode": "US"}, "averageDailyFlights": 6.43, "operators": [{"name": "Delta Air Lines", "iata": "DL", "icao": "DAL"}]}, {"destination": {"icao": "KCLT", "iata": "CLT", "name": "Charlotte Douglas", "shortName": "Douglas", "municipalityName": "Charlotte", "location": {"lat": 35.214, "lon": -80.9431}, "countryCode": "US"}, "averageDailyFlights": 6.43, "operators": [{"name": "American Airlines", "iata": "AA", "icao": "AAL"}, {"name": "TMB"}]}, {"destination": {"icao": "KLGA", "iata": "LGA", "name": "New York La Guardia", "shortName": "La Guardia", "municipalityName": "New York", "location": {"lat": 40.7772, "lon": -73.8726}, "countryCode": "US"}, "averageDailyFlights": 6.43, "operators": [{"name": "American Airlines", "iata": "AA", "icao": "AAL"}, {"name": "Delta Air Lines", "iata": "DL", "icao": "DAL"}]}, {"destination": {"icao": "KORD", "iata": "ORD", "name": "Chicago O'Hare", "shortName": "O'Hare", "municipalityName": "Chicago", "location": {"lat": 41.9786, "lon": -87.9048}, "countryCode": "US"}, "averageDailyFlights": 3.29, "operators": [{"name": "Delta Air Lines", "iata": "DL", "icao": "DAL"}, {"name": "Envoy Air", "iata": "MQ", "icao": "ENY"}, {"name": "United Airlines", "iata": "UA", "icao": "UAL"}]}, {"destination": {"icao": "KDCA", "iata": "DCA", "name": "District of Columbia Ronald Reagan Washington National", "shortName": "Ronald Reagan Washington National", "municipalityName": "District of Columbia", "location": {"lat": 38.8521, "lon": -77.0377}, "countryCode": "US"}, "averageDailyFlights": 3.14, "operators": [{"name": "American Airlines", "iata": "AA", "icao": "AAL"}]}, {"destination": {"icao": "KEWR", "iata": "EWR", "name": "Newark Liberty", "shortName": "Liberty", "municipalityName": "Newark", "location": {"lat": 40.6925, "lon": -74.1687}, "countryCode": "US"}, "averageDailyFlights": 3.14, "operators": [{"name": "United Airlines", "iata": "UA", "icao": "UAL"}]}, {"destination": {"icao": "KPHL", "iata": "PHL", "name": "Philadelphia ", "shortName": "Philadelphia", "municipalityName": "Philadelphia", "location": {"lat": 39.8719, "lon": -75.2411}, "countryCode": "US"}, "averageDailyFlights": 3.14, "operators": [{"name": "American Airlines", "iata": "AA", "icao": "AAL"}]}, {"destination": {"icao": "KDFW", "iata": "DFW", "name": "Dallas-Fort Worth ", "shortName": "Dallas-Fort Worth", "municipalityName": "Dallas-Fort Worth", "location": {"lat": 32.8968, "lon": -97.038}, "countryCode": "US"}, "averageDailyFlights": 2.0, "operators": [{"name": "American Airlines", "iata": "AA", "icao": "AAL"}]}, {"destination": {"icao": "KDTW", "iata": "DTW", "name": "Detroit Metropolitan Wayne County", "shortName": "Metropolitan Wayne County", "municipalityName": "Detroit", "location": {"lat": 42.2124, "lon": -83.3534}, "countryCode": "US"}, "averageDailyFlights": 1.86, "operators": [{"name": "Delta Air Lines", "iata": "DL", "icao": "DAL"}]}, {"destination": {"icao": "KIAD", "iata": "IAD", "name": "District of Columbia Washington Dulles", "shortName": "Washington Dulles", "municipalityName": "District of Columbia", "location": {"lat": 38.9445, "lon": -77.4558}, "countryCode": "US"}, "averageDailyFlights": 1.86, "operators": [{"name": "SKQ"}, {"name": "Jet Linx Aviation", "iata": "JL", "icao": "JTL"}, {"name": "CWG"}, {"name": "FTH"}]}, {"destination": {"icao": "KTYS", "iata": "TYS", "name": "Knoxville McGhee Tyson", "shortName": "McGhee Tyson", "municipalityName": "Knoxville", "location": {"lat": 35.811, "lon": -83.994}, "countryCode": "US"}, "averageDailyFlights": 1.86, "operators": [{"name": "SKQ"}, {"name": "HON"}, {"name": "LBQ"}, {"name": "NetJets Aviation", "iata": "1I", "icao": "EJA"}]}, {"destination": {"icao": "KGSO", "iata": "GSO", "name": "Greensboro Piedmont Triad", "shortName": "Piedmont Triad", "municipalityName": "Greensboro", "location": {"lat": 36.0978, "lon": -79.9373}, "countryCode": "US"}, "averageDailyFlights": 1.43, "operators": [{"name": "HON"}, {"name": "EDG"}, {"name": "iAero Airways", "iata": "WQ", "icao": "SWQ"}]}, {"destination": {"icao": "KMIA", "iata": "MIA", "name": "Miami ", "shortName": "Miami", "municipalityName": "Miami", "location": {"lat": 25.7932, "lon": -80.2906}, "countryCode": "US"}, "averageDailyFlights": 1.43, "operators": [{"name": "Envoy Air", "iata": "MQ", "icao": "ENY"}, {"name": "TMB"}]}, {"destination": {"icao": "KMMU", "iata": "MMU", "name": "Morristown Municipal", "shortName": "Municipal", "municipalityName": "Morristown", "location": {"lat": 40.7994, "lon": -74.4149}, "countryCode": "US"}, "averageDailyFlights": 1.29, "operators": [{"name": "SKQ"}]}, {"destination": {"icao": "KHEF", "iata": "MNZ", "name": "Manassas Harry P. Davis Field", "shortName": "Harry P. Davis Field", "municipalityName": "Manassas", "location": {"lat": 38.7214, "lon": -77.5154}, "countryCode": "US"}, "averageDailyFlights": 1.14, "operators": [{"name": "LBQ"}]}, {"destination": {"icao": "KCRW", "iata": "CRW", "name": "Charleston Yeager", "shortName": "Yeager", "municipalityName": "Charleston", "location": {"lat": 38.3731, "lon": -81.5932}, "countryCode": "US"}, "averageDailyFlights": 1.0, "operators": [{"name": "SKQ"}]}, {"destination": {"icao": "KMCO", "iata": "MCO", "name": "Orlando ", "shortName": "Orlando", "municipalityName": "Orlando", "location": {"lat": 28.4294, "lon": -81.309}, "countryCode": "US"}, "averageDailyFlights": 1.0, "operators": [{"name": "Silver Airways", "iata": "3M", "icao": "SIL"}]}, {"destination": {"icao": "KCAE", "iata": "CAE", "name": "Columbia Metropolitan", "shortName": "Metropolitan", "municipalityName": "Columbia", "location": {"lat": 33.9388, "lon": -81.1195}, "countryCode": "US"}, "averageDailyFlights": 0.86, "operators": [{"name": "SKQ"}, {"name": "Sun Country Airlines", "iata": "SY", "icao": "SCX"}]}, {"destination": {"icao": "KLZU", "iata": "LZU", "name": "Lawrenceville Gwinnett County Briscoe Field", "shortName": "Gwinnett County Briscoe Field", "municipalityName": "Lawrenceville", "location": {"lat": 33.9781, "lon": -83.9624}, "countryCode": "US"}, "averageDailyFlights": 0.86, "operators": [{"name": "LBQ"}]}, {"destination": {"icao": "KRIC", "iata": "RIC", "name": "Richmond ", "shortName": "Richmond", "municipalityName": "Richmond", "location": {"lat": 37.5052, "lon": -77.3197}, "countryCode": "US"}, "averageDailyFlights": 0.86, "operators": [{"name": "SKQ"}]}, {"destination": {"icao": "KBNA", "iata": "BNA", "name": "Nashville ", "shortName": "Nashville", "municipalityName": "Nashville", "location": {"lat": 36.1245, "lon": -86.6782}, "countryCode": "US"}, "averageDailyFlights": 0.71, "operators": [{"name": "Silver Airways", "iata": "3M", "icao": "SIL"}]}, {"destination": {"icao": "KILM", "iata": "ILM", "name": "Wilmington ", "shortName": "Wilmington", "municipalityName": "Wilmington", "location": {"lat": 34.2706, "lon": -77.9026}, "countryCode": "US"}, "averageDailyFlights": 0.71, "operators": [{"name": "TCA", "iata": "N6", "icao": "TZS"}, {"name": "GAJ"}, {"name": "NetJets Aviation", "iata": "1I", "icao": "EJA"}, {"name": "DPJ"}]}, {"destination": {"icao": "KONT", "iata": "ONT", "name": "Ontario ", "shortName": "Ontario", "municipalityName": "Ontario", "location": {"lat": 34.056, "lon": -117.601}, "countryCode": "US"}, "averageDailyFlights": 0.57, "operators": [{"name": "iAero Airways", "iata": "WQ", "icao": "SWQ"}]}, {"destination": {"icao": "KCVG", "iata": "CVG", "name": "Cincinnati Northern Kentucky", "shortName": "Northern Kentucky", "municipalityName": "Cincinnati", "location": {"lat": 39.0488, "lon": -84.6678}, "countryCode": "US"}, "averageDailyFlights": 0.43, "operators": [{"name": "21 Air", "iata": "2I", "icao": "CSB"}, {"name": "iAero Airways", "iata": "WQ", "icao": "SWQ"}]}, {"destination": {"icao": "KSAV", "iata": "SAV", "name": "Savannah Hilton Head", "shortName": "Hilton Head", "municipalityName": "Savannah", "location": {"lat": 32.1276, "lon": -81.2021}, "countryCode": "US"}, "averageDailyFlights": 0.43, "operators": [{"name": "SKQ"}]}, {"destination": {"icao": "KTUP", "iata": "TUP", "name": "Tupelo Regional", "shortName": "Regional", "municipalityName": "Tupelo", "location": {"lat": 34.2681, "lon": -88.7699}, "countryCode": "US"}, "averageDailyFlights": 0.43, "operators": [{"name": "EJM"}, {"name": "TMB"}]}, {"destination": {"icao": "KINT", "iata": "INT", "name": "Winston-Salem Smith Reynolds", "shortName": "Smith Reynolds", "municipalityName": "Winston-Salem", "location": {"lat": 36.1337, "lon": -80.222}, "countryCode": "US"}, "averageDailyFlights": 0.43, "operators": [{"name": "JRE"}]}, {"destination": {"icao": "KPDK", "iata": "PDK", "name": "Atlanta DeKalb Peachtree", "shortName": "DeKalb Peachtree", "municipalityName": "Atlanta", "location": {"lat": 33.8756, "lon": -84.302}, "countryCode": "US"}, "averageDailyFlights": 0.29, "operators": [{"name": "Libyan Airlines", "iata": "LN", "icao": "LAA"}]}, {"destination": {"icao": "KBGM", "iata": "BGM", "name": "Binghamton Edwin A Link field", "shortName": "Edwin A Link field", "municipalityName": "Binghamton", "location": {"lat": 42.2087, "lon": -75.9798}, "countryCode": "US"}, "averageDailyFlights": 0.29, "operators": [{"name": "TMB"}]}, {"destination": {"icao": "KFAT", "iata": "FAT", "name": "Fresno Yosemite", "shortName": "Yosemite", "municipalityName": "Fresno", "location": {"lat": 36.7762, "lon": -119.718}, "countryCode": "US"}, "averageDailyFlights": 0.29, "operators": [{"name": "NSP"}]}, {"destination": {"icao": "KHYA", "iata": "HYA", "name": "Hyannis Barnstable Municipal Boardman Polando Field", "shortName": "Barnstable Municipal Boardman Polando Field", "municipalityName": "Hyannis", "location": {"lat": 41.6693, "lon": -70.2804}, "countryCode": "US"}, "averageDailyFlights": 0.29, "operators": [{"name": "NetJets Aviation", "iata": "1I", "icao": "EJA"}]}, {"destination": {"icao": "KLCQ", "iata": "LCQ", "name": "Lake City Gateway", "shortName": "Gateway", "municipalityName": "Lake City", "location": {"lat": 30.182, "lon": -82.5769}, "countryCode": "US"}, "averageDailyFlights": 0.29, "operators": [{"name": "Alaska Airlines", "iata": "AS", "icao": "ASA"}]}, {"destination": {"icao": "KORF", "iata": "ORF", "name": "Norfolk ", "shortName": "Norfolk", "municipalityName": "Norfolk", "location": {"lat": 36.8946, "lon": -76.2012}, "countryCode": "US"}, "averageDailyFlights": 0.29, "operators": [{"name": "SKQ"}]}, {"destination": {"icao": "KSEA", "iata": "SEA", "name": "Seattle Tacoma", "shortName": "Tacoma", "municipalityName": "Seattle", "location": {"lat": 47.449, "lon": -122.309}, "countryCode": "US"}, "averageDailyFlights": 0.29, "operators": [{"name": "Alaska Airlines", "iata": "AS", "icao": "ASA"}]}, {"destination": {"icao": "KPIE", "iata": "PIE", "name": "St Petersburg-Clearwater St Petersburg Clearwater", "shortName": "St Petersburg Clearwater", "municipalityName": "St Petersburg-Clearwater", "location": {"lat": 27.9102, "lon": -82.6874}, "countryCode": "US"}, "averageDailyFlights": 0.29, "operators": [{"name": "Allegiant Air", "iata": "G4", "icao": "AAY"}]}, {"destination": {"icao": "KTEB", "iata": "TEB", "name": "Teterboro ", "shortName": "Teterboro", "municipalityName": "Teterboro", "location": {"lat": 40.8501, "lon": -74.0608}, "countryCode": "US"}, "averageDailyFlights": 0.29, "operators": [{"name": "RLJ"}]}, {"destination": {"icao": "KTTN", "iata": "TTN", "name": "Trenton Mercer", "shortName": "Mercer", "municipalityName": "Trenton", "location": {"lat": 40.2767, "lon": -74.8135}, "countryCode": "US"}, "averageDailyFlights": 0.29, "operators": [{"name": "SKQ"}]}, {"destination": {"icao": "KPBI", "iata": "PBI", "name": "West Palm Beach Palm Beach", "shortName": "Palm Beach", "municipalityName": "West Palm Beach", "location": {"lat": 26.6832, "lon": -80.0956}, "countryCode": "US"}, "averageDailyFlights": 0.29, "operators": [{"name": "LAK"}, {"name": "EDG"}]}, {"destination": {"icao": "KFOK", "iata": "FOK", "name": "Westhampton Beach Francis S Gabreski", "shortName": "Francis S Gabreski", "municipalityName": "Westhampton Beach", "location": {"lat": 40.8437, "lon": -72.6318}, "countryCode": "US"}, "averageDailyFlights": 0.29, "operators": [{"name": "EDG"}, {"name": "FTH"}]}, {"destination": {"icao": "CYQG", "iata": "YQG", "name": "Windsor ", "shortName": "Windsor", "municipalityName": "Windsor", "location": {"lat": 42.2756, "lon": -82.9556}, "countryCode": "CA"}, "averageDailyFlights": 0.29, "operators": [{"name": "SYB"}]}, {"destination": {"icao": "KABY", "iata": "ABY", "name": "Albany Southwest Georgia Regional", "shortName": "Southwest Georgia Regional", "municipalityName": "Albany", "location": {"lat": 31.5355, "lon": -84.1945}, "countryCode": "US"}, "averageDailyFlights": 0.14, "operators": [{"name": "CNS"}]}, {"destination": {"icao": "KBBG", "iata": "BKG", "name": "Branson ", "shortName": "Branson", "municipalityName": "Branson", "location": {"lat": 36.53208, "lon": -93.20055}, "countryCode": "US"}, "averageDailyFlights": 0.14, "operators": [{"name": "NetJets Aviation", "iata": "1I", "icao": "EJA"}]}, {"destination": {"icao": "KCHS", "iata": "CHS", "name": "Charleston Air Force Base-", "shortName": "Air Force Base-", "municipalityName": "Charleston", "location": {"lat": 32.8986, "lon": -80.0405}, "countryCode": "US"}, "averageDailyFlights": 0.14, "operators": [{"name": "NetJets Aviation", "iata": "1I", "icao": "EJA"}]}, {"destination": {"icao": "KARR", "iata": "AUZ", "name": "Chicago/Aurora Aurora Municipal", "shortName": "Aurora Municipal", "municipalityName": "Chicago/Aurora", "location": {"lat": 41.7719, "lon": -88.4757}, "countryCode": "US"}, "averageDailyFlights": 0.14, "operators": [{"name": "SKQ"}]}, {"destination": {"icao": "KCON", "iata": "CON", "name": "Concord Municipal", "shortName": "Municipal", "municipalityName": "Concord", "location": {"lat": 43.2027, "lon": -71.5023}, "countryCode": "US"}, "averageDailyFlights": 0.14, "operators": [{"name": "NetJets Aviation", "iata": "1I", "icao": "EJA"}]}, {"destination": {"icao": "KDAL", "iata": "DAL", "name": "Dallas Love Field", "shortName": "Love Field", "municipalityName": "Dallas", "location": {"lat": 32.8471, "lon": -96.8518}, "countryCode": "US"}, "averageDailyFlights": 0.14, "operators": [{"name": "EDG"}]}, {"destination": {"icao": "KAPA", "iata": "APA", "name": "Denver Centennial", "shortName": "Centennial", "municipalityName": "Denver", "location": {"lat": 39.5701, "lon": -104.849}, "countryCode": "US"}, "averageDailyFlights": 0.14, "operators": [{"name": "FTH"}]}, {"destination": {"icao": "KDTS", "iata": "DSI", "name": "Destin Fort Walton Beach", "shortName": "Fort Walton Beach", "municipalityName": "Destin", "location": {"lat": 30.4001, "lon": -86.4715}, "countryCode": "US"}, "averageDailyFlights": 0.14, "operators": [{"name": "CNS"}]}, {"destination": {"icao": "KYIP", "iata": "YIP", "name": "Detroit Willow Run", "shortName": "Willow Run", "municipalityName": "Detroit", "location": {"lat": 42.2379, "lon": -83.5304}, "countryCode": "US"}, "averageDailyFlights": 0.14, "operators": [{"name": "EDG"}]}, {"destination": {"icao": "KFNL", "iata": "FNL", "name": "Fort Collins/Loveland Fort Collins Loveland Municipal", "shortName": "Fort Collins Loveland Municipal", "municipalityName": "Fort Collins/Loveland", "location": {"lat": 40.4518, "lon": -105.011}, "countryCode": "US"}, "averageDailyFlights": 0.14, "operators": [{"name": "NetJets Aviation", "iata": "1I", "icao": "EJA"}]}, {"destination": {"icao": "KGVL", "iata": "GVL", "name": "Gainesville Lee Gilmer Memorial", "shortName": "Lee Gilmer Memorial", "municipalityName": "Gainesville", "location": {"lat": 34.2726, "lon": -83.8302}, "countryCode": "US"}, "averageDailyFlights": 0.14, "operators": [{"name": "NetJets Aviation", "iata": "1I", "icao": "EJA"}]}, {"destination": {"icao": "KGRR", "iata": "GRR", "name": "Grand Rapids Gerald R. Ford", "shortName": "Gerald R. Ford", "municipalityName": "Grand Rapids", "location": {"lat": 42.8808, "lon": -85.5228}, "countryCode": "US"}, "averageDailyFlights": 0.14, "operators": [{"name": "NetJets Aviation", "iata": "1I", "icao": "EJA"}]}, {"destination": {"icao": "KHRL", "iata": "HRL", "name": "Harlingen Valley", "shortName": "Valley", "municipalityName": "Harlingen", "location": {"lat": 26.2285, "lon": -97.6544}, "countryCode": "US"}, "averageDailyFlights": 0.14, "operators": [{"name": "iAero Airways", "iata": "WQ", "icao": "SWQ"}]}, {"destination": {"icao": "KHTS", "iata": "HTS", "name": "Huntington Milton J. Ferguson Field", "shortName": "Milton J. Ferguson Field", "municipalityName": "Huntington", "location": {"lat": 38.3667, "lon": -82.558}, "countryCode": "US"}, "averageDailyFlights": 0.14, "operators": [{"name": "HON"}]}, {"destination": {"icao": "KJAC", "iata": "JAC", "name": "Jackson Hole", "shortName": "Hole", "municipalityName": "Jackson", "location": {"lat": 43.6073, "lon": -110.738}, "countryCode": "US"}, "averageDailyFlights": 0.14, "operators": [{"name": "NetJets Aviation", "iata": "1I", "icao": "EJA"}]}, {"destination": {"icao": "KISO", "iata": "ISO", "name": "Kinston Regional Jetport At Stallings Field", "shortName": "Regional Jetport At Stallings Field", "municipalityName": "Kinston", "location": {"lat": 35.3314, "lon": -77.6088}, "countryCode": "US"}, "averageDailyFlights": 0.14, "operators": [{"name": "JRE"}]}, {"destination": {"icao": "KMHT", "iata": "MHT", "name": "Manchester ", "shortName": "Manchester", "municipalityName": "Manchester", "location": {"lat": 42.9326, "lon": -71.4357}, "countryCode": "US"}, "averageDailyFlights": 0.14, "operators": [{"name": "American Airlines", "iata": "AA", "icao": "AAL"}]}, {"destination": {"icao": "KOKC", "iata": "OKC", "name": "Oklahoma City Will Rogers World", "shortName": "Will Rogers World", "municipalityName": "Oklahoma City", "location": {"lat": 35.3931, "lon": -97.6007}, "countryCode": "US"}, "averageDailyFlights": 0.14, "operators": [{"name": "iAero Airways", "iata": "WQ", "icao": "SWQ"}]}, {"destination": {"icao": "KRDU", "iata": "RDU", "name": "Raleigh/Durham Raleigh Durham", "shortName": "Raleigh Durham", "municipalityName": "Raleigh/Durham", "location": {"lat": 35.8776, "lon": -78.7875}, "countryCode": "US"}, "averageDailyFlights": 0.14, "operators": [{"name": "LXJ"}]}, {"destination": {"icao": "KSTP", "iata": "STP", "name": "St Paul Downtown Holman Field", "shortName": "Downtown Holman Field", "municipalityName": "St Paul", "location": {"lat": 44.9345, "lon": -93.06}, "countryCode": "US"}, "averageDailyFlights": 0.14, "operators": [{"name": "LAK"}]}, {"destination": {"icao": "KTPA", "iata": "TPA", "name": "Tampa ", "shortName": "Tampa", "municipalityName": "Tampa", "location": {"lat": 27.9755, "lon": -82.5332}, "countryCode": "US"}, "averageDailyFlights": 0.14, "operators": [{"name": "Silver Airways", "iata": "3M", "icao": "SIL"}]}, {"destination": {"icao": "MMTO", "iata": "TLC", "name": "Toluca Licenciado Adolfo Lopez Mateos", "shortName": "Licenciado Adolfo Lopez Mateos", "municipalityName": "Toluca", "location": {"lat": 19.3371, "lon": -99.566}, "countryCode": "MX"}, "averageDailyFlights": 0.14, "operators": [{"name": "EDG"}]}, {"destination": {"icao": "KTCL", "iata": "TCL", "name": "Tuscaloosa Regional", "shortName": "Regional", "municipalityName": "Tuscaloosa", "location": {"lat": 33.2206, "lon": -87.6114}, "countryCode": "US"}, "averageDailyFlights": 0.14, "operators": [{"name": "IFL"}]}, {"destination": {"icao": "KART", "iata": "ART", "name": "Watertown ", "shortName": "Watertown", "municipalityName": "Watertown", "location": {"lat": 43.9919, "lon": -76.0217}, "countryCode": "US"}, "averageDailyFlights": 0.14, "operators": [{"name": "NetJets Aviation", "iata": "1I", "icao": "EJA"}]}, {"destination": {"icao": "KYNG", "iata": "YNG", "name": "Youngstown/Warren Youngstown Warren Regional", "shortName": "Youngstown Warren Regional", "municipalityName": "Youngstown/Warren", "location": {"lat": 41.2607, "lon": -80.6791}, "countryCode": "US"}, "averageDailyFlights": 0.14, "operators": [{"name": "NetJets Aviation", "iata": "1I", "icao": "EJA"}]}]}