{"routes": [{"destination": {"icao": "KSFO", "iata": "SFO", "name": "San Francisco ", "shortName": "San Francisco", "municipalityName": "San Francisco", "location": {"lat": 37.619, "lon": -122.375}, "countryCode": "US"}, "averageDailyFlights": 3.43, "operators": [{"name": "REH"}, {"name": "United Airlines", "iata": "UA", "icao": "UAL"}]}, {"destination": {"icao": "KMHR", "iata": "MHR", "name": "Sacramento Mather", "shortName": "Mather", "municipalityName": "Sacramento", "location": {"lat": 38.5539, "lon": -121.298}, "countryCode": "US"}, "averageDailyFlights": 1.86, "operators": [{"name": "BXR"}]}, {"destination": {"icao": "KSMF", "iata": "SMF", "name": "Sacramento ", "shortName": "Sacramento", "municipalityName": "Sacramento", "location": {"lat": 38.6954, "lon": -121.591}, "countryCode": "US"}, "averageDailyFlights": 1.57, "operators": [{"name": "PCM"}]}, {"destination": {"icao": "KLAX", "iata": "LAX", "name": "Los Angeles ", "shortName": "Los Angeles", "municipalityName": "Los Angeles", "location": {"lat": 33.9425, "lon": -118.408}, "countryCode": "US"}, "averageDailyFlights": 1.14, "operators": [{"name": "United Airlines", "iata": "UA", "icao": "UAL"}]}, {"destination": {"icao": "KMCC", "iata": "MCC", "name": "Sacramento Mc Clellan Airfield", "shortName": "Mc Clellan Airfield", "municipalityName": "Sacramento", "location": {"lat": 38.6676, "lon": -121.401}, "countryCode": "US"}, "averageDailyFlights": 0.86, "operators": [{"name": "HOP!", "iata": "A5", "icao": "HOP"}, {"name": "REH"}, {"name": "Nordwind Airlines", "iata": "N4", "icao": "NWS"}, {"name": "ATK"}]}, {"destination": {"icao": "KSEA", "iata": "SEA", "name": "Seattle Tacoma", "shortName": "Tacoma", "municipalityName": "Seattle", "location": {"lat": 47.449, "lon": -122.309}, "countryCode": "US"}, "averageDailyFlights": 0.86, "operators": [{"name": "Alaska Airlines", "iata": "AS", "icao": "ASA"}]}, {"destination": {"icao": "KVNY", "iata": "VNY", "name": "Van Nuys ", "shortName": "Van Nuys", "municipalityName": "Van Nuys", "location": {"lat": 34.2098, "lon": -118.49}, "countryCode": "US"}, "averageDailyFlights": 0.71, "operators": [{"name": "VXP"}, {"name": "DLX"}]}, {"destination": {"icao": "KBUR", "iata": "BUR", "name": "Burbank Bob Hope", "shortName": "Bob Hope", "municipalityName": "Burbank", "location": {"lat": 34.2007, "lon": -118.359}, "countryCode": "US"}, "averageDailyFlights": 0.52, "operators": [{"name": "VXP"}, {"name": "Avelo Airlines"}]}, {"destination": {"icao": "KOAK", "iata": "OAK", "name": "Oakland Metropolitan", "shortName": "Metropolitan", "municipalityName": "Oakland", "location": {"lat": 37.7213, "lon": -122.221}, "countryCode": "US"}, "averageDailyFlights": 0.43, "operators": [{"name": "PXT"}]}, {"destination": {"icao": "KSQL", "iata": "SQL", "name": "San Carlos ", "shortName": "San Carlos", "municipalityName": "San Carlos", "location": {"lat": 37.5119, "lon": -122.25}, "countryCode": "US"}, "averageDailyFlights": 0.43, "operators": [{"name": "DLX"}]}, {"destination": {"icao": "KTRK", "iata": "TKF", "name": "Truckee Tahoe", "shortName": "Tahoe", "municipalityName": "Truckee", "location": {"lat": 39.32, "lon": -120.14}, "countryCode": "US"}, "averageDailyFlights": 0.43, "operators": [{"name": "DLX"}]}, {"destination": {"icao": "KACV", "iata": "ACV", "name": "Arcata/Eureka Arcata", "shortName": "Arcata", "municipalityName": "Arcata/Eureka", "location": {"lat": 40.9781, "lon": -124.109}, "countryCode": "US"}, "averageDailyFlights": 0.29, "operators": [{"name": "BXR"}, {"name": "REH"}]}, {"destination": {"icao": "KCOS", "iata": "COS", "name": "Colorado Springs City of  Municipal", "shortName": "City of  Municipal", "municipalityName": "Colorado Springs", "location": {"lat": 38.8058, "lon": -104.701}, "countryCode": "US"}, "averageDailyFlights": 0.29, "operators": [{"name": "PXT"}]}, {"destination": {"icao": "KSAC", "iata": "SAC", "name": "Sacramento Executive", "shortName": "Executive", "municipalityName": "Sacramento", "location": {"lat": 38.5125, "lon": -121.493}, "countryCode": "US"}, "averageDailyFlights": 0.29, "operators": [{"name": "MMY"}]}, {"destination": {"icao": "KSJC", "iata": "SJC", "name": "San Jose Norman Y. Mineta", "shortName": "Norman Y. Mineta", "municipalityName": "San Jose", "location": {"lat": 37.3626, "lon": -121.929}, "countryCode": "US"}, "averageDailyFlights": 0.29, "operators": [{"name": "GAJ"}, {"name": "TOG"}]}, {"destination": {"icao": "KCIC", "iata": "CIC", "name": "Chico Municipal", "shortName": "Municipal", "municipalityName": "Chico", "location": {"lat": 39.7954, "lon": -121.858}, "countryCode": "US"}, "averageDailyFlights": 0.14, "operators": [{"name": "BXR"}]}, {"destination": {"icao": "KEKA", "iata": "EKA", "name": "Eureka Murray Field", "shortName": "Murray Field", "municipalityName": "Eureka", "location": {"lat": 40.8034, "lon": -124.113}, "countryCode": "US"}, "averageDailyFlights": 0.14, "operators": [{"name": "BXR"}]}, {"destination": {"icao": "KMYL", "iata": "MYL", "name": "Mccall Municipal", "shortName": "Municipal", "municipalityName": "Mccall", "location": {"lat": 44.8897, "lon": -116.101}, "countryCode": "US"}, "averageDailyFlights": 0.14, "operators": [{"name": "N2"}]}, {"destination": {"icao": "KAPC", "iata": "APC", "name": "Napa County", "shortName": "County", "municipalityName": "Napa", "location": {"lat": 38.2132, "lon": -122.281}, "countryCode": "US"}, "averageDailyFlights": 0.14, "operators": [{"name": "REH"}]}, {"destination": {"icao": "KRDD", "iata": "RDD", "name": "Redding Municipal", "shortName": "Municipal", "municipalityName": "Redding", "location": {"lat": 40.509, "lon": -122.293}, "countryCode": "US"}, "averageDailyFlights": 0.14, "operators": [{"name": "MMY"}]}, {"destination": {"icao": "KRDM", "iata": "RDM", "name": "Redmond Roberts Field", "shortName": "Roberts Field", "municipalityName": "Redmond", "location": {"lat": 44.2541, "lon": -121.15}, "countryCode": "US"}, "averageDailyFlights": 0.14, "operators": [{"name": "Nordwind Airlines", "iata": "N4", "icao": "NWS"}]}, {"destination": {"icao": "KRNO", "iata": "RNO", "name": "Reno Tahoe", "shortName": "Tahoe", "municipalityName": "Reno", "location": {"lat": 39.4991, "lon": -119.768}, "countryCode": "US"}, "averageDailyFlights": 0.14, "operators": [{"name": "REH"}]}, {"destination": {"icao": "KSBP", "iata": "SBP", "name": "San Luis Obispo San Luis County Regional", "shortName": "San Luis County Regional", "municipalityName": "San Luis Obispo", "location": {"lat": 35.2368, "lon": -120.642}, "countryCode": "US"}, "averageDailyFlights": 0.14, "operators": [{"name": "CXK"}]}]}