{"routes": [{"destination": {"icao": "KORD", "iata": "ORD", "name": "Chicago O'Hare", "shortName": "O'Hare", "municipalityName": "Chicago", "location": {"lat": 41.9786, "lon": -87.9048}, "countryCode": "US"}, "averageDailyFlights": 2.86, "operators": [{"name": "Air Wisconsin", "iata": "ZW", "icao": "AWI"}, {"name": "American Airlines", "iata": "AA", "icao": "AAL"}, {"name": "Libyan Airlines", "iata": "LN", "icao": "LAA"}]}, {"destination": {"icao": "KMSP", "iata": "MSP", "name": "Minneapolis Wold-Chamberlain", "shortName": "Wold-Chamberlain", "municipalityName": "Minneapolis", "location": {"lat": 44.882, "lon": -93.2218}, "countryCode": "US"}, "averageDailyFlights": 2.71, "operators": [{"name": "Delta Air Lines", "iata": "DL", "icao": "DAL"}]}, {"destination": {"icao": "KMCW", "iata": "MCW", "name": "Mason City Municipal", "shortName": "Municipal", "municipalityName": "Mason City", "location": {"lat": 43.1578, "lon": -93.3313}, "countryCode": "US"}, "averageDailyFlights": 1.0, "operators": [{"name": "MVK"}, {"name": "Libyan Airlines", "iata": "LN", "icao": "LAA"}]}, {"destination": {"icao": "KDPA", "iata": "DPA", "name": "Chicago/West Chicago Dupage", "shortName": "Dupage", "municipalityName": "Chicago/West Chicago", "location": {"lat": 41.9078, "lon": -88.2486}, "countryCode": "US"}, "averageDailyFlights": 0.71, "operators": [{"name": "DCM"}]}, {"destination": {"icao": "KROC", "iata": "ROC", "name": "Rochester Greater", "shortName": "Greater", "municipalityName": "Rochester", "location": {"lat": 43.1189, "lon": -77.6724}, "countryCode": "US"}, "averageDailyFlights": 0.71, "operators": [{"name": "N1"}]}, {"destination": {"icao": "KTEB", "iata": "TEB", "name": "Teterboro ", "shortName": "Teterboro", "municipalityName": "Teterboro", "location": {"lat": 40.8501, "lon": -74.0608}, "countryCode": "US"}, "averageDailyFlights": 0.57, "operators": [{"name": "VNT"}, {"name": "EDG"}, {"name": "NetJets Aviation", "iata": "1I", "icao": "EJA"}]}, {"destination": {"icao": "KEAU", "iata": "EAU", "name": "Eau Claire Chippewa Valley Regional", "shortName": "Chippewa Valley Regional", "municipalityName": "Eau Claire", "location": {"lat": 44.8658, "lon": -91.4843}, "countryCode": "US"}, "averageDailyFlights": 0.43, "operators": [{"name": "MVK"}]}, {"destination": {"icao": "KSAW", "iata": "MQT", "name": "Marquette Sawyer", "shortName": "Sawyer", "municipalityName": "Marquette", "location": {"lat": 46.3536, "lon": -87.3954}, "countryCode": "US"}, "averageDailyFlights": 0.43, "operators": [{"name": "FFL"}]}, {"destination": {"icao": "KALN", "iata": "ALN", "name": "Alton/St Louis St Louis Regional", "shortName": "St Louis Regional", "municipalityName": "Alton/St Louis", "location": {"lat": 38.8903, "lon": -90.046}, "countryCode": "US"}, "averageDailyFlights": 0.29, "operators": [{"name": "NetJets Aviation", "iata": "1I", "icao": "EJA"}]}, {"destination": {"icao": "KLUK", "iata": "LUK", "name": "Cincinnati Municipal  Lunken Field", "shortName": "Municipal  Lunken Field", "municipalityName": "Cincinnati", "location": {"lat": 39.1033, "lon": -84.4186}, "countryCode": "US"}, "averageDailyFlights": 0.29, "operators": [{"name": "JLG"}]}, {"destination": {"icao": "KFAR", "iata": "FAR", "name": "Fargo Hector", "shortName": "Hector", "municipalityName": "Fargo", "location": {"lat": 46.9207, "lon": -96.8158}, "countryCode": "US"}, "averageDailyFlights": 0.29, "operators": [{"name": "Libyan Airlines", "iata": "LN", "icao": "LAA"}]}, {"destination": {"icao": "KFWA", "iata": "FWA", "name": "Fort Wayne ", "shortName": "Fort Wayne", "municipalityName": "Fort Wayne", "location": {"lat": 40.9785, "lon": -85.1951}, "countryCode": "US"}, "averageDailyFlights": 0.29, "operators": [{"name": "Nolinor", "iata": "N5", "icao": "NRL"}]}, {"destination": {"icao": "KGFK", "iata": "GFK", "name": "Grand Forks ", "shortName": "Grand Forks", "municipalityName": "Grand Forks", "location": {"lat": 47.9493, "lon": -97.1761}, "countryCode": "US"}, "averageDailyFlights": 0.29, "operators": [{"name": "Libyan Airlines", "iata": "LN", "icao": "LAA"}]}, {"destination": {"icao": "KPLN", "iata": "PLN", "name": "Pellston Regional  of Emmet County", "shortName": "Regional  of Emmet County", "municipalityName": "Pellston", "location": {"lat": 45.5709, "lon": -84.7967}, "countryCode": "US"}, "averageDailyFlights": 0.29, "operators": [{"name": "DPJ"}, {"name": "FTH"}]}, {"destination": {"icao": "KPIT", "iata": "PIT", "name": "Pittsburgh ", "shortName": "Pittsburgh", "municipalityName": "Pittsburgh", "location": {"lat": 40.4915, "lon": -80.2329}, "countryCode": "US"}, "averageDailyFlights": 0.29, "operators": [{"name": "WSP"}]}, {"destination": {"icao": "KFSD", "iata": "FSD", "name": "Sioux Falls Joe Foss Field", "shortName": "Joe Foss Field", "municipalityName": "Sioux Falls", "location": {"lat": 43.582, "lon": -96.7419}, "countryCode": "US"}, "averageDailyFlights": 0.29, "operators": [{"name": "Libyan Airlines", "iata": "LN", "icao": "LAA"}]}, {"destination": {"icao": "KATW", "iata": "ATW", "name": "Appleton ", "shortName": "Appleton", "municipalityName": "Appleton", "location": {"lat": 44.2581, "lon": -88.5191}, "countryCode": "US"}, "averageDailyFlights": 0.14, "operators": [{"name": "GAJ"}]}, {"destination": {"icao": "KPDK", "iata": "PDK", "name": "Atlanta DeKalb Peachtree", "shortName": "DeKalb Peachtree", "municipalityName": "Atlanta", "location": {"lat": 33.8756, "lon": -84.302}, "countryCode": "US"}, "averageDailyFlights": 0.14, "operators": [{"name": "LXJ"}]}, {"destination": {"icao": "KBTL", "iata": "BTL", "name": "Battle Creek W K Kellogg", "shortName": "W K Kellogg", "municipalityName": "Battle Creek", "location": {"lat": 42.3073, "lon": -85.2515}, "countryCode": "US"}, "averageDailyFlights": 0.14, "operators": [{"name": "PRD"}]}, {"destination": {"icao": "KCID", "iata": "CID", "name": "Cedar Rapids The Eastern Iowa", "shortName": "The Eastern Iowa", "municipalityName": "Cedar Rapids", "location": {"lat": 41.8847, "lon": -91.7108}, "countryCode": "US"}, "averageDailyFlights": 0.14, "operators": [{"name": "Kabo Air", "iata": "N9", "icao": "QNK"}]}, {"destination": {"icao": "KMDW", "iata": "MDW", "name": "Chicago Midway", "shortName": "Midway", "municipalityName": "Chicago", "location": {"lat": 41.786, "lon": -87.7524}, "countryCode": "US"}, "averageDailyFlights": 0.14, "operators": [{"name": "NetJets Aviation", "iata": "1I", "icao": "EJA"}]}, {"destination": {"icao": "KDAL", "iata": "DAL", "name": "Dallas Love Field", "shortName": "Love Field", "municipalityName": "Dallas", "location": {"lat": 32.8471, "lon": -96.8518}, "countryCode": "US"}, "averageDailyFlights": 0.14, "operators": [{"name": "NetJets Aviation", "iata": "1I", "icao": "EJA"}]}, {"destination": {"icao": "KDAY", "iata": "DAY", "name": "Dayton James M Cox", "shortName": "James M Cox", "municipalityName": "Dayton", "location": {"lat": 39.9024, "lon": -84.2194}, "countryCode": "US"}, "averageDailyFlights": 0.14, "operators": [{"name": "Air Wisconsin", "iata": "ZW", "icao": "AWI"}]}, {"destination": {"icao": "KFBL", "iata": "FBL", "name": "Faribault Municipal", "shortName": "Municipal", "municipalityName": "Faribault", "location": {"lat": 44.3247, "lon": -93.3108}, "countryCode": "US"}, "averageDailyFlights": 0.14, "operators": [{"name": "MVK"}]}, {"destination": {"icao": "KHOU", "iata": "HOU", "name": "Houston William P Hobby", "shortName": "William P Hobby", "municipalityName": "Houston", "location": {"lat": 29.6454, "lon": -95.2789}, "countryCode": "US"}, "averageDailyFlights": 0.14, "operators": [{"name": "SCM"}]}, {"destination": {"icao": "KIND", "iata": "IND", "name": "Indianapolis ", "shortName": "Indianapolis", "municipalityName": "Indianapolis", "location": {"lat": 39.7173, "lon": -86.2944}, "countryCode": "US"}, "averageDailyFlights": 0.14, "operators": [{"name": "JLG"}]}, {"destination": {"icao": "CYQK", "iata": "YQK", "name": "Kenora ", "shortName": "Kenora", "municipalityName": "Kenora", "location": {"lat": 49.7883, "lon": -94.3631}, "countryCode": "CA"}, "averageDailyFlights": 0.14, "operators": [{"name": "VNT"}]}, {"destination": {"icao": "KMSN", "iata": "MSN", "name": "Madison Dane County Regional Truax Field", "shortName": "Dane County Regional Truax Field", "municipalityName": "Madison", "location": {"lat": 43.1399, "lon": -89.3375}, "countryCode": "US"}, "averageDailyFlights": 0.14, "operators": [{"name": "EJM"}]}, {"destination": {"icao": "KMKE", "iata": "MKE", "name": "Milwaukee General Mitchell", "shortName": "General Mitchell", "municipalityName": "Milwaukee", "location": {"lat": 42.9472, "lon": -87.8966}, "countryCode": "US"}, "averageDailyFlights": 0.14, "operators": [{"name": "NetJets Aviation", "iata": "1I", "icao": "EJA"}]}, {"destination": {"icao": "KFCM", "iata": "FCM", "name": "Minneapolis Flying Cloud", "shortName": "Flying Cloud", "municipalityName": "Minneapolis", "location": {"lat": 44.8272, "lon": -93.4571}, "countryCode": "US"}, "averageDailyFlights": 0.14, "operators": [{"name": "NetJets Aviation", "iata": "1I", "icao": "EJA"}]}, {"destination": {"icao": "KMMU", "iata": "MMU", "name": "Morristown Municipal", "shortName": "Municipal", "municipalityName": "Morristown", "location": {"lat": 40.7994, "lon": -74.4149}, "countryCode": "US"}, "averageDailyFlights": 0.14, "operators": [{"name": "FTH"}]}, {"destination": {"icao": "KOKC", "iata": "OKC", "name": "Oklahoma City Will Rogers World", "shortName": "Will Rogers World", "municipalityName": "Oklahoma City", "location": {"lat": 35.3931, "lon": -97.6007}, "countryCode": "US"}, "averageDailyFlights": 0.14, "operators": [{"name": "FWK"}]}, {"destination": {"icao": "KOMA", "iata": "OMA", "name": "Omaha Eppley Airfield", "shortName": "Eppley Airfield", "municipalityName": "Omaha", "location": {"lat": 41.3032, "lon": -95.8941}, "countryCode": "US"}, "averageDailyFlights": 0.14, "operators": [{"name": "NetJets Aviation", "iata": "1I", "icao": "EJA"}]}, {"destination": {"icao": "KSUS", "iata": "SUS", "name": "Saint Louis Spirit of St Louis", "shortName": "Spirit of St Louis", "municipalityName": "Saint Louis", "location": {"lat": 38.6621, "lon": -90.652}, "countryCode": "US"}, "averageDailyFlights": 0.14, "operators": [{"name": "JRE"}]}, {"destination": {"icao": "KSAV", "iata": "SAV", "name": "Savannah Hilton Head", "shortName": "Hilton Head", "municipalityName": "Savannah", "location": {"lat": 32.1276, "lon": -81.2021}, "countryCode": "US"}, "averageDailyFlights": 0.14, "operators": [{"name": "PXG"}]}, {"destination": {"icao": "KSTP", "iata": "STP", "name": "St Paul Downtown Holman Field", "shortName": "Downtown Holman Field", "municipalityName": "St Paul", "location": {"lat": 44.9345, "lon": -93.06}, "countryCode": "US"}, "averageDailyFlights": 0.14, "operators": [{"name": "PXG"}]}, {"destination": {"icao": "KSUE", "iata": "SUE", "name": "Sturgeon Bay Door County Cherryland", "shortName": "Door County Cherryland", "municipalityName": "Sturgeon Bay", "location": {"lat": 44.8437, "lon": -87.4215}, "countryCode": "US"}, "averageDailyFlights": 0.14, "operators": [{"name": "LXJ"}]}, {"destination": {"icao": "KTYR", "iata": "TYR", "name": "Tyler Pounds Regional", "shortName": "Pounds Regional", "municipalityName": "Tyler", "location": {"lat": 32.3541, "lon": -95.4024}, "countryCode": "US"}, "averageDailyFlights": 0.14, "operators": [{"name": "NetJets Aviation", "iata": "1I", "icao": "EJA"}]}, {"destination": {"icao": "KVRB", "iata": "VRB", "name": "Vero Beach Municipal", "shortName": "Municipal", "municipalityName": "Vero Beach", "location": {"lat": 27.6556, "lon": -80.4179}, "countryCode": "US"}, "averageDailyFlights": 0.14, "operators": [{"name": "TWY"}]}]}