{"routes": [{"destination": {"icao": "KSLC", "iata": "SLC", "name": "Salt Lake City ", "shortName": "Salt Lake City", "municipalityName": "Salt Lake City", "location": {"lat": 40.7884, "lon": -111.978}, "countryCode": "US"}, "averageDailyFlights": 7.29, "operators": [{"name": "CBC"}, {"name": "Delta Air Lines", "iata": "DL", "icao": "DAL"}, {"name": "Alpine Air Express", "iata": "5A", "icao": "AIP"}, {"name": "SCW"}, {"name": "XSN"}, {"name": "NetJets Aviation", "iata": "1I", "icao": "EJA"}]}, {"destination": {"icao": "KPHX", "iata": "PHX", "name": "Phoenix Sky Harbor", "shortName": "Sky Harbor", "municipalityName": "Phoenix", "location": {"lat": 33.4343, "lon": -112.012}, "countryCode": "US"}, "averageDailyFlights": 1.86, "operators": [{"name": "American Airlines", "iata": "AA", "icao": "AAL"}]}, {"destination": {"icao": "KDEN", "iata": "DEN", "name": "Denver ", "shortName": "Denver", "municipalityName": "Denver", "location": {"lat": 39.8617, "lon": -104.673}, "countryCode": "US"}, "averageDailyFlights": 1.71, "operators": [{"name": "United Airlines", "iata": "UA", "icao": "UAL"}]}, {"destination": {"icao": "KLAS", "iata": "LAS", "name": "Las Vegas McCarran", "shortName": "McCarran", "municipalityName": "Las Vegas", "location": {"lat": 36.0801, "lon": -115.152}, "countryCode": "US"}, "averageDailyFlights": 1.29, "operators": [{"name": "PCM"}, {"name": "NetJets Aviation", "iata": "1I", "icao": "EJA"}, {"name": "Allegiant Air", "iata": "G4", "icao": "AAY"}, {"name": "HER"}]}, {"destination": {"icao": "KOGD", "iata": "OGD", "name": "Ogden Hinckley", "shortName": "Hinckley", "municipalityName": "Ogden", "location": {"lat": 41.1959, "lon": -112.012}, "countryCode": "US"}, "averageDailyFlights": 1.29, "operators": [{"name": "CBC"}, {"name": "CXK"}]}, {"destination": {"icao": "KSNA", "iata": "SNA", "name": "Santa Ana John Wayne -Orange County", "shortName": "John Wayne -Orange County", "municipalityName": "Santa Ana", "location": {"lat": 33.6757, "lon": -117.868}, "countryCode": "US"}, "averageDailyFlights": 0.43, "operators": [{"name": "N5Z"}, {"name": "MVJ"}]}, {"destination": {"icao": "KCRQ", "iata": "CLD", "name": "Carlsbad Mc Clellan-Palomar", "shortName": "Mc Clellan-Palomar", "municipalityName": "Carlsbad", "location": {"lat": 33.1283, "lon": -117.28}, "countryCode": "US"}, "averageDailyFlights": 0.29, "operators": [{"name": "WDY"}]}, {"destination": {"icao": "KDFW", "iata": "DFW", "name": "Dallas-Fort Worth ", "shortName": "Dallas-Fort Worth", "municipalityName": "Dallas-Fort Worth", "location": {"lat": 32.8968, "lon": -97.038}, "countryCode": "US"}, "averageDailyFlights": 0.29, "operators": [{"name": "American Airlines", "iata": "AA", "icao": "AAL"}]}, {"destination": {"icao": "KFFZ", "iata": "MSC", "name": "Mesa Falcon Field", "shortName": "Falcon Field", "municipalityName": "Mesa", "location": {"lat": 33.4608, "lon": -111.728}, "countryCode": "US"}, "averageDailyFlights": 0.29, "operators": [{"name": "CTA"}]}, {"destination": {"icao": "KBIS", "iata": "BIS", "name": "Bismarck Municipal", "shortName": "Municipal", "municipalityName": "Bismarck", "location": {"lat": 46.7727, "lon": -100.746}, "countryCode": "US"}, "averageDailyFlights": 0.14, "operators": [{"name": "My Jet Xpress Airlines", "iata": "N7", "icao": "NEP"}]}, {"destination": {"icao": "KBZN", "iata": "BZN", "name": "Bozeman Gallatin Field", "shortName": "Gallatin Field", "municipalityName": "Bozeman", "location": {"lat": 45.7775, "lon": -111.153}, "countryCode": "US"}, "averageDailyFlights": 0.14, "operators": [{"name": "Allegiant Air", "iata": "G4", "icao": "AAY"}]}, {"destination": {"icao": "KBUR", "iata": "BUR", "name": "Burbank Bob Hope", "shortName": "Bob Hope", "municipalityName": "Burbank", "location": {"lat": 34.2007, "lon": -118.359}, "countryCode": "US"}, "averageDailyFlights": 0.14, "operators": [{"name": "N1"}]}, {"destination": {"icao": "KLRU", "iata": "LRU", "name": "Las Cruces ", "shortName": "Las Cruces", "municipalityName": "Las Cruces", "location": {"lat": 32.2894, "lon": -106.922}, "countryCode": "US"}, "averageDailyFlights": 0.14, "operators": [{"name": "WDY"}]}, {"destination": {"icao": "KLOU", "iata": "LOU", "name": "Louisville Bowman Field", "shortName": "Bowman Field", "municipalityName": "Louisville", "location": {"lat": 38.228, "lon": -85.6637}, "countryCode": "US"}, "averageDailyFlights": 0.14, "operators": [{"name": "Nordwind Airlines", "iata": "N4", "icao": "NWS"}]}, {"destination": {"icao": "KPSP", "iata": "PSP", "name": "Palm Springs ", "shortName": "Palm Springs", "municipalityName": "Palm Springs", "location": {"lat": 33.8297, "lon": -116.507}, "countryCode": "US"}, "averageDailyFlights": 0.14, "operators": [{"name": "SCW"}]}, {"destination": {"icao": "KVNY", "iata": "VNY", "name": "Van Nuys ", "shortName": "Van Nuys", "municipalityName": "Van Nuys", "location": {"lat": 34.2098, "lon": -118.49}, "countryCode": "US"}, "averageDailyFlights": 0.14, "operators": [{"name": "WSP"}]}]}