{"routes": [{"destination": {"icao": "LEMD", "iata": "MAD", "name": "Madrid Adolfo Su\u00e1rez \u2013Barajas", "shortName": "Adolfo Su\u00e1rez \u2013Barajas", "municipalityName": "Madrid", "location": {"lat": 40.4936, "lon": -3.56676}, "countryCode": "ES"}, "averageDailyFlights": 2.86, "operators": [{"name": "Iberia", "iata": "IB", "icao": "IBE"}]}, {"destination": {"icao": "LEBL", "iata": "BCN", "name": "Barcelona ", "shortName": "Barcelona", "municipalityName": "Barcelona", "location": {"lat": 41.2971, "lon": 2.078459}, "countryCode": "ES"}, "averageDailyFlights": 2.29, "operators": [{"name": "Vueling", "iata": "VY", "icao": "VLG"}, {"name": "Ryanair", "iata": "FR", "icao": "RYR"}, {"name": "Qatar Airways", "iata": "QR", "icao": "QTR"}]}, {"destination": {"icao": "EDDF", "iata": "FRA", "name": "Frankfurt-am-Main ", "shortName": "Frankfurt-am-Main", "municipalityName": "Frankfurt-am-Main", "location": {"lat": 50.0264, "lon": 8.543129}, "countryCode": "DE"}, "averageDailyFlights": 1.14, "operators": [{"name": "TUIfly", "iata": "X3", "icao": "TUI"}, {"name": "Condor", "iata": "DE", "icao": "CFG"}, {"name": "Eurowings Discover"}]}, {"destination": {"icao": "EDDL", "iata": "DUS", "name": "Duesseldorf D\u00fcsseldorf", "shortName": "D\u00fcsseldorf", "municipalityName": "Duesseldorf", "location": {"lat": 51.2895, "lon": 6.766779}, "countryCode": "DE"}, "averageDailyFlights": 1.0, "operators": [{"name": "TUIfly", "iata": "X3", "icao": "TUI"}, {"name": "Condor", "iata": "DE", "icao": "CFG"}, {"name": "Eurowings", "iata": "EW", "icao": "EWG"}]}, {"destination": {"icao": "EDDM", "iata": "MUC", "name": "Munich ", "shortName": "Munich", "municipalityName": "Munich", "location": {"lat": 48.3538, "lon": 11.7861}, "countryCode": "DE"}, "averageDailyFlights": 0.71, "operators": [{"name": "TUIfly", "iata": "X3", "icao": "TUI"}, {"name": "Lufthansa", "iata": "LH", "icao": "DLH"}]}, {"destination": {"icao": "EGSS", "iata": "STN", "name": "London Stansted", "shortName": "Stansted", "municipalityName": "London", "location": {"lat": 51.885, "lon": 0.234999}, "countryCode": "GB"}, "averageDailyFlights": 0.57, "operators": [{"name": "Ryanair", "iata": "FR", "icao": "RYR"}]}, {"destination": {"icao": "LEPA", "iata": "PMI", "name": "Palma De Mallorca ", "shortName": "Palma De Mallorca", "municipalityName": "Palma De Mallorca", "location": {"lat": 39.5517, "lon": 2.73881}, "countryCode": "ES"}, "averageDailyFlights": 0.57, "operators": [{"name": "Ryanair", "iata": "FR", "icao": "RYR"}, {"name": "Vueling", "iata": "VY", "icao": "VLG"}]}, {"destination": {"icao": "GCLP", "iata": "LPA", "name": "Gran Canaria Island Gran Canaria", "shortName": "Gran Canaria", "municipalityName": "Gran Canaria Island", "location": {"lat": 27.9319, "lon": -15.386599}, "countryCode": "ES"}, "averageDailyFlights": 0.43, "operators": [{"name": "Binter Canarias", "iata": "NT", "icao": "IBB"}]}, {"destination": {"icao": "EDDH", "iata": "HAM", "name": "Hamburg ", "shortName": "Hamburg", "municipalityName": "Hamburg", "location": {"lat": 53.6304, "lon": 9.988229}, "countryCode": "DE"}, "averageDailyFlights": 0.43, "operators": [{"name": "Norwegian Air UK", "iata": "DI", "icao": "NRS"}, {"name": "MBU"}]}, {"destination": {"icao": "EDDV", "iata": "HAJ", "name": "Hanover Hannover", "shortName": "Hannover", "municipalityName": "Hanover", "location": {"lat": 52.4611, "lon": 9.685079}, "countryCode": "DE"}, "averageDailyFlights": 0.43, "operators": [{"name": "TUIfly", "iata": "X3", "icao": "TUI"}]}, {"destination": {"icao": "LEBB", "iata": "BIO", "name": "Bilbao ", "shortName": "Bilbao", "municipalityName": "Bilbao", "location": {"lat": 43.3011, "lon": -2.910609}, "countryCode": "ES"}, "averageDailyFlights": 0.29, "operators": [{"name": "Vueling", "iata": "VY", "icao": "VLG"}]}, {"destination": {"icao": "EBBR", "iata": "BRU", "name": "Brussels ", "shortName": "Brussels", "municipalityName": "Brussels", "location": {"lat": 50.9014, "lon": 4.484439}, "countryCode": "BE"}, "averageDailyFlights": 0.29, "operators": [{"name": "TUI Airlines Belgium", "iata": "TB", "icao": "JAF"}]}, {"destination": {"icao": "GCXO", "iata": "TFN", "name": "Tenerife Island Tenerife Norte", "shortName": "Tenerife Norte", "municipalityName": "Tenerife Island", "location": {"lat": 28.4827, "lon": -16.3415}, "countryCode": "ES"}, "averageDailyFlights": 0.29, "operators": [{"name": "Binter Canarias", "iata": "NT", "icao": "IBB"}]}, {"destination": {"icao": "LSZB", "iata": "BRN", "name": "Berne Bern Belp", "shortName": "Bern Belp", "municipalityName": "Berne", "location": {"lat": 46.9141, "lon": 7.497149}, "countryCode": "CH"}, "averageDailyFlights": 0.14, "operators": [{"name": "Helvetic Airways", "iata": "2L", "icao": "OAW"}]}, {"destination": {"icao": "EGKK", "iata": "LGW", "name": "London Gatwick", "shortName": "Gatwick", "municipalityName": "London", "location": {"lat": 51.1481, "lon": -0.190277}, "countryCode": "GB"}, "averageDailyFlights": 0.14, "operators": [{"name": "TUI Airways", "iata": "BY", "icao": "TOM"}]}, {"destination": {"icao": "ELLX", "iata": "LUX", "name": "Luxembourg -Findel", "shortName": "-Findel", "municipalityName": "Luxembourg", "location": {"lat": 49.6266, "lon": 6.21152}, "countryCode": "LU"}, "averageDailyFlights": 0.14, "operators": [{"name": "Luxair", "iata": "LG", "icao": "LGL"}]}, {"destination": {"icao": "LEXJ", "iata": "SDR", "name": "Santander ", "shortName": "Santander", "municipalityName": "Santander", "location": {"lat": 43.4271, "lon": -3.820009}, "countryCode": "ES"}, "averageDailyFlights": 0.14, "operators": [{"name": "Iberia", "iata": "IB", "icao": "IBE"}]}, {"destination": {"icao": "EDDS", "iata": "STR", "name": "Stuttgart ", "shortName": "Stuttgart", "municipalityName": "Stuttgart", "location": {"lat": 48.6899, "lon": 9.22196}, "countryCode": "DE"}, "averageDailyFlights": 0.14, "operators": [{"name": "TUIfly", "iata": "X3", "icao": "TUI"}]}, {"destination": {"icao": "LEVC", "iata": "VLC", "name": "Valencia ", "shortName": "Valencia", "municipalityName": "Valencia", "location": {"lat": 39.4893, "lon": -0.481624}, "countryCode": "ES"}, "averageDailyFlights": 0.14, "operators": [{"name": "Iberia", "iata": "IB", "icao": "IBE"}]}, {"destination": {"icao": "LSZH", "iata": "ZRH", "name": "Zurich Kloten", "shortName": "Kloten", "municipalityName": "Zurich", "location": {"lat": 47.4647, "lon": 8.549169}, "countryCode": "CH"}, "averageDailyFlights": 0.14, "operators": [{"name": "Edelweiss Air", "iata": "WK", "icao": "EDW"}]}]}