{"routes": [{"destination": {"icao": "SKRG", "iata": "MDE", "name": "Rionegro Jose Maria C\u00f3rdova", "shortName": "Jose Maria C\u00f3rdova", "municipalityName": "Rionegro", "location": {"lat": 6.16454, "lon": -75.4231}, "countryCode": "CO"}, "averageDailyFlights": 1.14, "operators": [{"name": "Copa Airlines Colombia", "iata": "P5", "icao": "RPB"}]}, {"destination": {"icao": "SKBO", "iata": "BOG", "name": "Bogot\u00e1 El Dorado", "shortName": "El Dorado", "municipalityName": "Bogot\u00e1", "location": {"lat": 4.70159, "lon": -74.1469}, "countryCode": "CO"}, "averageDailyFlights": 0.86, "operators": [{"name": "Copa Airlines Colombia", "iata": "P5", "icao": "RPB"}]}, {"destination": {"icao": "MUHA", "iata": "HAV", "name": "Havana Jos\u00e9 Mart\u00ed", "shortName": "Jos\u00e9 Mart\u00ed", "municipalityName": "Havana", "location": {"lat": 22.9892, "lon": -82.4091}, "countryCode": "CU"}, "averageDailyFlights": 0.57, "operators": [{"name": "Copa Airlines Colombia", "iata": "P5", "icao": "RPB"}]}, {"destination": {"icao": "SKBQ", "iata": "BAQ", "name": "Barranquilla Ernesto Cortissoz", "shortName": "Ernesto Cortissoz", "municipalityName": "Barranquilla", "location": {"lat": 10.8896, "lon": -74.7808}, "countryCode": "CO"}, "averageDailyFlights": 0.43, "operators": [{"name": "Copa Airlines Colombia", "iata": "P5", "icao": "RPB"}]}, {"destination": {"icao": "SKCG", "iata": "CTG", "name": "Cartagena de Indias Rafael Nu\u00f1ez", "shortName": "Rafael Nu\u00f1ez", "municipalityName": "Cartagena de Indias", "location": {"lat": 10.4424, "lon": -75.513}, "countryCode": "CO"}, "averageDailyFlights": 0.43, "operators": [{"name": "Copa Airlines Colombia", "iata": "P5", "icao": "RPB"}]}, {"destination": {"icao": "MROC", "iata": "SJO", "name": "San Jos\u00e9 Juan Santamaria", "shortName": "Juan Santamaria", "municipalityName": "San Jos\u00e9", "location": {"lat": 9.99386, "lon": -84.2088}, "countryCode": "CR"}, "averageDailyFlights": 0.43, "operators": [{"name": "Copa Airlines Colombia", "iata": "P5", "icao": "RPB"}]}, {"destination": {"icao": "SKCL", "iata": "CLO", "name": "Santiago de Cali Alfonso Bonilla Aragon", "shortName": "Alfonso Bonilla Aragon", "municipalityName": "Santiago de Cali", "location": {"lat": 3.54322, "lon": -76.3816}, "countryCode": "CO"}, "averageDailyFlights": 0.43, "operators": [{"name": "Copa Airlines Colombia", "iata": "P5", "icao": "RPB"}]}, {"destination": {"icao": "MPDA", "iata": "DAV", "name": "David Enrique Malek", "shortName": "Enrique Malek", "municipalityName": "David", "location": {"lat": 8.390999, "lon": -82.435}, "countryCode": "PA"}, "averageDailyFlights": 0.29, "operators": [{"name": "Copa Airlines Colombia", "iata": "P5", "icao": "RPB"}]}, {"destination": {"icao": "SEQM", "iata": "UIO", "name": "Quito Mariscal Sucre", "shortName": "Mariscal Sucre", "municipalityName": "Quito", "location": {"lat": -0.129166, "lon": -78.3575}, "countryCode": "EC"}, "averageDailyFlights": 0.29, "operators": [{"name": "Starlink Aviation"}]}]}