{"routes": [{"destination": {"icao": "OIII", "iata": "THR", "name": "Tehran Mehrabad", "shortName": "Mehrabad", "municipalityName": "Tehran", "location": {"lat": 35.6892, "lon": 51.3134}, "countryCode": "IR"}, "averageDailyFlights": 3.29, "operators": [{"name": "Iran Air", "iata": "IR", "icao": "IRA"}, {"name": "Qeshm Air", "iata": "QB", "icao": "QSM"}]}, {"destination": {"icao": "LTFM", "iata": "IST", "name": "Istanbul ", "shortName": "Istanbul", "municipalityName": "Istanbul", "location": {"lat": 41.275276, "lon": 28.751944}, "countryCode": "TR"}, "averageDailyFlights": 1.14, "operators": [{"name": "Turkish Airlines", "iata": "TK", "icao": "THY"}, {"name": "Iran Air", "iata": "IR", "icao": "IRA"}]}, {"destination": {"icao": "OIMM", "iata": "MHD", "name": "Mashhad ", "shortName": "Mashhad", "municipalityName": "Mashhad", "location": {"lat": 36.2352, "lon": 59.641}, "countryCode": "IR"}, "averageDailyFlights": 0.86, "operators": [{"name": "Iran Airtour", "iata": "B9", "icao": "IRB"}, {"name": "Qeshm Air", "iata": "QB", "icao": "QSM"}]}, {"destination": {"icao": "OTHH", "iata": "DOH", "name": "Doha Hamad", "shortName": "Hamad", "municipalityName": "Doha", "location": {"lat": 25.273056, "lon": 51.608055}, "countryCode": "QA"}, "averageDailyFlights": 0.43, "operators": [{"name": "Qatar Airways", "iata": "QR", "icao": "QTR"}]}, {"destination": {"icao": "OMDB", "iata": "DXB", "name": "Dubai ", "shortName": "Dubai", "municipalityName": "Dubai", "location": {"lat": 25.252798, "lon": 55.3644}, "countryCode": "AE"}, "averageDailyFlights": 0.29, "operators": [{"name": "flydubai", "iata": "FZ", "icao": "FDB"}]}, {"destination": {"icao": "OKBK", "iata": "KWI", "name": "Kuwait City Kuwait", "shortName": "Kuwait", "municipalityName": "Kuwait City", "location": {"lat": 29.2266, "lon": 47.9689}, "countryCode": "KW"}, "averageDailyFlights": 0.29, "operators": [{"name": "Iran Air", "iata": "IR", "icao": "IRA"}]}, {"destination": {"name": "Gheshm"}, "averageDailyFlights": 0.29, "operators": [{"name": "Qeshm Air", "iata": "QB", "icao": "QSM"}]}, {"destination": {"icao": "OIAA", "iata": "ABD", "name": "Abadan ", "shortName": "Abadan", "municipalityName": "Abadan", "location": {"lat": 30.3711, "lon": 48.2283}, "countryCode": "IR"}, "averageDailyFlights": 0.14, "operators": [{"name": "Iran Aseman Airlines", "iata": "EP", "icao": "IRC"}]}]}