{"routes": [{"destination": {"icao": "LTFM", "iata": "IST", "name": "Istanbul ", "shortName": "Istanbul", "municipalityName": "Istanbul", "location": {"lat": 41.275276, "lon": 28.751944}, "countryCode": "TR"}, "averageDailyFlights": 9.0, "operators": [{"name": "Turkish Airlines", "iata": "TK", "icao": "THY"}, {"name": "Mahan Air", "iata": "W5", "icao": "IRM"}, {"name": "Iran Air", "iata": "IR", "icao": "IRA"}]}, {"destination": {"icao": "OMDB", "iata": "DXB", "name": "Dubai ", "shortName": "Dubai", "municipalityName": "Dubai", "location": {"lat": 25.252798, "lon": 55.3644}, "countryCode": "AE"}, "averageDailyFlights": 7.57, "operators": [{"name": "Emirates", "iata": "EK", "icao": "UAE"}, {"name": "Mahan Air", "iata": "W5", "icao": "IRM"}, {"name": "flydubai", "iata": "FZ", "icao": "FDB"}]}, {"destination": {"icao": "LTFJ", "iata": "SAW", "name": "Istanbul Sabiha G\u00f6k\u00e7en", "shortName": "Sabiha G\u00f6k\u00e7en", "municipalityName": "Istanbul", "location": {"lat": 40.8986, "lon": 29.3092}, "countryCode": "TR"}, "averageDailyFlights": 4.42, "operators": [{"name": "Pegasus", "iata": "PC", "icao": "PGT"}, {"name": "AnadoluJet"}, {"name": "Iran Airtour", "iata": "B9", "icao": "IRB"}, {"name": "Qeshm Air", "iata": "QB", "icao": "QSM"}, {"name": "Iran Aseman Airlines", "iata": "EP", "icao": "IRC"}]}, {"destination": {"icao": "OTHH", "iata": "DOH", "name": "Doha Hamad", "shortName": "Hamad", "municipalityName": "Doha", "location": {"lat": 25.273056, "lon": 51.608055}, "countryCode": "QA"}, "averageDailyFlights": 3.29, "operators": [{"name": "Qatar Airways", "iata": "QR", "icao": "QTR"}]}, {"destination": {"icao": "LTAC", "iata": "ESB", "name": "Ankara Esenbo\u011fa", "shortName": "Esenbo\u011fa", "municipalityName": "Ankara", "location": {"lat": 40.1281, "lon": 32.9951}, "countryCode": "TR"}, "averageDailyFlights": 1.71, "operators": [{"name": "AnadoluJet"}, {"name": "Pegasus", "iata": "PC", "icao": "PGT"}, {"name": "Mahan Air", "iata": "W5", "icao": "IRM"}]}, {"destination": {"icao": "OKBK", "iata": "KWI", "name": "Kuwait City Kuwait", "shortName": "Kuwait", "municipalityName": "Kuwait City", "location": {"lat": 29.2266, "lon": 47.9689}, "countryCode": "KW"}, "averageDailyFlights": 1.48, "operators": [{"name": "Kuwait Airways", "iata": "KU", "icao": "KAC"}, {"name": "Jazeera Airways", "iata": "J9", "icao": "JZR"}, {"name": "Iran Air", "iata": "IR", "icao": "IRA"}, {"name": "Qeshm Air", "iata": "QB", "icao": "QSM"}]}, {"destination": {"icao": "UDYZ", "iata": "EVN", "localCode": "\u0417\u0412\u0420", "name": "Yerevan Zvartnots", "shortName": "Zvartnots", "municipalityName": "Yerevan", "location": {"lat": 40.1473, "lon": 44.3959}, "countryCode": "AM"}, "averageDailyFlights": 1.43, "operators": [{"name": "FlyOne Armenia", "iata": "3F", "icao": "FIE"}, {"name": "Gowair", "iata": "G6", "icao": "GWR"}, {"name": "Armenia Airways", "iata": "6A", "icao": "AMW"}, {"name": "Iran Airtour", "iata": "B9", "icao": "IRB"}]}, {"destination": {"icao": "ORBI", "iata": "BGW", "name": "Baghdad ", "shortName": "Baghdad", "municipalityName": "Baghdad", "location": {"lat": 33.2625, "lon": 44.2346}, "countryCode": "IQ"}, "averageDailyFlights": 1.29, "operators": [{"name": "I A W", "iata": "IA", "icao": "IAW"}, {"name": "Mahan Air", "iata": "W5", "icao": "IRM"}, {"name": "Fly Baghdad", "iata": "IF", "icao": "FBA"}]}, {"destination": {"icao": "EDDF", "iata": "FRA", "name": "Frankfurt-am-Main ", "shortName": "Frankfurt-am-Main", "municipalityName": "Frankfurt-am-Main", "location": {"lat": 50.0264, "lon": 8.543129}, "countryCode": "DE"}, "averageDailyFlights": 1.29, "operators": [{"name": "Lufthansa", "iata": "LH", "icao": "DLH"}, {"name": "Iran Air", "iata": "IR", "icao": "IRA"}]}, {"destination": {"icao": "OOMS", "iata": "MCT", "name": "Muscat ", "shortName": "Muscat", "municipalityName": "Muscat", "location": {"lat": 23.5933, "lon": 58.2844}, "countryCode": "OM"}, "averageDailyFlights": 1.14, "operators": [{"name": "SalamAir", "iata": "OV", "icao": "OMS"}]}, {"destination": {"icao": "OMSJ", "iata": "SHJ", "name": "Sharjah ", "shortName": "Sharjah", "municipalityName": "Sharjah", "location": {"lat": 25.3286, "lon": 55.5172}, "countryCode": "AE"}, "averageDailyFlights": 1.14, "operators": [{"name": "Air Arabia", "iata": "G9", "icao": "ABY"}]}, {"destination": {"icao": "LOWW", "iata": "VIE", "name": "Vienna Schwechat", "shortName": "Schwechat", "municipalityName": "Vienna", "location": {"lat": 48.1103, "lon": 16.5697}, "countryCode": "AT"}, "averageDailyFlights": 0.86, "operators": [{"name": "Austrian", "iata": "OS", "icao": "AUA"}, {"name": "Iran Air", "iata": "IR", "icao": "IRA"}]}, {"destination": {"icao": "EGLL", "iata": "LHR", "name": "London Heathrow", "shortName": "Heathrow", "municipalityName": "London", "location": {"lat": 51.4706, "lon": -0.461941}, "countryCode": "GB"}, "averageDailyFlights": 0.71, "operators": [{"name": "Iran Air", "iata": "IR", "icao": "IRA"}]}, {"destination": {"icao": "LTAY", "iata": "DNZ", "name": "Denizli \u00c7ardak", "shortName": "\u00c7ardak", "municipalityName": "Denizli", "location": {"lat": 37.7856, "lon": 29.7013}, "countryCode": "TR"}, "averageDailyFlights": 0.57, "operators": [{"name": "Qeshm Air", "iata": "QB", "icao": "QSM"}, {"name": "Iran Airtour", "iata": "B9", "icao": "IRB"}]}, {"destination": {"icao": "ZGGG", "iata": "CAN", "name": "Guangzhou Baiyun", "shortName": "Baiyun", "municipalityName": "Guangzhou", "location": {"lat": 23.3924, "lon": 113.299}, "countryCode": "CN"}, "averageDailyFlights": 0.57, "operators": [{"name": "Mahan Air", "iata": "W5", "icao": "IRM"}]}, {"destination": {"icao": "UUEE", "iata": "SVO", "localCode": "\u0428\u0420\u041c", "name": "Moscow Sheremetyevo", "shortName": "Sheremetyevo", "municipalityName": "Moscow", "location": {"lat": 55.9726, "lon": 37.4146}, "countryCode": "RU"}, "averageDailyFlights": 0.57, "operators": [{"name": "Aeroflot", "iata": "SU", "icao": "AFL"}, {"name": "Nordwind Airlines", "iata": "N4", "icao": "NWS"}]}, {"destination": {"name": "Tbilisi"}, "averageDailyFlights": 0.57, "operators": [{"name": "Qeshm Air", "iata": "QB", "icao": "QSM"}]}, {"destination": {"name": "\u00dcr\u00fcmqi"}, "averageDailyFlights": 0.57, "operators": [{"name": "China Southern Airlines", "iata": "CZ", "icao": "CSN"}]}, {"destination": {"icao": "OMAA", "iata": "AUH", "name": "Abu Dhabi Island and Internal Islands City Abu Dhabi", "shortName": "Abu Dhabi", "municipalityName": "Abu Dhabi Island and Internal Islands City", "location": {"lat": 24.433, "lon": 54.6511}, "countryCode": "AE"}, "averageDailyFlights": 0.43, "operators": [{"name": "Air Arabia Abu Dhabi", "iata": "3L", "icao": "ADY"}]}, {"destination": {"icao": "ORER", "iata": "EBL", "name": "Arbil Erbil", "shortName": "Erbil", "municipalityName": "Arbil", "location": {"lat": 36.2376, "lon": 43.9632}, "countryCode": "IQ"}, "averageDailyFlights": 0.43, "operators": [{"name": "Mahan Air", "iata": "W5", "icao": "IRM"}]}, {"destination": {"icao": "EDDH", "iata": "HAM", "name": "Hamburg ", "shortName": "Hamburg", "municipalityName": "Hamburg", "location": {"lat": 53.6304, "lon": 9.988229}, "countryCode": "DE"}, "averageDailyFlights": 0.43, "operators": [{"name": "Iran Air", "iata": "IR", "icao": "IRA"}]}, {"destination": {"icao": "LTAU", "iata": "ASR", "name": "Kayseri Erkilet", "shortName": "Erkilet", "municipalityName": "Kayseri", "location": {"lat": 38.7704, "lon": 35.4954}, "countryCode": "TR"}, "averageDailyFlights": 0.43, "operators": [{"name": "Corendon Air", "iata": "XC", "icao": "CAI"}]}, {"destination": {"icao": "ORSU", "iata": "ISU", "name": "Sulaymaniyah ", "shortName": "Sulaymaniyah", "municipalityName": "Sulaymaniyah", "location": {"lat": 35.56175, "lon": 45.31674}, "countryCode": "IQ"}, "averageDailyFlights": 0.43, "operators": [{"name": "Mahan Air", "iata": "W5", "icao": "IRM"}]}, {"destination": {"icao": "UBBB", "iata": "GYD", "localCode": "\u0411\u0410\u041a", "name": "Baku Heydar Aliyev", "shortName": "Heydar Aliyev", "municipalityName": "Baku", "location": {"lat": 40.4675, "lon": 50.0467}, "countryCode": "AZ"}, "averageDailyFlights": 0.29, "operators": [{"name": "AZAL Azerbaijan Airlines", "iata": "J2", "icao": "AHY"}, {"name": "Iran Air", "iata": "IR", "icao": "IRA"}]}, {"destination": {"icao": "VTBD", "iata": "DMK", "name": "Bangkok Don Mueang", "shortName": "Don Mueang", "municipalityName": "Bangkok", "location": {"lat": 13.912599, "lon": 100.607}, "countryCode": "TH"}, "averageDailyFlights": 0.29, "operators": [{"name": "Mahan Air", "iata": "W5", "icao": "IRM"}]}, {"destination": {"icao": "EDDK", "iata": "CGN", "name": "Cologne Bonn", "shortName": "Bonn", "municipalityName": "Cologne", "location": {"lat": 50.8659, "lon": 7.142739}, "countryCode": "DE"}, "averageDailyFlights": 0.29, "operators": [{"name": "Iran Air", "iata": "IR", "icao": "IRA"}]}, {"destination": {"icao": "LTBJ", "iata": "ADB", "name": "\u0130zmir Adnan Menderes", "shortName": "Adnan Menderes", "municipalityName": "\u0130zmir", "location": {"lat": 38.2924, "lon": 27.157}, "countryCode": "TR"}, "averageDailyFlights": 0.29, "operators": [{"name": "Iran Airtour", "iata": "B9", "icao": "IRB"}]}, {"destination": {"icao": "LIMC", "iata": "MXP", "name": "Milan Malpensa", "shortName": "Malpensa", "municipalityName": "Milan", "location": {"lat": 45.6306, "lon": 8.72811}, "countryCode": "IT"}, "averageDailyFlights": 0.29, "operators": [{"name": "Iran Air", "iata": "IR", "icao": "IRA"}]}, {"destination": {"icao": "UUWW", "iata": "VKO", "localCode": "\u0412\u041d\u041a", "name": "Moscow Vnukovo", "shortName": "Vnukovo", "municipalityName": "Moscow", "location": {"lat": 55.5915, "lon": 37.2615}, "countryCode": "RU"}, "averageDailyFlights": 0.29, "operators": [{"name": "Mahan Air", "iata": "W5", "icao": "IRM"}]}, {"destination": {"icao": "VIDP", "iata": "DEL", "name": "New Delhi Indira Gandhi", "shortName": "Indira Gandhi", "municipalityName": "New Delhi", "location": {"lat": 28.5665, "lon": 77.1031}, "countryCode": "IN"}, "averageDailyFlights": 0.29, "operators": [{"name": "Mahan Air", "iata": "W5", "icao": "IRM"}]}, {"destination": {"icao": "LFPG", "iata": "CDG", "name": "Paris Charles de Gaulle", "shortName": "Charles de Gaulle", "municipalityName": "Paris", "location": {"lat": 49.0128, "lon": 2.549999}, "countryCode": "FR"}, "averageDailyFlights": 0.29, "operators": [{"name": "Iran Air", "iata": "IR", "icao": "IRA"}]}, {"destination": {"icao": "LIRF", "iata": "FCO", "name": "Rome Leonardo da Vinci\u2013Fiumicino", "shortName": "Leonardo da Vinci\u2013Fiumicino", "municipalityName": "Rome", "location": {"lat": 41.8045, "lon": 12.2508}, "countryCode": "IT"}, "averageDailyFlights": 0.29, "operators": [{"name": "Iran Air", "iata": "IR", "icao": "IRA"}]}, {"destination": {"icao": "ULLI", "iata": "LED", "localCode": "\u041f\u041b\u041a", "name": "Saint-Petersburg Pulkovo", "shortName": "Pulkovo", "municipalityName": "Saint-Petersburg", "location": {"lat": 59.8003, "lon": 30.2625}, "countryCode": "RU"}, "averageDailyFlights": 0.29, "operators": [{"name": "Nordwind Airlines", "iata": "N4", "icao": "NWS"}]}, {"destination": {"icao": "ZSPD", "iata": "PVG", "name": "Shanghai Pudong", "shortName": "Pudong", "municipalityName": "Shanghai", "location": {"lat": 31.1434, "lon": 121.805}, "countryCode": "CN"}, "averageDailyFlights": 0.29, "operators": [{"name": "Mahan Air", "iata": "W5", "icao": "IRM"}]}, {"destination": {"name": "An-Nadzhaf"}, "averageDailyFlights": 0.29, "operators": [{"name": "Qeshm Air", "iata": "QB", "icao": "QSM"}, {"name": "I A W", "iata": "IA", "icao": "IAW"}]}, {"destination": {"name": "Izmir"}, "averageDailyFlights": 0.29, "operators": [{"name": "Iran Aseman Airlines", "iata": "EP", "icao": "IRC"}]}, {"destination": {"icao": "ZBAA", "iata": "PEK", "name": "Beijing Capital", "shortName": "Capital", "municipalityName": "Beijing", "location": {"lat": 40.0801, "lon": 116.585}, "countryCode": "CN"}, "averageDailyFlights": 0.14, "operators": [{"name": "Mahan Air", "iata": "W5", "icao": "IRM"}]}, {"destination": {"icao": "OLBA", "iata": "BEY", "name": "Beirut Rafic Hariri", "shortName": "Rafic Hariri", "municipalityName": "Beirut", "location": {"lat": 33.8209, "lon": 35.4884}, "countryCode": "LB"}, "averageDailyFlights": 0.14, "operators": [{"name": "Iran Air", "iata": "IR", "icao": "IRA"}]}, {"destination": {"icao": "OSDI", "iata": "DAM", "name": "Damascus ", "shortName": "Damascus", "municipalityName": "Damascus", "location": {"lat": 33.4115, "lon": 36.5156}, "countryCode": "SY"}, "averageDailyFlights": 0.14, "operators": [{"name": "Conviasa", "iata": "V0", "icao": "VCV"}]}, {"destination": {"icao": "UTDD", "iata": "DYU", "localCode": "\u0414\u0428\u0411", "name": "Dushanbe ", "shortName": "Dushanbe", "municipalityName": "Dushanbe", "location": {"lat": 38.5433, "lon": 68.825}, "countryCode": "TJ"}, "averageDailyFlights": 0.14, "operators": [{"name": "Somon Air", "iata": "SZ", "icao": "SMR"}]}, {"destination": {"icao": "OPKC", "iata": "KHI", "name": "Karanchi Jinnah", "shortName": "Jinnah", "municipalityName": "Karanchi", "location": {"lat": 24.9065, "lon": 67.1608}, "countryCode": "PK"}, "averageDailyFlights": 0.14, "operators": [{"name": "Iran Air", "iata": "IR", "icao": "IRA"}]}, {"destination": {"icao": "OPLA", "iata": "LHE", "name": "Lahore Alama Iqbal", "shortName": "Alama Iqbal", "municipalityName": "Lahore", "location": {"lat": 31.5216, "lon": 74.4036}, "countryCode": "PK"}, "averageDailyFlights": 0.14, "operators": [{"name": "Mahan Air", "iata": "W5", "icao": "IRM"}]}, {"destination": {"icao": "VABB", "iata": "BOM", "name": "Mumbai Chhatrapati Shivaji", "shortName": "Chhatrapati Shivaji", "municipalityName": "Mumbai", "location": {"lat": 19.0887, "lon": 72.8679}, "countryCode": "IN"}, "averageDailyFlights": 0.14, "operators": [{"name": "Iran Air", "iata": "IR", "icao": "IRA"}]}, {"destination": {"icao": "VTSP", "iata": "HKT", "name": "Phuket ", "shortName": "Phuket", "municipalityName": "Phuket", "location": {"lat": 8.1132, "lon": 98.3169}, "countryCode": "TH"}, "averageDailyFlights": 0.14, "operators": [{"name": "Mahan Air", "iata": "W5", "icao": "IRM"}]}, {"destination": {"icao": "ZGSZ", "iata": "SZX", "name": "Shenzhen Bao'an", "shortName": "Bao'an", "municipalityName": "Shenzhen", "location": {"lat": 22.6393, "lon": 113.811}, "countryCode": "CN"}, "averageDailyFlights": 0.14, "operators": [{"name": "Mahan Air", "iata": "W5", "icao": "IRM"}]}, {"destination": {"icao": "OITT", "iata": "TBZ", "name": "Tabriz ", "shortName": "Tabriz", "municipalityName": "Tabriz", "location": {"lat": 38.1339, "lon": 46.235}, "countryCode": "IR"}, "averageDailyFlights": 0.14, "operators": [{"name": "Qeshm Air", "iata": "QB", "icao": "QSM"}]}, {"destination": {"name": "Kirkuk"}, "averageDailyFlights": 0.14, "operators": [{"name": "Mahan Air", "iata": "W5", "icao": "IRM"}]}]}