{"routes": [{"destination": {"icao": "OMSJ", "iata": "SHJ", "name": "Sharjah ", "shortName": "Sharjah", "municipalityName": "Sharjah", "location": {"lat": 25.3286, "lon": 55.5172}, "countryCode": "AE"}, "averageDailyFlights": 11.43, "operators": [{"name": "Qatar Airways", "iata": "QR", "icao": "QTR"}, {"name": "Air Arabia", "iata": "G9", "icao": "ABY"}]}, {"destination": {"icao": "OMAA", "iata": "AUH", "name": "Abu Dhabi Island and Internal Islands City Abu Dhabi", "shortName": "Abu Dhabi", "municipalityName": "Abu Dhabi Island and Internal Islands City", "location": {"lat": 24.433, "lon": 54.6511}, "countryCode": "AE"}, "averageDailyFlights": 9.43, "operators": [{"name": "Qatar Airways", "iata": "QR", "icao": "QTR"}, {"name": "Etihad Airways", "iata": "EY", "icao": "ETD"}]}, {"destination": {"icao": "OKBK", "iata": "KWI", "name": "Kuwait City Kuwait", "shortName": "Kuwait", "municipalityName": "Kuwait City", "location": {"lat": 29.2266, "lon": 47.9689}, "countryCode": "KW"}, "averageDailyFlights": 7.86, "operators": [{"name": "Qatar Airways", "iata": "QR", "icao": "QTR"}, {"name": "Jazeera Airways", "iata": "J9", "icao": "JZR"}, {"name": "Kuwait Airways", "iata": "KU", "icao": "KAC"}]}, {"destination": {"icao": "EGLL", "iata": "LHR", "name": "London Heathrow", "shortName": "Heathrow", "municipalityName": "London", "location": {"lat": 51.4706, "lon": -0.461941}, "countryCode": "GB"}, "averageDailyFlights": 7.43, "operators": [{"name": "Qatar Airways", "iata": "QR", "icao": "QTR"}]}, {"destination": {"icao": "OBBI", "iata": "BAH", "name": "Manama Bahrain", "shortName": "Bahrain", "municipalityName": "Manama", "location": {"lat": 26.2708, "lon": 50.6336}, "countryCode": "BH"}, "averageDailyFlights": 6.86, "operators": [{"name": "Qatar Airways", "iata": "QR", "icao": "QTR"}, {"name": "Gulf Air"}]}, {"destination": {"icao": "OOMS", "iata": "MCT", "name": "Muscat ", "shortName": "Muscat", "municipalityName": "Muscat", "location": {"lat": 23.5933, "lon": 58.2844}, "countryCode": "OM"}, "averageDailyFlights": 6.86, "operators": [{"name": "Oman Air", "iata": "WY", "icao": "OMA"}, {"name": "Qatar Airways", "iata": "QR", "icao": "QTR"}, {"name": "SalamAir", "iata": "OV", "icao": "OMS"}]}, {"destination": {"icao": "HECA", "iata": "CAI", "name": "Cairo ", "shortName": "Cairo", "municipalityName": "Cairo", "location": {"lat": 30.1219, "lon": 31.4056}, "countryCode": "EG"}, "averageDailyFlights": 6.57, "operators": [{"name": "EgyptAir", "iata": "MS", "icao": "MSR"}, {"name": "Qatar Airways", "iata": "QR", "icao": "QTR"}]}, {"destination": {"icao": "VCBI", "iata": "CMB", "name": "Colombo Bandaranaike", "shortName": "Bandaranaike", "municipalityName": "Colombo", "location": {"lat": 7.180759, "lon": 79.8841}, "countryCode": "LK"}, "averageDailyFlights": 6.43, "operators": [{"name": "Qatar Airways", "iata": "QR", "icao": "QTR"}, {"name": "SriLankan Airlines", "iata": "UL", "icao": "ALK"}]}, {"destination": {"icao": "VNKT", "iata": "KTM", "name": "Kathmandu Tribhuvan", "shortName": "Tribhuvan", "municipalityName": "Kathmandu", "location": {"lat": 27.696598, "lon": 85.3591}, "countryCode": "NP"}, "averageDailyFlights": 6.0, "operators": [{"name": "Qatar Airways", "iata": "QR", "icao": "QTR"}, {"name": "Himalaya Airlines", "iata": "H9", "icao": "HIM"}, {"name": "Nepal Airlines", "iata": "RA", "icao": "RNA"}]}, {"destination": {"icao": "OERK", "iata": "RUH", "name": "Riyadh King Khaled", "shortName": "King Khaled", "municipalityName": "Riyadh", "location": {"lat": 24.9576, "lon": 46.6988}, "countryCode": "SA"}, "averageDailyFlights": 6.0, "operators": [{"name": "Qatar Airways", "iata": "QR", "icao": "QTR"}, {"name": "Saudi Arabian Airlines", "iata": "SV", "icao": "SVA"}, {"name": "flynas", "iata": "XY", "icao": "KNE"}]}, {"destination": {"icao": "OJAI", "iata": "AMM", "name": "Amman Queen Alia", "shortName": "Queen Alia", "municipalityName": "Amman", "location": {"lat": 31.7226, "lon": 35.9932}, "countryCode": "JO"}, "averageDailyFlights": 5.86, "operators": [{"name": "Royal Jordanian", "iata": "RJ", "icao": "RJA"}, {"name": "Qatar Airways", "iata": "QR", "icao": "QTR"}]}, {"destination": {"icao": "OEJN", "iata": "JED", "name": "Jeddah King Abdulaziz", "shortName": "King Abdulaziz", "municipalityName": "Jeddah", "location": {"lat": 21.6796, "lon": 39.1565}, "countryCode": "SA"}, "averageDailyFlights": 5.86, "operators": [{"name": "Qatar Airways", "iata": "QR", "icao": "QTR"}, {"name": "flynas", "iata": "XY", "icao": "KNE"}, {"name": "Saudi Arabian Airlines", "iata": "SV", "icao": "SVA"}]}, {"destination": {"icao": "OLBA", "iata": "BEY", "name": "Beirut Rafic Hariri", "shortName": "Rafic Hariri", "municipalityName": "Beirut", "location": {"lat": 33.8209, "lon": 35.4884}, "countryCode": "LB"}, "averageDailyFlights": 5.72, "operators": [{"name": "Middle East Airlines", "iata": "ME", "icao": "MEA"}, {"name": "Qatar Airways", "iata": "QR", "icao": "QTR"}]}, {"destination": {"icao": "OEDF", "iata": "DMM", "name": "Ad Dammam King Fahd", "shortName": "King Fahd", "municipalityName": "Ad Dammam", "location": {"lat": 26.4712, "lon": 49.7979}, "countryCode": "SA"}, "averageDailyFlights": 5.71, "operators": [{"name": "Qatar Airways", "iata": "QR", "icao": "QTR"}]}, {"destination": {"icao": "OMDB", "iata": "DXB", "name": "Dubai ", "shortName": "Dubai", "municipalityName": "Dubai", "location": {"lat": 25.252798, "lon": 55.3644}, "countryCode": "AE"}, "averageDailyFlights": 5.71, "operators": [{"name": "Qatar Airways", "iata": "QR", "icao": "QTR"}, {"name": "flydubai", "iata": "FZ", "icao": "FDB"}]}, {"destination": {"icao": "VIDP", "iata": "DEL", "name": "New Delhi Indira Gandhi", "shortName": "Indira Gandhi", "municipalityName": "New Delhi", "location": {"lat": 28.5665, "lon": 77.1031}, "countryCode": "IN"}, "averageDailyFlights": 5.34, "operators": [{"name": "IndiGo", "iata": "6E", "icao": "IGO"}, {"name": "Qatar Airways", "iata": "QR", "icao": "QTR"}, {"name": "Air India", "iata": "AI", "icao": "AIC"}]}, {"destination": {"icao": "VGHS", "iata": "DAC", "name": "Dhaka Hazrat Shahjalal", "shortName": "Hazrat Shahjalal", "municipalityName": "Dhaka", "location": {"lat": 23.843348, "lon": 90.39778}, "countryCode": "BD"}, "averageDailyFlights": 5.14, "operators": [{"name": "Qatar Airways", "iata": "QR", "icao": "QTR"}, {"name": "Biman Bangladesh Airlines", "iata": "BG", "icao": "BBC"}, {"name": "US-Bangla Airlines", "iata": "BS", "icao": "UBG"}]}, {"destination": {"icao": "LTFM", "iata": "IST", "name": "Istanbul ", "shortName": "Istanbul", "municipalityName": "Istanbul", "location": {"lat": 41.275276, "lon": 28.751944}, "countryCode": "TR"}, "averageDailyFlights": 4.86, "operators": [{"name": "Turkish Airlines", "iata": "TK", "icao": "THY"}, {"name": "Qatar Airways", "iata": "QR", "icao": "QTR"}]}, {"destination": {"icao": "VTBS", "iata": "BKK", "name": "Bangkok Suvarnabhumi", "shortName": "Suvarnabhumi", "municipalityName": "Bangkok", "location": {"lat": 13.681099, "lon": 100.747}, "countryCode": "TH"}, "averageDailyFlights": 4.29, "operators": [{"name": "Qatar Airways", "iata": "QR", "icao": "QTR"}]}, {"destination": {"icao": "VOHS", "iata": "HYD", "name": "Hyderabad Rajiv Gandhi", "shortName": "Rajiv Gandhi", "municipalityName": "Hyderabad", "location": {"lat": 17.231318, "lon": 78.429855}, "countryCode": "IN"}, "averageDailyFlights": 4.14, "operators": [{"name": "IndiGo", "iata": "6E", "icao": "IGO"}, {"name": "Qatar Airways", "iata": "QR", "icao": "QTR"}]}, {"destination": {"icao": "VABB", "iata": "BOM", "name": "Mumbai Chhatrapati Shivaji", "shortName": "Chhatrapati Shivaji", "municipalityName": "Mumbai", "location": {"lat": 19.0887, "lon": 72.8679}, "countryCode": "IN"}, "averageDailyFlights": 4.14, "operators": [{"name": "IndiGo", "iata": "6E", "icao": "IGO"}, {"name": "Qatar Airways", "iata": "QR", "icao": "QTR"}, {"name": "Air India", "iata": "AI", "icao": "AIC"}]}, {"destination": {"icao": "KJFK", "iata": "JFK", "name": "New York John F Kennedy", "shortName": "John F Kennedy", "municipalityName": "New York", "location": {"lat": 40.6398, "lon": -73.7789}, "countryCode": "US"}, "averageDailyFlights": 4.0, "operators": [{"name": "American Airlines", "iata": "AA", "icao": "AAL"}, {"name": "Qatar Airways", "iata": "QR", "icao": "QTR"}]}, {"destination": {"icao": "VOCI", "iata": "COK", "name": "Kochi Cochin", "shortName": "Cochin", "municipalityName": "Kochi", "location": {"lat": 10.152, "lon": 76.4019}, "countryCode": "IN"}, "averageDailyFlights": 3.71, "operators": [{"name": "IndiGo", "iata": "6E", "icao": "IGO"}, {"name": "Qatar Airways", "iata": "QR", "icao": "QTR"}, {"name": "Air India Express", "iata": "IX", "icao": "AXB"}]}, {"destination": {"icao": "LGAV", "iata": "ATH", "name": "Athens Eleftherios Venizelos", "shortName": "Eleftherios Venizelos", "municipalityName": "Athens", "location": {"lat": 37.9364, "lon": 23.944498}, "countryCode": "GR"}, "averageDailyFlights": 3.43, "operators": [{"name": "Qatar Airways", "iata": "QR", "icao": "QTR"}]}, {"destination": {"icao": "EDDF", "iata": "FRA", "name": "Frankfurt-am-Main ", "shortName": "Frankfurt-am-Main", "municipalityName": "Frankfurt-am-Main", "location": {"lat": 50.0264, "lon": 8.543129}, "countryCode": "DE"}, "averageDailyFlights": 3.43, "operators": [{"name": "Qatar Airways", "iata": "QR", "icao": "QTR"}]}, {"destination": {"icao": "VRMM", "iata": "MLE", "name": "Mal\u00e9 ", "shortName": "Mal\u00e9", "municipalityName": "Mal\u00e9", "location": {"lat": 4.19183, "lon": 73.5291}, "countryCode": "MV"}, "averageDailyFlights": 3.43, "operators": [{"name": "Qatar Airways", "iata": "QR", "icao": "QTR"}]}, {"destination": {"icao": "LIMC", "iata": "MXP", "name": "Milan Malpensa", "shortName": "Malpensa", "municipalityName": "Milan", "location": {"lat": 45.6306, "lon": 8.72811}, "countryCode": "IT"}, "averageDailyFlights": 3.43, "operators": [{"name": "Qatar Airways", "iata": "QR", "icao": "QTR"}]}, {"destination": {"icao": "LFPG", "iata": "CDG", "name": "Paris Charles de Gaulle", "shortName": "Charles de Gaulle", "municipalityName": "Paris", "location": {"lat": 49.0128, "lon": 2.549999}, "countryCode": "FR"}, "averageDailyFlights": 3.43, "operators": [{"name": "Qatar Airways", "iata": "QR", "icao": "QTR"}]}, {"destination": {"icao": "WSSS", "iata": "SIN", "name": "Singapore Changi", "shortName": "Changi", "municipalityName": "Singapore", "location": {"lat": 1.35019, "lon": 103.994}, "countryCode": "SG"}, "averageDailyFlights": 3.43, "operators": [{"name": "Qatar Airways", "iata": "QR", "icao": "QTR"}]}, {"destination": {"icao": "OIIE", "iata": "IKA", "name": "Tehran Imam Khomeini", "shortName": "Imam Khomeini", "municipalityName": "Tehran", "location": {"lat": 35.4161, "lon": 51.1522}, "countryCode": "IR"}, "averageDailyFlights": 3.43, "operators": [{"name": "Qatar Airways", "iata": "QR", "icao": "QTR"}]}, {"destination": {"icao": "WADD", "iata": "DPS", "name": "Denpasar-Bali Island Ngurah Rai (Bali)", "shortName": "Ngurah Rai (Bali)", "municipalityName": "Denpasar-Bali Island", "location": {"lat": -8.748169, "lon": 115.167}, "countryCode": "ID"}, "averageDailyFlights": 3.3, "operators": [{"name": "Qatar Airways", "iata": "QR", "icao": "QTR"}]}, {"destination": {"icao": "WIII", "iata": "CGK", "name": "Jakarta Soekarno-Hatta", "shortName": "Soekarno-Hatta", "municipalityName": "Jakarta", "location": {"lat": -6.125569, "lon": 106.656}, "countryCode": "ID"}, "averageDailyFlights": 3.29, "operators": [{"name": "Qatar Airways", "iata": "QR", "icao": "QTR"}]}, {"destination": {"icao": "OPIS", "iata": "ISB", "name": "Islamabad ", "shortName": "Islamabad", "municipalityName": "Islamabad", "location": {"lat": 33.549, "lon": 72.82566}, "countryCode": "PK"}, "averageDailyFlights": 3.14, "operators": [{"name": "Qatar Airways", "iata": "QR", "icao": "QTR"}, {"name": "Pakistan International Airlines", "iata": "PK", "icao": "PIA"}]}, {"destination": {"icao": "VTSP", "iata": "HKT", "name": "Phuket ", "shortName": "Phuket", "municipalityName": "Phuket", "location": {"lat": 8.1132, "lon": 98.3169}, "countryCode": "TH"}, "averageDailyFlights": 3.14, "operators": [{"name": "Qatar Airways", "iata": "QR", "icao": "QTR"}]}, {"destination": {"icao": "RPLL", "iata": "MNL", "name": "Manila Ninoy Aquino", "shortName": "Ninoy Aquino", "municipalityName": "Manila", "location": {"lat": 14.5086, "lon": 121.02}, "countryCode": "PH"}, "averageDailyFlights": 3.12, "operators": [{"name": "Qatar Airways", "iata": "QR", "icao": "QTR"}, {"name": "Philippine Airlines", "iata": "PR", "icao": "PAL"}]}, {"destination": {"icao": "ORBI", "iata": "BGW", "name": "Baghdad ", "shortName": "Baghdad", "municipalityName": "Baghdad", "location": {"lat": 33.2625, "lon": 44.2346}, "countryCode": "IQ"}, "averageDailyFlights": 3.0, "operators": [{"name": "Qatar Airways", "iata": "QR", "icao": "QTR"}]}, {"destination": {"icao": "EGCC", "iata": "MAN", "name": "Manchester ", "shortName": "Manchester", "municipalityName": "Manchester", "location": {"lat": 53.3537, "lon": -2.27495}, "countryCode": "GB"}, "averageDailyFlights": 3.0, "operators": [{"name": "Qatar Airways", "iata": "QR", "icao": "QTR"}]}, {"destination": {"icao": "LIRF", "iata": "FCO", "name": "Rome Leonardo da Vinci\u2013Fiumicino", "shortName": "Leonardo da Vinci\u2013Fiumicino", "municipalityName": "Rome", "location": {"lat": 41.8045, "lon": 12.2508}, "countryCode": "IT"}, "averageDailyFlights": 3.0, "operators": [{"name": "Qatar Airways", "iata": "QR", "icao": "QTR"}]}, {"destination": {"icao": "FAOR", "iata": "JNB", "name": "Jo'anna OR Tambo", "shortName": "OR Tambo", "municipalityName": "Jo'anna", "location": {"lat": -26.1392, "lon": 28.246}, "countryCode": "ZA"}, "averageDailyFlights": 2.86, "operators": [{"name": "Qatar Airways", "iata": "QR", "icao": "QTR"}]}, {"destination": {"icao": "OPLA", "iata": "LHE", "name": "Lahore Alama Iqbal", "shortName": "Alama Iqbal", "municipalityName": "Lahore", "location": {"lat": 31.5216, "lon": 74.4036}, "countryCode": "PK"}, "averageDailyFlights": 2.86, "operators": [{"name": "Qatar Airways", "iata": "QR", "icao": "QTR"}, {"name": "Pakistan International Airlines", "iata": "PK", "icao": "PIA"}]}, {"destination": {"icao": "LEMD", "iata": "MAD", "name": "Madrid Adolfo Su\u00e1rez \u2013Barajas", "shortName": "Adolfo Su\u00e1rez \u2013Barajas", "municipalityName": "Madrid", "location": {"lat": 40.4936, "lon": -3.56676}, "countryCode": "ES"}, "averageDailyFlights": 2.86, "operators": [{"name": "Qatar Airways", "iata": "QR", "icao": "QTR"}]}, {"destination": {"icao": "OEMA", "iata": "MED", "name": "Medina Prince Mohammad Bin Abdulaziz", "shortName": "Prince Mohammad Bin Abdulaziz", "municipalityName": "Medina", "location": {"lat": 24.5534, "lon": 39.7051}, "countryCode": "SA"}, "averageDailyFlights": 2.86, "operators": [{"name": "Qatar Airways", "iata": "QR", "icao": "QTR"}]}, {"destination": {"icao": "ORER", "iata": "EBL", "name": "Arbil Erbil", "shortName": "Erbil", "municipalityName": "Arbil", "location": {"lat": 36.2376, "lon": 43.9632}, "countryCode": "IQ"}, "averageDailyFlights": 2.71, "operators": [{"name": "Qatar Airways", "iata": "QR", "icao": "QTR"}]}, {"destination": {"icao": "VOBL", "iata": "BLR", "name": "Bangalore Bengaluru", "shortName": "Bengaluru", "municipalityName": "Bangalore", "location": {"lat": 13.197899, "lon": 77.7063}, "countryCode": "IN"}, "averageDailyFlights": 2.29, "operators": [{"name": "Qatar Airways", "iata": "QR", "icao": "QTR"}, {"name": "IndiGo", "iata": "6E", "icao": "IGO"}]}, {"destination": {"icao": "LEBL", "iata": "BCN", "name": "Barcelona ", "shortName": "Barcelona", "municipalityName": "Barcelona", "location": {"lat": 41.2971, "lon": 2.078459}, "countryCode": "ES"}, "averageDailyFlights": 2.29, "operators": [{"name": "Qatar Airways", "iata": "QR", "icao": "QTR"}]}, {"destination": {"icao": "EDDB", "iata": "BER", "name": "Berlin Brandenburg", "shortName": "Brandenburg", "municipalityName": "Berlin", "location": {"lat": 52.35139, "lon": 13.493889}, "countryCode": "DE"}, "averageDailyFlights": 2.29, "operators": [{"name": "Qatar Airways", "iata": "QR", "icao": "QTR"}]}, {"destination": {"icao": "LROP", "iata": "OTP", "name": "Bucharest Henri Coand\u0103", "shortName": "Henri Coand\u0103", "municipalityName": "Bucharest", "location": {"lat": 44.5722, "lon": 26.1022}, "countryCode": "RO"}, "averageDailyFlights": 2.29, "operators": [{"name": "Qatar Airways", "iata": "QR", "icao": "QTR"}]}, {"destination": {"icao": "KDFW", "iata": "DFW", "name": "Dallas-Fort Worth ", "shortName": "Dallas-Fort Worth", "municipalityName": "Dallas-Fort Worth", "location": {"lat": 32.8968, "lon": -97.038}, "countryCode": "US"}, "averageDailyFlights": 2.29, "operators": [{"name": "Qatar Airways", "iata": "QR", "icao": "QTR"}]}, {"destination": {"icao": "KIAD", "iata": "IAD", "name": "District of Columbia Washington Dulles", "shortName": "Washington Dulles", "municipalityName": "District of Columbia", "location": {"lat": 38.9445, "lon": -77.4558}, "countryCode": "US"}, "averageDailyFlights": 2.29, "operators": [{"name": "Qatar Airways", "iata": "QR", "icao": "QTR"}]}, {"destination": {"icao": "EIDW", "iata": "DUB", "name": "Dublin ", "shortName": "Dublin", "municipalityName": "Dublin", "location": {"lat": 53.4213, "lon": -6.27007}, "countryCode": "IE"}, "averageDailyFlights": 2.29, "operators": [{"name": "Qatar Airways", "iata": "QR", "icao": "QTR"}]}, {"destination": {"icao": "EGPH", "iata": "EDI", "name": "Edinburgh ", "shortName": "Edinburgh", "municipalityName": "Edinburgh", "location": {"lat": 55.95, "lon": -3.372499}, "countryCode": "GB"}, "averageDailyFlights": 2.29, "operators": [{"name": "Qatar Airways", "iata": "QR", "icao": "QTR"}]}, {"destination": {"icao": "KLAX", "iata": "LAX", "name": "Los Angeles ", "shortName": "Los Angeles", "municipalityName": "Los Angeles", "location": {"lat": 33.9425, "lon": -118.408}, "countryCode": "US"}, "averageDailyFlights": 2.29, "operators": [{"name": "Qatar Airways", "iata": "QR", "icao": "QTR"}]}, {"destination": {"icao": "YMML", "iata": "MEL", "name": "Melbourne City Melbourne", "shortName": "Melbourne", "municipalityName": "Melbourne City", "location": {"lat": -37.6733, "lon": 144.843}, "countryCode": "AU"}, "averageDailyFlights": 2.29, "operators": [{"name": "Qatar Airways", "iata": "QR", "icao": "QTR"}]}, {"destination": {"icao": "EDDM", "iata": "MUC", "name": "Munich ", "shortName": "Munich", "municipalityName": "Munich", "location": {"lat": 48.3538, "lon": 11.7861}, "countryCode": "DE"}, "averageDailyFlights": 2.29, "operators": [{"name": "Qatar Airways", "iata": "QR", "icao": "QTR"}]}, {"destination": {"icao": "HKJK", "iata": "NBO", "name": "Nairobi Jomo Kenyatta", "shortName": "Jomo Kenyatta", "municipalityName": "Nairobi", "location": {"lat": -1.319239, "lon": 36.9278}, "countryCode": "KE"}, "averageDailyFlights": 2.29, "operators": [{"name": "Qatar Airways", "iata": "QR", "icao": "QTR"}]}, {"destination": {"icao": "UGTB", "iata": "TBS", "name": "Tbilisi ", "shortName": "Tbilisi", "municipalityName": "Tbilisi", "location": {"lat": 41.6692, "lon": 44.9547}, "countryCode": "GE"}, "averageDailyFlights": 2.29, "operators": [{"name": "Qatar Airways", "iata": "QR", "icao": "QTR"}]}, {"destination": {"icao": "LOWW", "iata": "VIE", "name": "Vienna Schwechat", "shortName": "Schwechat", "municipalityName": "Vienna", "location": {"lat": 48.1103, "lon": 16.5697}, "countryCode": "AT"}, "averageDailyFlights": 2.29, "operators": [{"name": "Qatar Airways", "iata": "QR", "icao": "QTR"}]}, {"destination": {"icao": "UDYZ", "iata": "EVN", "localCode": "\u0417\u0412\u0420", "name": "Yerevan Zvartnots", "shortName": "Zvartnots", "municipalityName": "Yerevan", "location": {"lat": 40.1473, "lon": 44.3959}, "countryCode": "AM"}, "averageDailyFlights": 2.29, "operators": [{"name": "Qatar Airways", "iata": "QR", "icao": "QTR"}]}, {"destination": {"icao": "LSZH", "iata": "ZRH", "name": "Zurich Kloten", "shortName": "Kloten", "municipalityName": "Zurich", "location": {"lat": 47.4647, "lon": 8.549169}, "countryCode": "CH"}, "averageDailyFlights": 2.29, "operators": [{"name": "Qatar Airways", "iata": "QR", "icao": "QTR"}]}, {"destination": {"icao": "VOCL", "iata": "CCJ", "name": "Calicut ", "shortName": "Calicut", "municipalityName": "Calicut", "location": {"lat": 11.136799, "lon": 75.9553}, "countryCode": "IN"}, "averageDailyFlights": 2.14, "operators": [{"name": "Air India Express", "iata": "IX", "icao": "AXB"}, {"name": "Qatar Airways", "iata": "QR", "icao": "QTR"}]}, {"destination": {"icao": "VOMM", "iata": "MAA", "name": "Chennai ", "shortName": "Chennai", "municipalityName": "Chennai", "location": {"lat": 12.990005, "lon": 80.1693}, "countryCode": "IN"}, "averageDailyFlights": 2.14, "operators": [{"name": "IndiGo", "iata": "6E", "icao": "IGO"}, {"name": "Qatar Airways", "iata": "QR", "icao": "QTR"}]}, {"destination": {"icao": "VVTS", "iata": "SGN", "name": "Ho Chi Minh City Tan Son Nhat", "shortName": "Tan Son Nhat", "municipalityName": "Ho Chi Minh City", "location": {"lat": 10.818799, "lon": 106.652}, "countryCode": "VN"}, "averageDailyFlights": 2.14, "operators": [{"name": "Qatar Airways", "iata": "QR", "icao": "QTR"}]}, {"destination": {"icao": "OPKC", "iata": "KHI", "name": "Karanchi Jinnah", "shortName": "Jinnah", "municipalityName": "Karanchi", "location": {"lat": 24.9065, "lon": 67.1608}, "countryCode": "PK"}, "averageDailyFlights": 2.14, "operators": [{"name": "Qatar Airways", "iata": "QR", "icao": "QTR"}]}, {"destination": {"icao": "WMKK", "iata": "KUL", "name": "Kuala Lumpur ", "shortName": "Kuala Lumpur", "municipalityName": "Kuala Lumpur", "location": {"lat": 2.745579, "lon": 101.71}, "countryCode": "MY"}, "averageDailyFlights": 2.14, "operators": [{"name": "Malaysia Airlines", "iata": "MH", "icao": "MAS"}, {"name": "Qatar Airways", "iata": "QR", "icao": "QTR"}]}, {"destination": {"icao": "SBGR", "iata": "GRU", "name": "S\u00e3o Paulo Guarulhos - Governador Andr\u00e9 Franco Montoro", "shortName": "Guarulhos - Governador Andr\u00e9 Franco Montoro", "municipalityName": "S\u00e3o Paulo", "location": {"lat": -23.435556, "lon": -46.473057}, "countryCode": "BR"}, "averageDailyFlights": 2.14, "operators": [{"name": "Qatar Airways", "iata": "QR", "icao": "QTR"}]}, {"destination": {"icao": "VHHH", "iata": "HKG", "name": "Hong Kong Chek Lap Kok", "shortName": "Chek Lap Kok", "municipalityName": "Hong Kong", "location": {"lat": 22.3089, "lon": 113.915}, "countryCode": "HK"}, "averageDailyFlights": 2.0, "operators": [{"name": "Qatar Airways", "iata": "QR", "icao": "QTR"}]}, {"destination": {"icao": "UUEE", "iata": "SVO", "localCode": "\u0428\u0420\u041c", "name": "Moscow Sheremetyevo", "shortName": "Sheremetyevo", "municipalityName": "Moscow", "location": {"lat": 55.9726, "lon": 37.4146}, "countryCode": "RU"}, "averageDailyFlights": 2.0, "operators": [{"name": "Qatar Airways", "iata": "QR", "icao": "QTR"}]}, {"destination": {"name": "Lagos"}, "averageDailyFlights": 2.0, "operators": [{"name": "Qatar Airways", "iata": "QR", "icao": "QTR"}]}, {"destination": {"icao": "VVNB", "iata": "HAN", "name": "Hanoi Noi Bai", "shortName": "Noi Bai", "municipalityName": "Hanoi", "location": {"lat": 21.2212, "lon": 105.807}, "countryCode": "VN"}, "averageDailyFlights": 1.86, "operators": [{"name": "Qatar Airways", "iata": "QR", "icao": "QTR"}]}, {"destination": {"icao": "OOSA", "iata": "SLL", "name": "Salalah ", "shortName": "Salalah", "municipalityName": "Salalah", "location": {"lat": 17.0387, "lon": 54.0913}, "countryCode": "OM"}, "averageDailyFlights": 1.86, "operators": [{"name": "Qatar Airways", "iata": "QR", "icao": "QTR"}]}, {"destination": {"icao": "EHAM", "iata": "AMS", "name": "Amsterdam Schiphol", "shortName": "Schiphol", "municipalityName": "Amsterdam", "location": {"lat": 52.3086, "lon": 4.763889}, "countryCode": "NL"}, "averageDailyFlights": 1.71, "operators": [{"name": "Qatar Airways", "iata": "QR", "icao": "QTR"}]}, {"destination": {"icao": "ORMM", "iata": "BSR", "name": "Basrah ", "shortName": "Basrah", "municipalityName": "Basrah", "location": {"lat": 30.5491, "lon": 47.6621}, "countryCode": "IQ"}, "averageDailyFlights": 1.71, "operators": [{"name": "Qatar Airways", "iata": "QR", "icao": "QTR"}]}, {"destination": {"icao": "GMMN", "iata": "CMN", "name": "Casablanca Mohammed V", "shortName": "Mohammed V", "municipalityName": "Casablanca", "location": {"lat": 33.3675, "lon": -7.58997}, "countryCode": "MA"}, "averageDailyFlights": 1.71, "operators": [{"name": "Royal Air Maroc", "iata": "AT", "icao": "RAM"}, {"name": "Qatar Airways", "iata": "QR", "icao": "QTR"}]}, {"destination": {"icao": "EKCH", "iata": "CPH", "name": "Copenhagen Kastrup", "shortName": "Kastrup", "municipalityName": "Copenhagen", "location": {"lat": 55.6179, "lon": 12.656}, "countryCode": "DK"}, "averageDailyFlights": 1.71, "operators": [{"name": "Finnair", "iata": "AY", "icao": "FIN"}, {"name": "Qatar Airways", "iata": "QR", "icao": "QTR"}]}, {"destination": {"icao": "ESSA", "iata": "ARN", "name": "Stockholm -Arlanda", "shortName": "-Arlanda", "municipalityName": "Stockholm", "location": {"lat": 59.6519, "lon": 17.9186}, "countryCode": "SE"}, "averageDailyFlights": 1.71, "operators": [{"name": "Qatar Airways", "iata": "QR", "icao": "QTR"}, {"name": "Finnair", "iata": "AY", "icao": "FIN"}]}, {"destination": {"name": "Kannur International Airport"}, "averageDailyFlights": 1.71, "operators": [{"name": "IndiGo", "iata": "6E", "icao": "IGO"}, {"name": "Air India Express", "iata": "IX", "icao": "AXB"}]}, {"destination": {"icao": "FACT", "iata": "CPT", "name": "Cape Town ", "shortName": "Cape Town", "municipalityName": "Cape Town", "location": {"lat": -33.9648, "lon": 18.6017}, "countryCode": "ZA"}, "averageDailyFlights": 1.57, "operators": [{"name": "Qatar Airways", "iata": "QR", "icao": "QTR"}]}, {"destination": {"icao": "LTFJ", "iata": "SAW", "name": "Istanbul Sabiha G\u00f6k\u00e7en", "shortName": "Sabiha G\u00f6k\u00e7en", "municipalityName": "Istanbul", "location": {"lat": 40.8986, "lon": 29.3092}, "countryCode": "TR"}, "averageDailyFlights": 1.57, "operators": [{"name": "Pegasus", "iata": "PC", "icao": "PGT"}]}, {"destination": {"icao": "LKPR", "iata": "PRG", "name": "Prague Ruzyn\u011b", "shortName": "Ruzyn\u011b", "municipalityName": "Prague", "location": {"lat": 50.1008, "lon": 14.26}, "countryCode": "CZ"}, "averageDailyFlights": 1.57, "operators": [{"name": "Qatar Airways", "iata": "QR", "icao": "QTR"}]}, {"destination": {"icao": "ORSU", "iata": "ISU", "name": "Sulaymaniyah ", "shortName": "Sulaymaniyah", "municipalityName": "Sulaymaniyah", "location": {"lat": 35.56175, "lon": 45.31674}, "countryCode": "IQ"}, "averageDailyFlights": 1.57, "operators": [{"name": "Qatar Airways", "iata": "QR", "icao": "QTR"}]}, {"destination": {"icao": "EPWA", "iata": "WAW", "name": "Warsaw Chopin", "shortName": "Chopin", "municipalityName": "Warsaw", "location": {"lat": 52.1657, "lon": 20.9671}, "countryCode": "PL"}, "averageDailyFlights": 1.57, "operators": [{"name": "Qatar Airways", "iata": "QR", "icao": "QTR"}]}, {"destination": {"icao": "HEBA", "iata": "HBE", "name": "Alexandria Borg El Arab", "shortName": "Borg El Arab", "municipalityName": "Alexandria", "location": {"lat": 30.9177, "lon": 29.6964}, "countryCode": "EG"}, "averageDailyFlights": 1.43, "operators": [{"name": "Qatar Airways", "iata": "QR", "icao": "QTR"}]}, {"destination": {"icao": "DAAG", "iata": "ALG", "name": "Algiers Houari Boumediene", "shortName": "Houari Boumediene", "municipalityName": "Algiers", "location": {"lat": 36.691, "lon": 3.215409}, "countryCode": "DZ"}, "averageDailyFlights": 1.43, "operators": [{"name": "Qatar Airways", "iata": "QR", "icao": "QTR"}, {"name": "Air Algerie", "iata": "AH", "icao": "DAH"}]}, {"destination": {"icao": "OPPS", "iata": "PEW", "name": "Peshawar ", "shortName": "Peshawar", "municipalityName": "Peshawar", "location": {"lat": 33.9939, "lon": 71.5146}, "countryCode": "PK"}, "averageDailyFlights": 1.43, "operators": [{"name": "Pakistan International Airlines", "iata": "PK", "icao": "PIA"}, {"name": "Qatar Airways", "iata": "QR", "icao": "QTR"}]}, {"destination": {"icao": "HSPN", "iata": "PZU", "name": "Port Sudan New", "shortName": "New", "municipalityName": "Port Sudan", "location": {"lat": 19.4336, "lon": 37.2341}, "countryCode": "SD"}, "averageDailyFlights": 1.28, "operators": [{"name": "Tarco Aviation", "iata": "3T", "icao": "TRQ"}, {"name": "Qatar Airways", "iata": "QR", "icao": "QTR"}]}, {"destination": {"icao": "UAAA", "iata": "ALA", "localCode": "\u0410\u041b\u0410", "name": "Almaty ", "shortName": "Almaty", "municipalityName": "Almaty", "location": {"lat": 43.3521, "lon": 77.0405}, "countryCode": "KZ"}, "averageDailyFlights": 1.14, "operators": [{"name": "Qatar Airways", "iata": "QR", "icao": "QTR"}]}, {"destination": {"icao": "VIAR", "iata": "ATQ", "name": "Amritsar Sri Guru Ram Dass Jee", "shortName": "Sri Guru Ram Dass Jee", "municipalityName": "Amritsar", "location": {"lat": 31.7096, "lon": 74.7973}, "countryCode": "IN"}, "averageDailyFlights": 1.14, "operators": [{"name": "Qatar Airways", "iata": "QR", "icao": "QTR"}]}, {"destination": {"icao": "RPLC", "iata": "CRK", "name": "Angeles City Clark", "shortName": "Clark", "municipalityName": "Angeles City", "location": {"lat": 15.185999, "lon": 120.56}, "countryCode": "PH"}, "averageDailyFlights": 1.14, "operators": [{"name": "Qatar Airways", "iata": "QR", "icao": "QTR"}]}, {"destination": {"icao": "LTAC", "iata": "ESB", "name": "Ankara Esenbo\u011fa", "shortName": "Esenbo\u011fa", "municipalityName": "Ankara", "location": {"lat": 40.1281, "lon": 32.9951}, "countryCode": "TR"}, "averageDailyFlights": 1.14, "operators": [{"name": "Qatar Airways", "iata": "QR", "icao": "QTR"}]}, {"destination": {"icao": "HTKJ", "iata": "JRO", "name": "Arusha Kilimanjaro", "shortName": "Kilimanjaro", "municipalityName": "Arusha", "location": {"lat": -3.429409, "lon": 37.0745}, "countryCode": "TZ"}, "averageDailyFlights": 1.14, "operators": [{"name": "Qatar Airways", "iata": "QR", "icao": "QTR"}]}, {"destination": {"icao": "KATL", "iata": "ATL", "name": "Atlanta Hartsfield Jackson", "shortName": "Hartsfield Jackson", "municipalityName": "Atlanta", "location": {"lat": 33.6367, "lon": -84.4281}, "countryCode": "US"}, "averageDailyFlights": 1.14, "operators": [{"name": "Qatar Airways", "iata": "QR", "icao": "QTR"}]}, {"destination": {"icao": "UBBB", "iata": "GYD", "localCode": "\u0411\u0410\u041a", "name": "Baku Heydar Aliyev", "shortName": "Heydar Aliyev", "municipalityName": "Baku", "location": {"lat": 40.4675, "lon": 50.0467}, "countryCode": "AZ"}, "averageDailyFlights": 1.14, "operators": [{"name": "Qatar Airways", "iata": "QR", "icao": "QTR"}]}, {"destination": {"icao": "ZBAD", "iata": "PKX", "name": "Beijing Daxing", "shortName": "Daxing", "municipalityName": "Beijing", "location": {"lat": 39.509167, "lon": 116.41055}, "countryCode": "CN"}, "averageDailyFlights": 1.14, "operators": [{"name": "Qatar Airways", "iata": "QR", "icao": "QTR"}]}, {"destination": {"icao": "LYBE", "iata": "BEG", "name": "Belgrade Nikola Tesla", "shortName": "Nikola Tesla", "municipalityName": "Belgrade", "location": {"lat": 44.8184, "lon": 20.3091}, "countryCode": "RS"}, "averageDailyFlights": 1.14, "operators": [{"name": "Qatar Airways", "iata": "QR", "icao": "QTR"}]}, {"destination": {"icao": "EGBB", "iata": "BHX", "name": "Birmingham ", "shortName": "Birmingham", "municipalityName": "Birmingham", "location": {"lat": 52.4539, "lon": -1.748029}, "countryCode": "GB"}, "averageDailyFlights": 1.14, "operators": [{"name": "Qatar Airways", "iata": "QR", "icao": "QTR"}]}, {"destination": {"icao": "YBBN", "iata": "BNE", "name": "Brisbane City Brisbane", "shortName": "Brisbane", "municipalityName": "Brisbane City", "location": {"lat": -27.3842, "lon": 153.117}, "countryCode": "AU"}, "averageDailyFlights": 1.14, "operators": [{"name": "Qatar Airways", "iata": "QR", "icao": "QTR"}]}, {"destination": {"icao": "EBBR", "iata": "BRU", "name": "Brussels ", "shortName": "Brussels", "municipalityName": "Brussels", "location": {"lat": 50.9014, "lon": 4.484439}, "countryCode": "BE"}, "averageDailyFlights": 1.14, "operators": [{"name": "Qatar Airways", "iata": "QR", "icao": "QTR"}]}, {"destination": {"icao": "LHBP", "iata": "BUD", "name": "Budapest Ferenc Liszt", "shortName": "Ferenc Liszt", "municipalityName": "Budapest", "location": {"lat": 47.4369, "lon": 19.255598}, "countryCode": "HU"}, "averageDailyFlights": 1.14, "operators": [{"name": "Qatar Airways", "iata": "QR", "icao": "QTR"}]}, {"destination": {"icao": "KORD", "iata": "ORD", "name": "Chicago O'Hare", "shortName": "O'Hare", "municipalityName": "Chicago", "location": {"lat": 41.9786, "lon": -87.9048}, "countryCode": "US"}, "averageDailyFlights": 1.14, "operators": [{"name": "Qatar Airways", "iata": "QR", "icao": "QTR"}]}, {"destination": {"icao": "EDDL", "iata": "DUS", "name": "Duesseldorf D\u00fcsseldorf", "shortName": "D\u00fcsseldorf", "municipalityName": "Duesseldorf", "location": {"lat": 51.2895, "lon": 6.766779}, "countryCode": "DE"}, "averageDailyFlights": 1.14, "operators": [{"name": "Qatar Airways", "iata": "QR", "icao": "QTR"}]}, {"destination": {"icao": "LSGG", "iata": "GVA", "name": "Geneva Cointrin", "shortName": "Cointrin", "municipalityName": "Geneva", "location": {"lat": 46.2381, "lon": 6.10895}, "countryCode": "CH"}, "averageDailyFlights": 1.14, "operators": [{"name": "Qatar Airways", "iata": "QR", "icao": "QTR"}]}, {"destination": {"icao": "ZGGG", "iata": "CAN", "name": "Guangzhou Baiyun", "shortName": "Baiyun", "municipalityName": "Guangzhou", "location": {"lat": 23.3924, "lon": 113.299}, "countryCode": "CN"}, "averageDailyFlights": 1.14, "operators": [{"name": "Qatar Airways", "iata": "QR", "icao": "QTR"}]}, {"destination": {"icao": "KIAH", "iata": "IAH", "name": "Houston George Bush", "shortName": "George Bush", "municipalityName": "Houston", "location": {"lat": 29.9844, "lon": -95.3414}, "countryCode": "US"}, "averageDailyFlights": 1.14, "operators": [{"name": "Qatar Airways", "iata": "QR", "icao": "QTR"}]}, {"destination": {"icao": "VECC", "iata": "CCU", "name": "Kolkata Netaji Subhash Chandra Bose", "shortName": "Netaji Subhash Chandra Bose", "municipalityName": "Kolkata", "location": {"lat": 22.6547, "lon": 88.4467}, "countryCode": "IN"}, "averageDailyFlights": 1.14, "operators": [{"name": "Qatar Airways", "iata": "QR", "icao": "QTR"}]}, {"destination": {"icao": "LCLK", "iata": "LCA", "name": "Larnarca Larnaca", "shortName": "Larnaca", "municipalityName": "Larnarca", "location": {"lat": 34.8751, "lon": 33.6249}, "countryCode": "CY"}, "averageDailyFlights": 1.14, "operators": [{"name": "Qatar Airways", "iata": "QR", "icao": "QTR"}]}, {"destination": {"icao": "FLLS", "iata": "LUN", "name": "Lusaka ", "shortName": "Lusaka", "municipalityName": "Lusaka", "location": {"lat": -15.3308, "lon": 28.4526}, "countryCode": "ZM"}, "averageDailyFlights": 1.14, "operators": [{"name": "Qatar Airways", "iata": "QR", "icao": "QTR"}]}, {"destination": {"icao": "FSIA", "iata": "SEZ", "name": "Mahe Island Seychelles", "shortName": "Seychelles", "municipalityName": "Mahe Island", "location": {"lat": -4.674339, "lon": 55.5218}, "countryCode": "SC"}, "averageDailyFlights": 1.14, "operators": [{"name": "Qatar Airways", "iata": "QR", "icao": "QTR"}]}, {"destination": {"icao": "OIMM", "iata": "MHD", "name": "Mashhad ", "shortName": "Mashhad", "municipalityName": "Mashhad", "location": {"lat": 36.2352, "lon": 59.641}, "countryCode": "IR"}, "averageDailyFlights": 1.14, "operators": [{"name": "Qatar Airways", "iata": "QR", "icao": "QTR"}]}, {"destination": {"icao": "KMIA", "iata": "MIA", "name": "Miami ", "shortName": "Miami", "municipalityName": "Miami", "location": {"lat": 25.7932, "lon": -80.2906}, "countryCode": "US"}, "averageDailyFlights": 1.14, "operators": [{"name": "Qatar Airways", "iata": "QR", "icao": "QTR"}]}, {"destination": {"icao": "CYUL", "iata": "YUL", "name": "Montreal Trudeau", "shortName": "Trudeau", "municipalityName": "Montreal", "location": {"lat": 45.4706, "lon": -73.7408}, "countryCode": "CA"}, "averageDailyFlights": 1.14, "operators": [{"name": "Qatar Airways", "iata": "QR", "icao": "QTR"}]}, {"destination": {"icao": "VANP", "iata": "NAG", "name": "Naqpur Dr. Babasaheb Ambedkar", "shortName": "Dr. Babasaheb Ambedkar", "municipalityName": "Naqpur", "location": {"lat": 21.0922, "lon": 79.0472}, "countryCode": "IN"}, "averageDailyFlights": 1.14, "operators": [{"name": "Qatar Airways", "iata": "QR", "icao": "QTR"}]}, {"destination": {"icao": "ENGM", "iata": "OSL", "name": "Oslo Gardermoen", "shortName": "Gardermoen", "municipalityName": "Oslo", "location": {"lat": 60.1939, "lon": 11.100399}, "countryCode": "NO"}, "averageDailyFlights": 1.14, "operators": [{"name": "Qatar Airways", "iata": "QR", "icao": "QTR"}]}, {"destination": {"icao": "YPPH", "iata": "PER", "name": "Perth International", "shortName": "International", "municipalityName": "Perth", "location": {"lat": -31.940277, "lon": 115.96694}, "countryCode": "AU"}, "averageDailyFlights": 1.14, "operators": [{"name": "Qatar Airways", "iata": "QR", "icao": "QTR"}]}, {"destination": {"icao": "KPHL", "iata": "PHL", "name": "Philadelphia ", "shortName": "Philadelphia", "municipalityName": "Philadelphia", "location": {"lat": 39.8719, "lon": -75.2411}, "countryCode": "US"}, "averageDailyFlights": 1.14, "operators": [{"name": "Qatar Airways", "iata": "QR", "icao": "QTR"}]}, {"destination": {"icao": "KSFO", "iata": "SFO", "name": "San Francisco ", "shortName": "San Francisco", "municipalityName": "San Francisco", "location": {"lat": 37.619, "lon": -122.375}, "countryCode": "US"}, "averageDailyFlights": 1.14, "operators": [{"name": "Qatar Airways", "iata": "QR", "icao": "QTR"}]}, {"destination": {"icao": "KSEA", "iata": "SEA", "name": "Seattle Tacoma", "shortName": "Tacoma", "municipalityName": "Seattle", "location": {"lat": 47.449, "lon": -122.309}, "countryCode": "US"}, "averageDailyFlights": 1.14, "operators": [{"name": "Qatar Airways", "iata": "QR", "icao": "QTR"}]}, {"destination": {"icao": "RKSI", "iata": "ICN", "name": "Seoul Incheon", "shortName": "Incheon", "municipalityName": "Seoul", "location": {"lat": 37.4691, "lon": 126.451}, "countryCode": "KR"}, "averageDailyFlights": 1.14, "operators": [{"name": "Qatar Airways", "iata": "QR", "icao": "QTR"}]}, {"destination": {"icao": "ZSPD", "iata": "PVG", "name": "Shanghai Pudong", "shortName": "Pudong", "municipalityName": "Shanghai", "location": {"lat": 31.1434, "lon": 121.805}, "countryCode": "CN"}, "averageDailyFlights": 1.14, "operators": [{"name": "Qatar Airways", "iata": "QR", "icao": "QTR"}]}, {"destination": {"icao": "LBSF", "iata": "SOF", "name": "Sofia ", "shortName": "Sofia", "municipalityName": "Sofia", "location": {"lat": 42.696693, "lon": 23.411436}, "countryCode": "BG"}, "averageDailyFlights": 1.14, "operators": [{"name": "Qatar Airways", "iata": "QR", "icao": "QTR"}]}, {"destination": {"icao": "YSSY", "iata": "SYD", "name": "Sydney City Sydney Kingsford Smith", "shortName": "Sydney Kingsford Smith", "municipalityName": "Sydney City", "location": {"lat": -33.9461, "lon": 151.177}, "countryCode": "AU"}, "averageDailyFlights": 1.14, "operators": [{"name": "Qatar Airways", "iata": "QR", "icao": "QTR"}]}, {"destination": {"icao": "RJAA", "iata": "NRT", "name": "Tokyo Narita", "shortName": "Narita", "municipalityName": "Tokyo", "location": {"lat": 35.7647, "lon": 140.386}, "countryCode": "JP"}, "averageDailyFlights": 1.14, "operators": [{"name": "Qatar Airways", "iata": "QR", "icao": "QTR"}]}, {"destination": {"icao": "DTTA", "iata": "TUN", "name": "Tunis Carthage", "shortName": "Carthage", "municipalityName": "Tunis", "location": {"lat": 36.851, "lon": 10.227199}, "countryCode": "TN"}, "averageDailyFlights": 1.14, "operators": [{"name": "Qatar Airways", "iata": "QR", "icao": "QTR"}]}, {"destination": {"icao": "HTZA", "iata": "ZNZ", "name": "Zanzibar Abeid Amani Karume", "shortName": "Abeid Amani Karume", "municipalityName": "Zanzibar", "location": {"lat": -6.22202, "lon": 39.2249}, "countryCode": "TZ"}, "averageDailyFlights": 1.14, "operators": [{"name": "Qatar Airways", "iata": "QR", "icao": "QTR"}]}, {"destination": {"name": "Larnaka"}, "averageDailyFlights": 1.14, "operators": [{"name": "Qatar Airways", "iata": "QR", "icao": "QTR"}]}, {"destination": {"icao": "OPST", "iata": "SKT", "name": "Sialkot ", "shortName": "Sialkot", "municipalityName": "Sialkot", "location": {"lat": 32.535557, "lon": 74.36389}, "countryCode": "PK"}, "averageDailyFlights": 1.02, "operators": [{"name": "Qatar Airways", "iata": "QR", "icao": "QTR"}]}, {"destination": {"icao": "YPAD", "iata": "ADL", "name": "Adelaide ", "shortName": "Adelaide", "municipalityName": "Adelaide", "location": {"lat": -34.945, "lon": 138.531}, "countryCode": "AU"}, "averageDailyFlights": 1.0, "operators": [{"name": "Qatar Airways", "iata": "QR", "icao": "QTR"}]}, {"destination": {"icao": "VAAH", "iata": "AMD", "name": "Ahmedabad Sardar Vallabhbhai Patel", "shortName": "Sardar Vallabhbhai Patel", "municipalityName": "Ahmedabad", "location": {"lat": 23.0772, "lon": 72.6347}, "countryCode": "IN"}, "averageDailyFlights": 1.0, "operators": [{"name": "Qatar Airways", "iata": "QR", "icao": "QTR"}]}, {"destination": {"icao": "NZAA", "iata": "AKL", "name": "Auckland ", "shortName": "Auckland", "municipalityName": "Auckland", "location": {"lat": -37.0081, "lon": 174.792}, "countryCode": "NZ"}, "averageDailyFlights": 1.0, "operators": [{"name": "Qatar Airways", "iata": "QR", "icao": "QTR"}]}, {"destination": {"icao": "HRYR", "iata": "KGL", "name": "Kigali ", "shortName": "Kigali", "municipalityName": "Kigali", "location": {"lat": -1.968629, "lon": 30.1395}, "countryCode": "RW"}, "averageDailyFlights": 1.0, "operators": [{"name": "RwandAir", "iata": "WB", "icao": "RWD"}]}, {"destination": {"icao": "VOTV", "iata": "TRV", "name": "Trivandrum ", "shortName": "Trivandrum", "municipalityName": "Trivandrum", "location": {"lat": 8.482119, "lon": 76.9201}, "countryCode": "IN"}, "averageDailyFlights": 1.0, "operators": [{"name": "Qatar Airways", "iata": "QR", "icao": "QTR"}]}, {"destination": {"icao": "VOGO", "iata": "GOI", "name": "Vasco da Gama Dabolim", "shortName": "Dabolim", "municipalityName": "Vasco da Gama", "location": {"lat": 15.3808, "lon": 73.8314}, "countryCode": "IN"}, "averageDailyFlights": 1.0, "operators": [{"name": "Qatar Airways", "iata": "QR", "icao": "QTR"}]}, {"destination": {"icao": "LDZA", "iata": "ZAG", "name": "Zagreb ", "shortName": "Zagreb", "municipalityName": "Zagreb", "location": {"lat": 45.7429, "lon": 16.068798}, "countryCode": "HR"}, "averageDailyFlights": 1.0, "operators": [{"name": "Qatar Airways", "iata": "QR", "icao": "QTR"}]}, {"destination": {"icao": "DGAA", "iata": "ACC", "name": "Accra Kotoka", "shortName": "Kotoka", "municipalityName": "Accra", "location": {"lat": 5.605189, "lon": -0.166786}, "countryCode": "GH"}, "averageDailyFlights": 0.86, "operators": [{"name": "Qatar Airways", "iata": "QR", "icao": "QTR"}]}, {"destination": {"icao": "EFHK", "iata": "HEL", "name": "Helsinki Vantaa", "shortName": "Vantaa", "municipalityName": "Helsinki", "location": {"lat": 60.3172, "lon": 24.9633}, "countryCode": "FI"}, "averageDailyFlights": 0.86, "operators": [{"name": "Finnair", "iata": "AY", "icao": "FIN"}]}, {"destination": {"icao": "HUEN", "iata": "EBB", "name": "Kampala Entebbe", "shortName": "Entebbe", "municipalityName": "Kampala", "location": {"lat": 0.042385, "lon": 32.4435}, "countryCode": "UG"}, "averageDailyFlights": 0.86, "operators": [{"name": "Qatar Airways", "iata": "QR", "icao": "QTR"}]}, {"destination": {"icao": "EGKK", "iata": "LGW", "name": "London Gatwick", "shortName": "Gatwick", "municipalityName": "London", "location": {"lat": 51.1481, "lon": -0.190277}, "countryCode": "GB"}, "averageDailyFlights": 0.86, "operators": [{"name": "British Airways", "iata": "BA", "icao": "BAW"}]}, {"destination": {"icao": "FQMA", "iata": "MPM", "name": "Maputo ", "shortName": "Maputo", "municipalityName": "Maputo", "location": {"lat": -25.9208, "lon": 32.5726}, "countryCode": "MZ"}, "averageDailyFlights": 0.86, "operators": [{"name": "Qatar Airways", "iata": "QR", "icao": "QTR"}]}, {"destination": {"icao": "LQSA", "iata": "SJJ", "name": "Sarajevo ", "shortName": "Sarajevo", "municipalityName": "Sarajevo", "location": {"lat": 43.8246, "lon": 18.3315}, "countryCode": "BA"}, "averageDailyFlights": 0.86, "operators": [{"name": "Qatar Airways", "iata": "QR", "icao": "QTR"}]}, {"destination": {"icao": "OISS", "iata": "SYZ", "name": "Shiraz Shahid Dastghaib", "shortName": "Shahid Dastghaib", "municipalityName": "Shiraz", "location": {"lat": 29.5392, "lon": 52.5898}, "countryCode": "IR"}, "averageDailyFlights": 0.86, "operators": [{"name": "Qatar Airways", "iata": "QR", "icao": "QTR"}, {"name": "Iran Air", "iata": "IR", "icao": "IRA"}]}, {"destination": {"icao": "HAAB", "iata": "ADD", "name": "Addis Ababa Bole", "shortName": "Bole", "municipalityName": "Addis Ababa", "location": {"lat": 8.97789, "lon": 38.7993}, "countryCode": "ET"}, "averageDailyFlights": 0.71, "operators": [{"name": "Ethiopian Airlines", "iata": "ET", "icao": "ETH"}, {"name": "Qatar Airways", "iata": "QR", "icao": "QTR"}]}, {"destination": {"icao": "KBOS", "iata": "BOS", "name": "Boston General Edward Lawrence Logan", "shortName": "General Edward Lawrence Logan", "municipalityName": "Boston", "location": {"lat": 42.3643, "lon": -71.0052}, "countryCode": "US"}, "averageDailyFlights": 0.71, "operators": [{"name": "Qatar Airways", "iata": "QR", "icao": "QTR"}]}, {"destination": {"icao": "RPVM", "iata": "CEB", "name": "Lapu-Lapu City Mactan Cebu", "shortName": "Mactan Cebu", "municipalityName": "Lapu-Lapu City", "location": {"lat": 10.307499, "lon": 123.979}, "countryCode": "PH"}, "averageDailyFlights": 0.71, "operators": [{"name": "Qatar Airways", "iata": "QR", "icao": "QTR"}]}, {"destination": {"icao": "HCMM", "iata": "MGQ", "name": "Mogadishu Aden Adde", "shortName": "Aden Adde", "municipalityName": "Mogadishu", "location": {"lat": 2.01444, "lon": 45.3047}, "countryCode": "SO"}, "averageDailyFlights": 0.71, "operators": [{"name": "Qatar Airways", "iata": "QR", "icao": "QTR"}]}, {"destination": {"icao": "OPMT", "iata": "MUX", "name": "Multan ", "shortName": "Multan", "municipalityName": "Multan", "location": {"lat": 30.2032, "lon": 71.4191}, "countryCode": "PK"}, "averageDailyFlights": 0.71, "operators": [{"name": "Qatar Airways", "iata": "QR", "icao": "QTR"}]}, {"destination": {"icao": "LFMN", "iata": "NCE", "name": "Nice -C\u00f4te d'Azur", "shortName": "-C\u00f4te d'Azur", "municipalityName": "Nice", "location": {"lat": 43.6584, "lon": 7.215869}, "countryCode": "FR"}, "averageDailyFlights": 0.71, "operators": [{"name": "Qatar Airways", "iata": "QR", "icao": "QTR"}]}, {"destination": {"icao": "VGEG", "iata": "CGP", "name": "Chittagong Shah Amanat", "shortName": "Shah Amanat", "municipalityName": "Chittagong", "location": {"lat": 22.2496, "lon": 91.8133}, "countryCode": "BD"}, "averageDailyFlights": 0.57, "operators": [{"name": "US-Bangla Airlines", "iata": "BS", "icao": "UBG"}, {"name": "Biman Bangladesh Airlines", "iata": "BG", "icao": "BBC"}]}, {"destination": {"icao": "HTDA", "iata": "DAR", "name": "Dar es Salaam Julius Nyerere", "shortName": "Julius Nyerere", "municipalityName": "Dar es Salaam", "location": {"lat": -6.878109, "lon": 39.2026}, "countryCode": "TZ"}, "averageDailyFlights": 0.57, "operators": [{"name": "Qatar Airways", "iata": "QR", "icao": "QTR"}]}, {"destination": {"icao": "ZSHC", "iata": "HGH", "name": "Hangzhou Xiaoshan", "shortName": "Xiaoshan", "municipalityName": "Hangzhou", "location": {"lat": 30.2295, "lon": 120.434}, "countryCode": "CN"}, "averageDailyFlights": 0.57, "operators": [{"name": "Qatar Airways", "iata": "QR", "icao": "QTR"}]}, {"destination": {"icao": "LFLL", "iata": "LYS", "name": "Lyon Saint-Exup\u00e9ry", "shortName": "Saint-Exup\u00e9ry", "municipalityName": "Lyon", "location": {"lat": 45.7264, "lon": 5.090829}, "countryCode": "FR"}, "averageDailyFlights": 0.57, "operators": [{"name": "Qatar Airways", "iata": "QR", "icao": "QTR"}]}, {"destination": {"icao": "LGMK", "iata": "JMK", "name": "Mykonos Island Mikonos", "shortName": "Mikonos", "municipalityName": "Mykonos Island", "location": {"lat": 37.4351, "lon": 25.3481}, "countryCode": "GR"}, "averageDailyFlights": 0.57, "operators": [{"name": "Qatar Airways", "iata": "QR", "icao": "QTR"}]}, {"destination": {"icao": "LFBO", "iata": "TLS", "name": "Toulouse-Blagnac ", "shortName": "Toulouse-Blagnac", "municipalityName": "Toulouse-Blagnac", "location": {"lat": 43.6291, "lon": 1.363819}, "countryCode": "FR"}, "averageDailyFlights": 0.57, "operators": [{"name": "Qatar Airways", "iata": "QR", "icao": "QTR"}]}, {"destination": {"icao": "FYWH", "iata": "WDH", "name": "Windhoek Hosea Kutako", "shortName": "Hosea Kutako", "municipalityName": "Windhoek", "location": {"lat": -22.4799, "lon": 17.4709}, "countryCode": "NA"}, "averageDailyFlights": 0.57, "operators": [{"name": "Qatar Airways", "iata": "QR", "icao": "QTR"}]}, {"destination": {"name": "Dzhibuti"}, "averageDailyFlights": 0.57, "operators": [{"name": "Qatar Airways", "iata": "QR", "icao": "QTR"}]}, {"destination": {"name": "Kano"}, "averageDailyFlights": 0.57, "operators": [{"name": "Qatar Airways", "iata": "QR", "icao": "QTR"}]}, {"destination": {"icao": "OIFM", "iata": "IFN", "name": "Isfahan Esfahan Shahid Beheshti", "shortName": "Esfahan Shahid Beheshti", "municipalityName": "Isfahan", "location": {"lat": 32.7508, "lon": 51.8613}, "countryCode": "IR"}, "averageDailyFlights": 0.43, "operators": [{"name": "Qatar Airways", "iata": "QR", "icao": "QTR"}]}, {"destination": {"icao": "FNLU", "iata": "LAD", "name": "Luanda Quatro de Fevereiro", "shortName": "Quatro de Fevereiro", "municipalityName": "Luanda", "location": {"lat": -8.858369, "lon": 13.2312}, "countryCode": "AO"}, "averageDailyFlights": 0.43, "operators": [{"name": "Qatar Airways", "iata": "QR", "icao": "QTR"}]}, {"destination": {"icao": "LEMG", "iata": "AGP", "name": "M\u00e1laga ", "shortName": "M\u00e1laga", "municipalityName": "M\u00e1laga", "location": {"lat": 36.6749, "lon": -4.49911}, "countryCode": "ES"}, "averageDailyFlights": 0.43, "operators": [{"name": "Qatar Airways", "iata": "QR", "icao": "QTR"}]}, {"destination": {"icao": "LTCG", "iata": "TZX", "name": "Trabzon ", "shortName": "Trabzon", "municipalityName": "Trabzon", "location": {"lat": 40.9951, "lon": 39.7897}, "countryCode": "TR"}, "averageDailyFlights": 0.43, "operators": [{"name": "Pegasus", "iata": "PC", "icao": "PGT"}]}, {"destination": {"icao": "VOML", "iata": "IXE", "name": "Mangalore ", "shortName": "Mangalore", "municipalityName": "Mangalore", "location": {"lat": 12.961299, "lon": 74.8901}, "countryCode": "IN"}, "averageDailyFlights": 0.29, "operators": [{"name": "Air India Express", "iata": "IX", "icao": "AXB"}]}, {"destination": {"icao": "OISL", "iata": "LRR", "name": "Lar ", "shortName": "Lar", "municipalityName": "Lar", "location": {"lat": 27.6747, "lon": 54.3833}, "countryCode": "IR"}, "averageDailyFlights": 0.14, "operators": [{"name": "Iran Air", "iata": "IR", "icao": "IRA"}]}, {"destination": {"icao": "VGSY", "iata": "ZYL", "name": "Sylhet Osmany", "shortName": "Osmany", "municipalityName": "Sylhet", "location": {"lat": 24.9632, "lon": 91.8668}, "countryCode": "BD"}, "averageDailyFlights": 0.14, "operators": [{"name": "Biman Bangladesh Airlines", "iata": "BG", "icao": "BBC"}]}, {"destination": {"icao": "VOTR", "iata": "TRZ", "name": "Tiruchirappally Tiruchirapally Civil", "shortName": "Tiruchirapally Civil", "municipalityName": "Tiruchirappally", "location": {"lat": 10.765399, "lon": 78.7097}, "countryCode": "IN"}, "averageDailyFlights": 0.14, "operators": [{"name": "Air India Express", "iata": "IX", "icao": "AXB"}]}, {"destination": {"name": "Chennay"}, "averageDailyFlights": 0.14, "operators": [{"name": "Qatar Airways", "iata": "QR", "icao": "QTR"}]}, {"destination": {"name": "Goa"}, "averageDailyFlights": 0.14, "operators": [{"name": "Qatar Airways", "iata": "QR", "icao": "QTR"}]}, {"destination": {"name": "Kozhikode"}, "averageDailyFlights": 0.14, "operators": [{"name": "Qatar Airways", "iata": "QR", "icao": "QTR"}]}, {"destination": {"name": "Taif"}, "averageDailyFlights": 0.14, "operators": [{"name": "Qatar Airways", "iata": "QR", "icao": "QTR"}]}, {"destination": {"name": "Tiruvanantapura"}, "averageDailyFlights": 0.14, "operators": [{"name": "Qatar Airways", "iata": "QR", "icao": "QTR"}]}]}