{"routes": [{"destination": {"icao": "RJFF", "iata": "FUK", "name": "Fukuoka ", "shortName": "Fukuoka", "municipalityName": "Fukuoka", "location": {"lat": 33.5859, "lon": 130.451}, "countryCode": "JP"}, "averageDailyFlights": 2.29, "operators": [{"name": "Fuji Dream Airlines", "iata": "JH", "icao": "FDA"}]}, {"destination": {"icao": "RJBE", "iata": "UKB", "name": "Kobe ", "shortName": "Kobe", "municipalityName": "Kobe", "location": {"lat": 34.6328, "lon": 135.224}, "countryCode": "JP"}, "averageDailyFlights": 2.29, "operators": [{"name": "Fuji Dream Airlines", "iata": "JH", "icao": "FDA"}]}, {"destination": {"icao": "RJCC", "iata": "CTS", "name": "Chitose / Tomakomai New Chitose", "shortName": "New Chitose", "municipalityName": "Chitose / Tomakomai", "location": {"lat": 42.7752, "lon": 141.692}, "countryCode": "JP"}, "averageDailyFlights": 1.14, "operators": [{"name": "Fuji Dream Airlines", "iata": "JH", "icao": "FDA"}]}, {"destination": {"icao": "RJCO", "iata": "OKD", "name": "Sapporo Okadama", "shortName": "Okadama", "municipalityName": "Sapporo", "location": {"lat": 43.1161, "lon": 141.38}, "countryCode": "JP"}, "averageDailyFlights": 1.14, "operators": [{"name": "Fuji Dream Airlines", "iata": "JH", "icao": "FDA"}]}, {"destination": {"icao": "RJOO", "iata": "ITM", "name": "Osaka ", "shortName": "Osaka", "municipalityName": "Osaka", "location": {"lat": 34.7855, "lon": 135.438}, "countryCode": "JP"}, "averageDailyFlights": 0.14, "operators": [{"name": "JAL", "iata": "JL", "icao": "JAL"}]}]}