{"routes": [{"destination": {"icao": "RPLL", "iata": "MNL", "name": "Manila Ninoy Aquino", "shortName": "Ninoy Aquino", "municipalityName": "Manila", "location": {"lat": 14.5086, "lon": 121.02}, "countryCode": "PH"}, "averageDailyFlights": 14.28, "operators": [{"name": "Cebu Pacific Air", "iata": "5J", "icao": "CEB"}, {"name": "Philippines AirAsia", "iata": "Z2", "icao": "APG"}, {"name": "Philippine Airlines", "iata": "PR", "icao": "PAL"}]}, {"destination": {"icao": "RPVM", "iata": "CEB", "name": "Lapu-Lapu City Mactan Cebu", "shortName": "Mactan Cebu", "municipalityName": "Lapu-Lapu City", "location": {"lat": 10.307499, "lon": 123.979}, "countryCode": "PH"}, "averageDailyFlights": 5.86, "operators": [{"name": "Cebgo", "iata": "DG", "icao": "SRQ"}, {"name": "Cebu Pacific Air", "iata": "5J", "icao": "CEB"}, {"name": "Philippine Airlines", "iata": "PR", "icao": "PAL"}]}, {"destination": {"icao": "RPMD", "iata": "DVO", "name": "Davao City Francisco Bangoy", "shortName": "Francisco Bangoy", "municipalityName": "Davao City", "location": {"lat": 7.12552, "lon": 125.646}, "countryCode": "PH"}, "averageDailyFlights": 1.43, "operators": [{"name": "Cebgo", "iata": "DG", "icao": "SRQ"}, {"name": "Philippine Airlines", "iata": "PR", "icao": "PAL"}, {"name": "Cebu Pacific Air", "iata": "5J", "icao": "CEB"}]}, {"destination": {"icao": "RPMR", "iata": "GES", "name": "General Santos ", "shortName": "General Santos", "municipalityName": "General Santos", "location": {"lat": 6.058, "lon": 125.096}, "countryCode": "PH"}, "averageDailyFlights": 1.14, "operators": [{"name": "Philippine Airlines", "iata": "PR", "icao": "PAL"}, {"name": "Cebgo", "iata": "DG", "icao": "SRQ"}, {"name": "Cebu Pacific Air", "iata": "5J", "icao": "CEB"}]}, {"destination": {"icao": "RPLC", "iata": "CRK", "name": "Angeles City Clark", "shortName": "Clark", "municipalityName": "Angeles City", "location": {"lat": 15.185999, "lon": 120.56}, "countryCode": "PH"}, "averageDailyFlights": 0.43, "operators": [{"name": "Cebu Pacific Air", "iata": "5J", "icao": "CEB"}]}, {"destination": {"icao": "RPMY", "iata": "CGY", "name": "Cagayan de Oro City Laguindingan", "shortName": "Laguindingan", "municipalityName": "Cagayan de Oro City", "location": {"lat": 8.612203, "lon": 124.4565}, "countryCode": "PH"}, "averageDailyFlights": 0.43, "operators": [{"name": "Cebu Pacific Air", "iata": "5J", "icao": "CEB"}, {"name": "Cebgo", "iata": "DG", "icao": "SRQ"}]}, {"destination": {"icao": "RPVP", "iata": "PPS", "name": "Puerto Princesa City Puerto Princesa", "shortName": "Puerto Princesa", "municipalityName": "Puerto Princesa City", "location": {"lat": 9.742119, "lon": 118.759}, "countryCode": "PH"}, "averageDailyFlights": 0.43, "operators": [{"name": "Cebu Pacific Air", "iata": "5J", "icao": "CEB"}]}]}