{"routes": [{"destination": {"icao": "SBSP", "iata": "CGH", "name": "S\u00e3o Paulo Congonhas", "shortName": "Congonhas", "municipalityName": "S\u00e3o Paulo", "location": {"lat": -23.62611, "lon": -46.656387}, "countryCode": "BR"}, "averageDailyFlights": 15.43, "operators": [{"name": "Gol", "iata": "G3", "icao": "GLO"}, {"name": "LATAM", "iata": "LA", "icao": "LAN"}]}, {"destination": {"icao": "SBRJ", "iata": "SDU", "name": "Rio de Janeiro Santos Dumont", "shortName": "Santos Dumont", "municipalityName": "Rio de Janeiro", "location": {"lat": -22.9105, "lon": -43.1631}, "countryCode": "BR"}, "averageDailyFlights": 7.0, "operators": [{"name": "Gol", "iata": "G3", "icao": "GLO"}, {"name": "LATAM", "iata": "LA", "icao": "LAN"}, {"name": "Azul", "iata": "AD", "icao": "AZU"}]}, {"destination": {"icao": "SBKP", "iata": "VCP", "name": "Campinas Viracopos", "shortName": "Viracopos", "municipalityName": "Campinas", "location": {"lat": -23.0074, "lon": -47.1345}, "countryCode": "BR"}, "averageDailyFlights": 4.71, "operators": [{"name": "Azul", "iata": "AD", "icao": "AZU"}]}, {"destination": {"icao": "SBPA", "iata": "POA", "name": "Porto Alegre Salgado Filho", "shortName": "Salgado Filho", "municipalityName": "Porto Alegre", "location": {"lat": -29.9944, "lon": -51.1714}, "countryCode": "BR"}, "averageDailyFlights": 2.0, "operators": [{"name": "Azul", "iata": "AD", "icao": "AZU"}]}, {"destination": {"icao": "SBBR", "iata": "BSB", "name": "Bras\u00edlia Presidente Juscelino Kubistschek", "shortName": "Presidente Juscelino Kubistschek", "municipalityName": "Bras\u00edlia", "location": {"lat": -15.869167, "lon": -47.920834}, "countryCode": "BR"}, "averageDailyFlights": 1.43, "operators": [{"name": "Gol", "iata": "G3", "icao": "GLO"}, {"name": "LATAM", "iata": "LA", "icao": "LAN"}]}, {"destination": {"icao": "SABE", "iata": "AEP", "name": "Buenos Aires Jorge Newbery Airpark", "shortName": "Jorge Newbery Airpark", "municipalityName": "Buenos Aires", "location": {"lat": -34.5592, "lon": -58.4156}, "countryCode": "AR"}, "averageDailyFlights": 1.14, "operators": [{"name": "Gol", "iata": "G3", "icao": "GLO"}]}, {"destination": {"icao": "SBCF", "iata": "CNF", "name": "Belo Horizonte Tancredo Neves", "shortName": "Tancredo Neves", "municipalityName": "Belo Horizonte", "location": {"lat": -19.624443, "lon": -43.971943}, "countryCode": "BR"}, "averageDailyFlights": 1.0, "operators": [{"name": "Azul", "iata": "AD", "icao": "AZU"}]}, {"destination": {"icao": "SBCH", "iata": "XAP", "name": "Chapec\u00f3 ", "shortName": "Chapec\u00f3", "municipalityName": "Chapec\u00f3", "location": {"lat": -27.1342, "lon": -52.6566}, "countryCode": "BR"}, "averageDailyFlights": 0.86, "operators": [{"name": "Azul", "iata": "AD", "icao": "AZU"}]}, {"destination": {"icao": "SBFI", "iata": "IGU", "name": "Foz do Igua\u00e7u Cataratas", "shortName": "Cataratas", "municipalityName": "Foz do Igua\u00e7u", "location": {"lat": -25.600279, "lon": -54.485}, "countryCode": "BR"}, "averageDailyFlights": 0.86, "operators": [{"name": "Azul", "iata": "AD", "icao": "AZU"}]}, {"destination": {"icao": "SCEL", "iata": "SCL", "name": "Santiago Comodoro Arturo Merino Ben\u00edtez", "shortName": "Comodoro Arturo Merino Ben\u00edtez", "municipalityName": "Santiago", "location": {"lat": -33.393, "lon": -70.7858}, "countryCode": "CL"}, "averageDailyFlights": 0.86, "operators": [{"name": "Sky Airline", "iata": "H2", "icao": "SKU"}]}, {"destination": {"icao": "SBCT", "iata": "CWB", "name": "Curitiba Afonso Pena", "shortName": "Afonso Pena", "municipalityName": "Curitiba", "location": {"lat": -25.5285, "lon": -49.1758}, "countryCode": "BR"}, "averageDailyFlights": 0.43, "operators": [{"name": "Azul", "iata": "AD", "icao": "AZU"}]}, {"destination": {"icao": "SBPF", "iata": "PFB", "name": "Passo Fundo Lauro Kurtz", "shortName": "Lauro Kurtz", "municipalityName": "Passo Fundo", "location": {"lat": -28.244, "lon": -52.3266}, "countryCode": "BR"}, "averageDailyFlights": 0.43, "operators": [{"name": "Azul", "iata": "AD", "icao": "AZU"}]}, {"destination": {"icao": "SAEZ", "iata": "EZE", "name": "Buenos Aires Ministro Pistarini", "shortName": "Ministro Pistarini", "municipalityName": "Buenos Aires", "location": {"lat": -34.8222, "lon": -58.5358}, "countryCode": "AR"}, "averageDailyFlights": 0.29, "operators": [{"name": "F.B. Lineas Aereas SA"}]}]}