{"routes": [{"destination": {"icao": "TBPB", "iata": "BGI", "name": "Bridgetown Sir Grantley Adams", "shortName": "Sir Grantley Adams", "municipalityName": "Bridgetown", "location": {"lat": 13.0746, "lon": -59.4925}, "countryCode": "BB"}, "averageDailyFlights": 2.29, "operators": [{"name": "LIAT", "iata": "LI", "icao": "LIA"}, {"name": "Caribbean Airlines", "iata": "BW", "icao": "BWA"}, {"name": "interCaribbean Airways", "iata": "JY", "icao": "IWY"}, {"name": "Virgin Atlantic", "iata": "VS", "icao": "VIR"}]}, {"destination": {"icao": "TVSA", "iata": "SVD", "name": "Argyle ", "shortName": "Argyle", "municipalityName": "Argyle", "location": {"lat": 13.156389, "lon": -61.150276}, "countryCode": "VC"}, "averageDailyFlights": 1.71, "operators": [{"name": "interCaribbean Airways", "iata": "JY", "icao": "IWY"}, {"name": "LIAT", "iata": "LI", "icao": "LIA"}]}, {"destination": {"icao": "TTPP", "iata": "POS", "name": "Port of Spain Piarco", "shortName": "Piarco", "municipalityName": "Port of Spain", "location": {"lat": 10.595399, "lon": -61.3372}, "countryCode": "TT"}, "averageDailyFlights": 1.71, "operators": [{"name": "Caribbean Airlines", "iata": "BW", "icao": "BWA"}]}, {"destination": {"icao": "KJFK", "iata": "JFK", "name": "New York John F Kennedy", "shortName": "John F Kennedy", "municipalityName": "New York", "location": {"lat": 40.6398, "lon": -73.7789}, "countryCode": "US"}, "averageDailyFlights": 1.43, "operators": [{"name": "JetBlue Airways", "iata": "B6", "icao": "JBU"}]}, {"destination": {"icao": "KMIA", "iata": "MIA", "name": "Miami ", "shortName": "Miami", "municipalityName": "Miami", "location": {"lat": 25.7932, "lon": -80.2906}, "countryCode": "US"}, "averageDailyFlights": 1.14, "operators": [{"name": "American Airlines", "iata": "AA", "icao": "AAL"}]}, {"destination": {"icao": "TLPL", "iata": "UVF", "name": "Vieux Fort Hewanorra", "shortName": "Hewanorra", "municipalityName": "Vieux Fort", "location": {"lat": 13.7332, "lon": -60.9526}, "countryCode": "LC"}, "averageDailyFlights": 0.43, "operators": [{"name": "British Airways", "iata": "BA", "icao": "BAW"}]}]}