{"routes": [{"destination": {"icao": "TFFJ", "iata": "SBH", "name": "Gustavia Gustaf III", "shortName": "Gustaf III", "municipalityName": "Gustavia", "location": {"lat": 17.9044, "lon": -62.8436}, "countryCode": "BL"}, "averageDailyFlights": 35.57, "operators": [{"name": "Winair", "iata": "WM", "icao": "WIA"}, {"name": "Saint Barth Commuter", "iata": "PV", "icao": "SBU"}]}, {"destination": {"icao": "TNCE", "iata": "EUX", "name": "Sint Eustatius F. D. Roosevelt", "shortName": "F. D. Roosevelt", "municipalityName": "Sint Eustatius", "location": {"lat": 17.4965, "lon": -62.9794}, "countryCode": "BQ"}, "averageDailyFlights": 3.43, "operators": [{"name": "Winair", "iata": "WM", "icao": "WIA"}]}, {"destination": {"icao": "TNCS", "iata": "SAB", "name": "Saba Juancho E. Yrausquin", "shortName": "Juancho E. Yrausquin", "municipalityName": "Saba", "location": {"lat": 17.645, "lon": -63.22}, "countryCode": "BQ"}, "averageDailyFlights": 3.14, "operators": [{"name": "Winair", "iata": "WM", "icao": "WIA"}]}, {"destination": {"icao": "TKPK", "iata": "SKB", "name": "Basseterre Robert L. Bradshaw", "shortName": "Robert L. Bradshaw", "municipalityName": "Basseterre", "location": {"lat": 17.3112, "lon": -62.7187}, "countryCode": "KN"}, "averageDailyFlights": 2.29, "operators": [{"name": "Winair", "iata": "WM", "icao": "WIA"}]}, {"destination": {"icao": "MDSD", "iata": "SDQ", "name": "Santo Domingo City Las Am\u00e9ricas", "shortName": "Las Am\u00e9ricas", "municipalityName": "Santo Domingo City", "location": {"lat": 18.4297, "lon": -69.6689}, "countryCode": "DO"}, "averageDailyFlights": 1.57, "operators": [{"name": "Sky High Aviation", "iata": "DO", "icao": "SHH"}, {"name": "Dominican Wings", "iata": "DW", "icao": "DWI"}, {"name": "Starlink Aviation"}, {"name": "FlexFlight", "iata": "W2", "icao": "FXT"}]}, {"destination": {"icao": "KJFK", "iata": "JFK", "name": "New York John F Kennedy", "shortName": "John F Kennedy", "municipalityName": "New York", "location": {"lat": 40.6398, "lon": -73.7789}, "countryCode": "US"}, "averageDailyFlights": 1.29, "operators": [{"name": "JetBlue Airways", "iata": "B6", "icao": "JBU"}, {"name": "Delta Air Lines", "iata": "DL", "icao": "DAL"}]}, {"destination": {"icao": "TUPJ", "iata": "EIS", "name": "Road Town Terrance B. Lettsome", "shortName": "Terrance B. Lettsome", "municipalityName": "Road Town", "location": {"lat": 18.4448, "lon": -64.543}, "countryCode": "VG"}, "averageDailyFlights": 1.29, "operators": [{"name": "Winair", "iata": "WM", "icao": "WIA"}, {"name": "LIAT", "iata": "LI", "icao": "LIA"}]}, {"destination": {"icao": "TAPA", "iata": "ANU", "name": "St. George V.C. Bird", "shortName": "V.C. Bird", "municipalityName": "St. George", "location": {"lat": 17.1367, "lon": -61.7927}, "countryCode": "AG"}, "averageDailyFlights": 1.29, "operators": [{"name": "Winair", "iata": "WM", "icao": "WIA"}, {"name": "LIAT", "iata": "LI", "icao": "LIA"}]}, {"destination": {"icao": "KMIA", "iata": "MIA", "name": "Miami ", "shortName": "Miami", "municipalityName": "Miami", "location": {"lat": 25.7932, "lon": -80.2906}, "countryCode": "US"}, "averageDailyFlights": 1.14, "operators": [{"name": "American Airlines", "iata": "AA", "icao": "AAL"}]}, {"destination": {"icao": "LFPG", "iata": "CDG", "name": "Paris Charles de Gaulle", "shortName": "Charles de Gaulle", "municipalityName": "Paris", "location": {"lat": 49.0128, "lon": 2.549999}, "countryCode": "FR"}, "averageDailyFlights": 1.0, "operators": [{"name": "Air France", "iata": "AF", "icao": "AFR"}]}, {"destination": {"icao": "TJSJ", "iata": "SJU", "name": "San Juan Luis Munoz Marin", "shortName": "Luis Munoz Marin", "municipalityName": "San Juan", "location": {"lat": 18.4394, "lon": -66.0018}, "countryCode": "PR"}, "averageDailyFlights": 1.0, "operators": [{"name": "EDG"}, {"name": "Air Flamenco", "iata": "F4", "icao": "WAF"}, {"name": "Silver Airways", "iata": "3M", "icao": "SIL"}]}, {"destination": {"icao": "TNCC", "iata": "CUR", "name": "Willemstad Hato", "shortName": "Hato", "municipalityName": "Willemstad", "location": {"lat": 12.188899, "lon": -68.9598}, "countryCode": "CW"}, "averageDailyFlights": 1.0, "operators": [{"name": "Jetair Caribbean", "iata": "4J", "icao": "JRC"}, {"name": "FlexFlight", "iata": "W2", "icao": "FXT"}]}, {"destination": {"icao": "KATL", "iata": "ATL", "name": "Atlanta Hartsfield Jackson", "shortName": "Hartsfield Jackson", "municipalityName": "Atlanta", "location": {"lat": 33.6367, "lon": -84.4281}, "countryCode": "US"}, "averageDailyFlights": 0.86, "operators": [{"name": "Delta Air Lines", "iata": "DL", "icao": "DAL"}]}, {"destination": {"icao": "TTPP", "iata": "POS", "name": "Port of Spain Piarco", "shortName": "Piarco", "municipalityName": "Port of Spain", "location": {"lat": 10.595399, "lon": -61.3372}, "countryCode": "TT"}, "averageDailyFlights": 0.71, "operators": [{"name": "Caribbean Airlines", "iata": "BW", "icao": "BWA"}, {"name": "KLM", "iata": "KL", "icao": "KLM"}]}, {"destination": {"icao": "MDJB", "iata": "JBQ", "name": "La Isabela ", "shortName": "La Isabela", "municipalityName": "La Isabela", "location": {"lat": 18.5725, "lon": -69.9856}, "countryCode": "DO"}, "averageDailyFlights": 0.43, "operators": [{"name": "Papillon Airways", "iata": "HI"}, {"name": "Air Century", "iata": "Y2", "icao": "CEY"}]}, {"destination": {"icao": "MPTO", "iata": "PTY", "name": "Tocumen ", "shortName": "Tocumen", "municipalityName": "Tocumen", "location": {"lat": 9.071359, "lon": -79.3835}, "countryCode": "PA"}, "averageDailyFlights": 0.43, "operators": [{"name": "Copa Airlines", "iata": "CM", "icao": "CMP"}]}, {"destination": {"icao": "CYYZ", "iata": "YYZ", "name": "Toronto Pearson", "shortName": "Pearson", "municipalityName": "Toronto", "location": {"lat": 43.6772, "lon": -79.6306}, "countryCode": "CA"}, "averageDailyFlights": 0.43, "operators": [{"name": "Sunwing", "iata": "WG", "icao": "SWG"}, {"name": "WestJet", "iata": "WS", "icao": "WJA"}]}, {"destination": {"icao": "TISX", "iata": "STX", "name": "Christiansted Henry E Rohlsen", "shortName": "Henry E Rohlsen", "municipalityName": "Christiansted", "location": {"lat": 17.7019, "lon": -64.7986}, "countryCode": "VI"}, "averageDailyFlights": 0.29, "operators": [{"name": "TWY"}]}, {"destination": {"icao": "KFLL", "iata": "FLL", "name": "Fort Lauderdale Hollywood", "shortName": "Hollywood", "municipalityName": "Fort Lauderdale", "location": {"lat": 26.0726, "lon": -80.1527}, "countryCode": "US"}, "averageDailyFlights": 0.29, "operators": [{"name": "Spirit Airlines", "iata": "NK", "icao": "NKS"}]}, {"destination": {"icao": "MKJP", "iata": "KIN", "name": "Kingston Norman Manley", "shortName": "Norman Manley", "municipalityName": "Kingston", "location": {"lat": 17.9357, "lon": -76.7875}, "countryCode": "JM"}, "averageDailyFlights": 0.29, "operators": [{"name": "Caribbean Airlines", "iata": "BW", "icao": "BWA"}]}, {"destination": {"icao": "KEWR", "iata": "EWR", "name": "Newark Liberty", "shortName": "Liberty", "municipalityName": "Newark", "location": {"lat": 40.6925, "lon": -74.1687}, "countryCode": "US"}, "averageDailyFlights": 0.29, "operators": [{"name": "United Airlines", "iata": "UA", "icao": "UAL"}]}, {"destination": {"icao": "KBOS", "iata": "BOS", "name": "Boston General Edward Lawrence Logan", "shortName": "General Edward Lawrence Logan", "municipalityName": "Boston", "location": {"lat": 42.3643, "lon": -71.0052}, "countryCode": "US"}, "averageDailyFlights": 0.14, "operators": [{"name": "JetBlue Airways", "iata": "B6", "icao": "JBU"}]}, {"destination": {"icao": "TBPB", "iata": "BGI", "name": "Bridgetown Sir Grantley Adams", "shortName": "Sir Grantley Adams", "municipalityName": "Bridgetown", "location": {"lat": 13.0746, "lon": -59.4925}, "countryCode": "BB"}, "averageDailyFlights": 0.14, "operators": [{"name": "Caribbean Airlines", "iata": "BW", "icao": "BWA"}]}, {"destination": {"icao": "KCLT", "iata": "CLT", "name": "Charlotte Douglas", "shortName": "Douglas", "municipalityName": "Charlotte", "location": {"lat": 35.214, "lon": -80.9431}, "countryCode": "US"}, "averageDailyFlights": 0.14, "operators": [{"name": "American Airlines", "iata": "AA", "icao": "AAL"}]}, {"destination": {"icao": "KIAD", "iata": "IAD", "name": "District of Columbia Washington Dulles", "shortName": "Washington Dulles", "municipalityName": "District of Columbia", "location": {"lat": 38.9445, "lon": -77.4558}, "countryCode": "US"}, "averageDailyFlights": 0.14, "operators": [{"name": "United Airlines", "iata": "UA", "icao": "UAL"}]}, {"destination": {"icao": "KLAX", "iata": "LAX", "name": "Los Angeles ", "shortName": "Los Angeles", "municipalityName": "Los Angeles", "location": {"lat": 33.9425, "lon": -118.408}, "countryCode": "US"}, "averageDailyFlights": 0.14, "operators": [{"name": "AHO"}]}, {"destination": {"icao": "ENGM", "iata": "OSL", "name": "Oslo Gardermoen", "shortName": "Gardermoen", "municipalityName": "Oslo", "location": {"lat": 60.1939, "lon": 11.100399}, "countryCode": "NO"}, "averageDailyFlights": 0.14, "operators": [{"name": "KAY"}]}, {"destination": {"icao": "TGPY", "iata": "GND", "name": "St. George's Point Salines", "shortName": "Point Salines", "municipalityName": "St. George's", "location": {"lat": 12.004199, "lon": -61.7862}, "countryCode": "GD"}, "averageDailyFlights": 0.14, "operators": [{"name": "My Jet Xpress Airlines", "iata": "N7", "icao": "NEP"}]}, {"destination": {"icao": "KTEB", "iata": "TEB", "name": "Teterboro ", "shortName": "Teterboro", "municipalityName": "Teterboro", "location": {"lat": 40.8501, "lon": -74.0608}, "countryCode": "US"}, "averageDailyFlights": 0.14, "operators": [{"name": "KOW"}]}]}