{"routes": [{"destination": {"icao": "UUEE", "iata": "SVO", "localCode": "\u0428\u0420\u041c", "name": "Moscow Sheremetyevo", "shortName": "Sheremetyevo", "municipalityName": "Moscow", "location": {"lat": 55.9726, "lon": 37.4146}, "countryCode": "RU"}, "averageDailyFlights": 6.86, "operators": [{"name": "Rossiya Airlines", "iata": "FV", "icao": "SDM"}, {"name": "Aeroflot", "iata": "SU", "icao": "AFL"}]}, {"destination": {"icao": "UHSS", "iata": "UUS", "localCode": "\u042e\u0416\u0425", "name": "Yuzhno-Sakhalinsk ", "shortName": "Yuzhno-Sakhalinsk", "municipalityName": "Yuzhno-Sakhalinsk", "location": {"lat": 46.8887, "lon": 142.718}, "countryCode": "RU"}, "averageDailyFlights": 4.0, "operators": [{"name": "Ural Airlines", "iata": "U6", "icao": "SVR"}, {"name": "Aurora", "iata": "HZ", "icao": "SHU"}, {"name": "S7 Airlines", "iata": "S7", "icao": "SBI"}]}, {"destination": {"icao": "UNNT", "iata": "OVB", "localCode": "\u0422\u041b\u0427", "name": "Novosibirsk Tolmachevo", "shortName": "Tolmachevo", "municipalityName": "Novosibirsk", "location": {"lat": 55.0126, "lon": 82.6507}, "countryCode": "RU"}, "averageDailyFlights": 3.43, "operators": [{"name": "S7 Airlines", "iata": "S7", "icao": "SBI"}]}, {"destination": {"icao": "UHHH", "iata": "KHV", "localCode": "\u0425\u0411\u0420", "name": "Khabarovsk Novy", "shortName": "Novy", "municipalityName": "Khabarovsk", "location": {"lat": 48.528, "lon": 135.188}, "countryCode": "RU"}, "averageDailyFlights": 2.71, "operators": [{"name": "Aurora", "iata": "HZ", "icao": "SHU"}, {"name": "S7 Airlines", "iata": "S7", "icao": "SBI"}]}, {"destination": {"icao": "UHPP", "iata": "PKC", "localCode": "\u041f\u0420\u041b", "name": "Petropavlovsk-Kamchatskiy Yelizovo", "shortName": "Yelizovo", "municipalityName": "Petropavlovsk-Kamchatskiy", "location": {"lat": 53.1679, "lon": 158.454}, "countryCode": "RU"}, "averageDailyFlights": 2.57, "operators": [{"name": "Aurora", "iata": "HZ", "icao": "SHU"}, {"name": "S7 Airlines", "iata": "S7", "icao": "SBI"}, {"name": "Ural Airlines", "iata": "U6", "icao": "SVR"}]}, {"destination": {"icao": "UIII", "iata": "IKT", "localCode": "\u0418\u041a\u0422", "name": "Irkutsk ", "shortName": "Irkutsk", "municipalityName": "Irkutsk", "location": {"lat": 52.268, "lon": 104.389}, "countryCode": "RU"}, "averageDailyFlights": 2.14, "operators": [{"name": "Ural Airlines", "iata": "U6", "icao": "SVR"}, {"name": "S7 Airlines", "iata": "S7", "icao": "SBI"}, {"name": "IrAero", "iata": "IO", "icao": "IAE"}]}, {"destination": {"icao": "UNKL", "iata": "KJA", "localCode": "\u041a\u042f\u0410", "name": "Krasnoyarsk Yemelyanovo", "shortName": "Yemelyanovo", "municipalityName": "Krasnoyarsk", "location": {"lat": 56.1729, "lon": 92.4933}, "countryCode": "RU"}, "averageDailyFlights": 1.45, "operators": [{"name": "Aurora", "iata": "HZ", "icao": "SHU"}, {"name": "Aeroflot", "iata": "SU", "icao": "AFL"}]}, {"destination": {"icao": "UEEE", "iata": "YKS", "localCode": "\u042f\u041a\u0422", "name": "Yakutsk ", "shortName": "Yakutsk", "municipalityName": "Yakutsk", "location": {"lat": 62.0933, "lon": 129.771}, "countryCode": "RU"}, "averageDailyFlights": 1.14, "operators": [{"name": "S7 Airlines", "iata": "S7", "icao": "SBI"}, {"name": "Yakutia", "iata": "R3", "icao": "SYL"}]}, {"destination": {"icao": "USSS", "iata": "SVX", "localCode": "\u041a\u041b\u0426", "name": "Ekaterinburg Koltsovo", "shortName": "Koltsovo", "municipalityName": "Ekaterinburg", "location": {"lat": 56.7431, "lon": 60.8027}, "countryCode": "RU"}, "averageDailyFlights": 1.0, "operators": [{"name": "Ural Airlines", "iata": "U6", "icao": "SVR"}]}, {"destination": {"icao": "UHBB", "iata": "BQS", "localCode": "\u0411\u0413\u0429", "name": "Blagoveschensk Ignatyevo", "shortName": "Ignatyevo", "municipalityName": "Blagoveschensk", "location": {"lat": 50.4254, "lon": 127.412}, "countryCode": "RU"}, "averageDailyFlights": 0.9, "operators": [{"name": "Yakutia", "iata": "R3", "icao": "SYL"}, {"name": "IrAero", "iata": "IO", "icao": "IAE"}, {"name": "Aurora", "iata": "HZ", "icao": "SHU"}]}, {"destination": {"icao": "ZYHB", "iata": "HRB", "name": "Harbin Taiping", "shortName": "Taiping", "municipalityName": "Harbin", "location": {"lat": 45.6234, "lon": 126.25}, "countryCode": "CN"}, "averageDailyFlights": 0.71, "operators": [{"name": "Aurora", "iata": "HZ", "icao": "SHU"}, {"name": "Chengdu Airlines", "iata": "EU", "icao": "UEA"}]}, {"destination": {"icao": "ULLI", "iata": "LED", "localCode": "\u041f\u041b\u041a", "name": "Saint-Petersburg Pulkovo", "shortName": "Pulkovo", "municipalityName": "Saint-Petersburg", "location": {"lat": 59.8003, "lon": 30.2625}, "countryCode": "RU"}, "averageDailyFlights": 0.71, "operators": [{"name": "Aeroflot", "iata": "SU", "icao": "AFL"}]}, {"destination": {"name": "Preobrazheniye"}, "averageDailyFlights": 0.71, "operators": [{"name": "Aurora", "iata": "HZ", "icao": "SHU"}]}, {"destination": {"icao": "UIUU", "iata": "UUD", "localCode": "\u0423\u041b\u042d", "name": "Ulan-Ude Mukhino", "shortName": "Mukhino", "municipalityName": "Ulan-Ude", "location": {"lat": 51.8078, "lon": 107.438}, "countryCode": "RU"}, "averageDailyFlights": 0.57, "operators": [{"name": "Aurora", "iata": "HZ", "icao": "SHU"}]}, {"destination": {"icao": "ZBAD", "iata": "PKX", "name": "Beijing Daxing", "shortName": "Daxing", "municipalityName": "Beijing", "location": {"lat": 39.509167, "lon": 116.41055}, "countryCode": "CN"}, "averageDailyFlights": 0.43, "operators": [{"name": "Aurora", "iata": "HZ", "icao": "SHU"}]}, {"destination": {"icao": "UHWK", "iata": "KVR", "localCode": "\u041a\u0410\u0412", "name": "Kavalerovo ", "shortName": "Kavalerovo", "municipalityName": "Kavalerovo", "location": {"lat": 44.2726, "lon": 135.029}, "countryCode": "RU"}, "averageDailyFlights": 0.43, "operators": [{"name": "Aurora", "iata": "HZ", "icao": "SHU"}]}, {"destination": {"icao": "VTBS", "iata": "BKK", "name": "Bangkok Suvarnabhumi", "shortName": "Suvarnabhumi", "municipalityName": "Bangkok", "location": {"lat": 13.681099, "lon": 100.747}, "countryCode": "TH"}, "averageDailyFlights": 0.29, "operators": [{"name": "Aeroflot", "iata": "SU", "icao": "AFL"}]}, {"destination": {"icao": "UHKK", "iata": "KXK", "localCode": "\u041a\u0421\u041b", "name": "Komsomolsk-on-Amur ", "shortName": "Komsomolsk-on-Amur", "municipalityName": "Komsomolsk-on-Amur", "location": {"lat": 50.409, "lon": 136.934}, "countryCode": "RU"}, "averageDailyFlights": 0.29, "operators": [{"name": "Angara Airlines", "iata": "2G", "icao": "AGU"}]}, {"destination": {"icao": "UTTT", "iata": "TAS", "localCode": "\u0422\u0410\u0421", "name": "Tashkent ", "shortName": "Tashkent", "municipalityName": "Tashkent", "location": {"lat": 41.2579, "lon": 69.2812}, "countryCode": "UZ"}, "averageDailyFlights": 0.29, "operators": [{"name": "Uzbekistan Airways", "iata": "HY", "icao": "UZB"}]}, {"destination": {"name": "Chita"}, "averageDailyFlights": 0.29, "operators": [{"name": "Aurora", "iata": "HZ", "icao": "SHU"}]}, {"destination": {"name": "Dalnegorsk"}, "averageDailyFlights": 0.29, "operators": [{"name": "Aurora", "iata": "HZ", "icao": "SHU"}]}, {"destination": {"name": "Sovetskaya Gavan"}, "averageDailyFlights": 0.29, "operators": [{"name": "Aurora", "iata": "HZ", "icao": "SHU"}]}, {"destination": {"name": "Terney"}, "averageDailyFlights": 0.29, "operators": [{"name": "Aurora", "iata": "HZ", "icao": "SHU"}]}, {"destination": {"icao": "UHMA", "iata": "DYR", "localCode": "\u0410\u041d\u042b", "name": "Anadyr Ugolny", "shortName": "Ugolny", "municipalityName": "Anadyr", "location": {"lat": 64.7349, "lon": 177.741}, "countryCode": "RU"}, "averageDailyFlights": 0.14, "operators": [{"name": "S7 Airlines", "iata": "S7", "icao": "SBI"}]}, {"destination": {"icao": "UELL", "iata": "NER", "localCode": "\u041d\u0420\u0413", "name": "Neryungri Chulman", "shortName": "Chulman", "municipalityName": "Neryungri", "location": {"lat": 56.9139, "lon": 124.914}, "countryCode": "RU"}, "averageDailyFlights": 0.14, "operators": [{"name": "IrAero", "iata": "IO", "icao": "IAE"}]}, {"destination": {"icao": "VTSP", "iata": "HKT", "name": "Phuket ", "shortName": "Phuket", "municipalityName": "Phuket", "location": {"lat": 8.1132, "lon": 98.3169}, "countryCode": "TH"}, "averageDailyFlights": 0.14, "operators": [{"name": "AZUR Air", "iata": "ZF", "icao": "KTK"}]}, {"destination": {"icao": "URSS", "iata": "AER", "localCode": "\u0421\u041e\u0427", "name": "Sochi ", "shortName": "Sochi", "municipalityName": "Sochi", "location": {"lat": 43.4499, "lon": 39.9566}, "countryCode": "RU"}, "averageDailyFlights": 0.14, "operators": [{"name": "LTD I Fly", "iata": "F7", "icao": "RSY"}]}, {"destination": {"name": "Nikolayevsk-na-Amure"}, "averageDailyFlights": 0.14, "operators": [{"name": "Aurora", "iata": "HZ", "icao": "SHU"}]}, {"destination": {"name": "Plastun"}, "averageDailyFlights": 0.14, "operators": [{"name": "Aurora", "iata": "HZ", "icao": "SHU"}]}, {"destination": {"name": "Surgut"}, "averageDailyFlights": 0.14, "operators": [{"name": "UTAir", "iata": "UT", "icao": "UTA"}]}]}