{"routes": [{"destination": {"icao": "VIDP", "iata": "DEL", "name": "New Delhi Indira Gandhi", "shortName": "Indira Gandhi", "municipalityName": "New Delhi", "location": {"lat": 28.5665, "lon": 77.1031}, "countryCode": "IN"}, "averageDailyFlights": 24.34, "operators": [{"name": "IndiGo", "iata": "6E", "icao": "IGO"}, {"name": "Air India", "iata": "AI", "icao": "AIC"}, {"name": "AirAsia India", "iata": "I5", "icao": "IAD"}, {"name": "Vistara", "iata": "UK", "icao": "VTI"}, {"name": "SpiceJet", "iata": "SG", "icao": "SEJ"}]}, {"destination": {"icao": "VOBL", "iata": "BLR", "name": "Bangalore Bengaluru", "shortName": "Bengaluru", "municipalityName": "Bangalore", "location": {"lat": 13.197899, "lon": 77.7063}, "countryCode": "IN"}, "averageDailyFlights": 16.14, "operators": [{"name": "Akasa Air"}, {"name": "IndiGo", "iata": "6E", "icao": "IGO"}, {"name": "AirAsia India", "iata": "I5", "icao": "IAD"}]}, {"destination": {"icao": "VOHS", "iata": "HYD", "name": "Hyderabad Rajiv Gandhi", "shortName": "Rajiv Gandhi", "municipalityName": "Hyderabad", "location": {"lat": 17.231318, "lon": 78.429855}, "countryCode": "IN"}, "averageDailyFlights": 6.71, "operators": [{"name": "IndiGo", "iata": "6E", "icao": "IGO"}, {"name": "Alliance Air", "iata": "9I", "icao": "LLR"}, {"name": "SpiceJet", "iata": "SG", "icao": "SEJ"}]}, {"destination": {"icao": "VAAH", "iata": "AMD", "name": "Ahmedabad Sardar Vallabhbhai Patel", "shortName": "Sardar Vallabhbhai Patel", "municipalityName": "Ahmedabad", "location": {"lat": 23.0772, "lon": 72.6347}, "countryCode": "IN"}, "averageDailyFlights": 6.29, "operators": [{"name": "IndiGo", "iata": "6E", "icao": "IGO"}, {"name": "Air India", "iata": "AI", "icao": "AIC"}, {"name": "Akasa Air"}]}, {"destination": {"icao": "VOMM", "iata": "MAA", "name": "Chennai ", "shortName": "Chennai", "municipalityName": "Chennai", "location": {"lat": 12.990005, "lon": 80.1693}, "countryCode": "IN"}, "averageDailyFlights": 4.86, "operators": [{"name": "IndiGo", "iata": "6E", "icao": "IGO"}]}, {"destination": {"icao": "VANP", "iata": "NAG", "name": "Naqpur Dr. Babasaheb Ambedkar", "shortName": "Dr. Babasaheb Ambedkar", "municipalityName": "Naqpur", "location": {"lat": 21.0922, "lon": 79.0472}, "countryCode": "IN"}, "averageDailyFlights": 4.43, "operators": [{"name": "IndiGo", "iata": "6E", "icao": "IGO"}]}, {"destination": {"icao": "VECC", "iata": "CCU", "name": "Kolkata Netaji Subhash Chandra Bose", "shortName": "Netaji Subhash Chandra Bose", "municipalityName": "Kolkata", "location": {"lat": 22.6547, "lon": 88.4467}, "countryCode": "IN"}, "averageDailyFlights": 3.43, "operators": [{"name": "IndiGo", "iata": "6E", "icao": "IGO"}]}, {"destination": {"icao": "VIJP", "iata": "JAI", "name": "Jaipur ", "shortName": "Jaipur", "municipalityName": "Jaipur", "location": {"lat": 26.8242, "lon": 75.8122}, "countryCode": "IN"}, "averageDailyFlights": 3.29, "operators": [{"name": "IndiGo", "iata": "6E", "icao": "IGO"}, {"name": "AirAsia India", "iata": "I5", "icao": "IAD"}, {"name": "SpiceJet", "iata": "SG", "icao": "SEJ"}]}, {"destination": {"icao": "VEBS", "iata": "BBI", "name": "Bhubaneswar Biju Patnaik", "shortName": "Biju Patnaik", "municipalityName": "Bhubaneswar", "location": {"lat": 20.2444, "lon": 85.8178}, "countryCode": "IN"}, "averageDailyFlights": 2.29, "operators": [{"name": "Akasa Air"}, {"name": "AirAsia India", "iata": "I5", "icao": "IAD"}]}, {"destination": {"icao": "VILK", "iata": "LKO", "name": "Lucknow Chaudhary Charan Singh", "shortName": "Chaudhary Charan Singh", "municipalityName": "Lucknow", "location": {"lat": 26.7606, "lon": 80.8893}, "countryCode": "IN"}, "averageDailyFlights": 2.29, "operators": [{"name": "IndiGo", "iata": "6E", "icao": "IGO"}, {"name": "AirAsia India", "iata": "I5", "icao": "IAD"}]}, {"destination": {"icao": "VOCI", "iata": "COK", "name": "Kochi Cochin", "shortName": "Cochin", "municipalityName": "Kochi", "location": {"lat": 10.152, "lon": 76.4019}, "countryCode": "IN"}, "averageDailyFlights": 1.29, "operators": [{"name": "IndiGo", "iata": "6E", "icao": "IGO"}]}, {"destination": {"icao": "VIAR", "iata": "ATQ", "name": "Amritsar Sri Guru Ram Dass Jee", "shortName": "Sri Guru Ram Dass Jee", "municipalityName": "Amritsar", "location": {"lat": 31.7096, "lon": 74.7973}, "countryCode": "IN"}, "averageDailyFlights": 1.14, "operators": [{"name": "IndiGo", "iata": "6E", "icao": "IGO"}]}, {"destination": {"icao": "VICG", "iata": "IXC", "name": "Chandigarh ", "shortName": "Chandigarh", "municipalityName": "Chandigarh", "location": {"lat": 30.6735, "lon": 76.7885}, "countryCode": "IN"}, "averageDailyFlights": 1.14, "operators": [{"name": "IndiGo", "iata": "6E", "icao": "IGO"}]}, {"destination": {"icao": "VOCB", "iata": "CJB", "name": "Coimbatore ", "shortName": "Coimbatore", "municipalityName": "Coimbatore", "location": {"lat": 11.029999, "lon": 77.0434}, "countryCode": "IN"}, "averageDailyFlights": 1.14, "operators": [{"name": "IndiGo", "iata": "6E", "icao": "IGO"}]}, {"destination": {"icao": "OMDB", "iata": "DXB", "name": "Dubai ", "shortName": "Dubai", "municipalityName": "Dubai", "location": {"lat": 25.252798, "lon": 55.3644}, "countryCode": "AE"}, "averageDailyFlights": 1.14, "operators": [{"name": "SpiceJet", "iata": "SG", "icao": "SEJ"}]}, {"destination": {"icao": "VEGT", "iata": "GAU", "name": "Guwahati Lokpriya Gopinath Bordoloi", "shortName": "Lokpriya Gopinath Bordoloi", "municipalityName": "Guwahati", "location": {"lat": 26.1061, "lon": 91.5859}, "countryCode": "IN"}, "averageDailyFlights": 1.14, "operators": [{"name": "IndiGo", "iata": "6E", "icao": "IGO"}]}, {"destination": {"icao": "VAID", "iata": "IDR", "name": "Indore Devi Ahilyabai Holkar", "shortName": "Devi Ahilyabai Holkar", "municipalityName": "Indore", "location": {"lat": 22.7218, "lon": 75.8011}, "countryCode": "IN"}, "averageDailyFlights": 1.14, "operators": [{"name": "IndiGo", "iata": "6E", "icao": "IGO"}]}, {"destination": {"icao": "VEPT", "iata": "PAT", "name": "Patna Lok Nayak Jayaprakash", "shortName": "Lok Nayak Jayaprakash", "municipalityName": "Patna", "location": {"lat": 25.5913, "lon": 85.088}, "countryCode": "IN"}, "averageDailyFlights": 1.14, "operators": [{"name": "IndiGo", "iata": "6E", "icao": "IGO"}]}, {"destination": {"icao": "VERC", "iata": "IXR", "name": "Ranchi Birsa Munda", "shortName": "Birsa Munda", "municipalityName": "Ranchi", "location": {"lat": 23.3143, "lon": 85.3217}, "countryCode": "IN"}, "averageDailyFlights": 1.14, "operators": [{"name": "IndiGo", "iata": "6E", "icao": "IGO"}]}, {"destination": {"icao": "VOTV", "iata": "TRV", "name": "Trivandrum ", "shortName": "Trivandrum", "municipalityName": "Trivandrum", "location": {"lat": 8.482119, "lon": 76.9201}, "countryCode": "IN"}, "averageDailyFlights": 1.14, "operators": [{"name": "IndiGo", "iata": "6E", "icao": "IGO"}]}, {"destination": {"icao": "VIBN", "iata": "VNS", "name": "Varanasi Lal Bahadur Shastri", "shortName": "Lal Bahadur Shastri", "municipalityName": "Varanasi", "location": {"lat": 25.4524, "lon": 82.8593}, "countryCode": "IN"}, "averageDailyFlights": 1.14, "operators": [{"name": "IndiGo", "iata": "6E", "icao": "IGO"}]}, {"destination": {"icao": "VABV", "iata": "BHU", "name": "Bhavnagar ", "shortName": "Bhavnagar", "municipalityName": "Bhavnagar", "location": {"lat": 21.7522, "lon": 72.1852}, "countryCode": "IN"}, "averageDailyFlights": 1.0, "operators": [{"name": "SpiceJet", "iata": "SG", "icao": "SEJ"}]}, {"destination": {"icao": "VIDN", "iata": "DED", "name": "Dehradun ", "shortName": "Dehradun", "municipalityName": "Dehradun", "location": {"lat": 30.1897, "lon": 78.1803}, "countryCode": "IN"}, "averageDailyFlights": 1.0, "operators": [{"name": "IndiGo", "iata": "6E", "icao": "IGO"}]}, {"destination": {"icao": "VABB", "iata": "BOM", "name": "Mumbai Chhatrapati Shivaji", "shortName": "Chhatrapati Shivaji", "municipalityName": "Mumbai", "location": {"lat": 19.0887, "lon": 72.8679}, "countryCode": "IN"}, "averageDailyFlights": 1.0, "operators": [{"name": "Air India", "iata": "AI", "icao": "AIC"}]}, {"destination": {"icao": "VOGO", "iata": "GOI", "name": "Vasco da Gama Dabolim", "shortName": "Dabolim", "municipalityName": "Vasco da Gama", "location": {"lat": 15.3808, "lon": 73.8314}, "countryCode": "IN"}, "averageDailyFlights": 1.0, "operators": [{"name": "SpiceJet", "iata": "SG", "icao": "SEJ"}]}, {"destination": {"icao": "VIJO", "iata": "JDH", "name": "Jodhpur ", "shortName": "Jodhpur", "municipalityName": "Jodhpur", "location": {"lat": 26.2511, "lon": 73.0489}, "countryCode": "IN"}, "averageDailyFlights": 0.86, "operators": [{"name": "IndiGo", "iata": "6E", "icao": "IGO"}]}, {"destination": {"icao": "VOML", "iata": "IXE", "name": "Mangalore ", "shortName": "Mangalore", "municipalityName": "Mangalore", "location": {"lat": 12.961299, "lon": 74.8901}, "countryCode": "IN"}, "averageDailyFlights": 0.71, "operators": [{"name": "IndiGo", "iata": "6E", "icao": "IGO"}]}, {"destination": {"icao": "VIAL", "iata": "IXD", "name": "Allahabad ", "shortName": "Allahabad", "municipalityName": "Allahabad", "location": {"lat": 25.4401, "lon": 81.7339}, "countryCode": "IN"}, "averageDailyFlights": 0.57, "operators": [{"name": "IndiGo", "iata": "6E", "icao": "IGO"}]}, {"destination": {"icao": "WSSS", "iata": "SIN", "name": "Singapore Changi", "shortName": "Changi", "municipalityName": "Singapore", "location": {"lat": 1.35019, "lon": 103.994}, "countryCode": "SG"}, "averageDailyFlights": 0.57, "operators": [{"name": "Vistara", "iata": "UK", "icao": "VTI"}]}, {"destination": {"icao": "VOVZ", "iata": "VTZ", "name": "Visakhapatnam Vishakhapatnam", "shortName": "Vishakhapatnam", "municipalityName": "Visakhapatnam", "location": {"lat": 17.7212, "lon": 83.2245}, "countryCode": "IN"}, "averageDailyFlights": 0.57, "operators": [{"name": "IndiGo", "iata": "6E", "icao": "IGO"}]}, {"destination": {"icao": "VARP", "iata": "RPR", "name": "Raipur ", "shortName": "Raipur", "municipalityName": "Raipur", "location": {"lat": 21.1804, "lon": 81.7388}, "countryCode": "IN"}, "averageDailyFlights": 0.43, "operators": [{"name": "IndiGo", "iata": "6E", "icao": "IGO"}]}, {"destination": {"name": "Chennay"}, "averageDailyFlights": 0.43, "operators": [{"name": "IndiGo", "iata": "6E", "icao": "IGO"}]}, {"destination": {"icao": "VOHB", "iata": "HBX", "name": "Hubli ", "shortName": "Hubli", "municipalityName": "Hubli", "location": {"lat": 15.3617, "lon": 75.0849}, "countryCode": "IN"}, "averageDailyFlights": 0.29, "operators": [{"name": "IndiGo", "iata": "6E", "icao": "IGO"}]}, {"destination": {"icao": "VARK", "iata": "RAJ", "name": "Rajkot ", "shortName": "Rajkot", "municipalityName": "Rajkot", "location": {"lat": 22.3092, "lon": 70.7795}, "countryCode": "IN"}, "averageDailyFlights": 0.29, "operators": [{"name": "IndiGo", "iata": "6E", "icao": "IGO"}]}, {"destination": {"icao": "VABO", "iata": "BDQ", "name": "Vadodara ", "shortName": "Vadodara", "municipalityName": "Vadodara", "location": {"lat": 22.3362, "lon": 73.2263}, "countryCode": "IN"}, "averageDailyFlights": 0.14, "operators": [{"name": "IndiGo", "iata": "6E", "icao": "IGO"}]}]}