{"routes": [{"destination": {"icao": "VECC", "iata": "CCU", "name": "Kolkata Netaji Subhash Chandra Bose", "shortName": "Netaji Subhash Chandra Bose", "municipalityName": "Kolkata", "location": {"lat": 22.6547, "lon": 88.4467}, "countryCode": "IN"}, "averageDailyFlights": 1.71, "operators": [{"name": "IndiGo", "iata": "6E", "icao": "IGO"}]}, {"destination": {"icao": "VEGT", "iata": "GAU", "name": "Guwahati Lokpriya Gopinath Bordoloi", "shortName": "Lokpriya Gopinath Bordoloi", "municipalityName": "Guwahati", "location": {"lat": 26.1061, "lon": 91.5859}, "countryCode": "IN"}, "averageDailyFlights": 1.14, "operators": [{"name": "Air India", "iata": "AI", "icao": "AIC"}]}, {"destination": {"icao": "VEMN", "iata": "DIB", "name": "Dibrugarh ", "shortName": "Dibrugarh", "municipalityName": "Dibrugarh", "location": {"lat": 27.4839, "lon": 95.0169}, "countryCode": "IN"}, "averageDailyFlights": 0.57, "operators": [{"name": "IndiGo", "iata": "6E", "icao": "IGO"}]}, {"destination": {"icao": "VIDP", "iata": "DEL", "name": "New Delhi Indira Gandhi", "shortName": "Indira Gandhi", "municipalityName": "New Delhi", "location": {"lat": 28.5665, "lon": 77.1031}, "countryCode": "IN"}, "averageDailyFlights": 0.57, "operators": [{"name": "IndiGo", "iata": "6E", "icao": "IGO"}]}, {"destination": {"icao": "VEBI", "iata": "SHL", "name": "Shillong ", "shortName": "Shillong", "municipalityName": "Shillong", "location": {"lat": 25.7036, "lon": 91.9787}, "countryCode": "IN"}, "averageDailyFlights": 0.57, "operators": [{"name": "Alliance Air", "iata": "9I", "icao": "LLR"}]}, {"destination": {"icao": "VEIM", "iata": "IMF", "name": "Imphal ", "shortName": "Imphal", "municipalityName": "Imphal", "location": {"lat": 24.76, "lon": 93.8967}, "countryCode": "IN"}, "averageDailyFlights": 0.43, "operators": [{"name": "Alliance Air", "iata": "9I", "icao": "LLR"}]}]}