{"routes": [{"destination": {"icao": "VYYY", "iata": "RGN", "name": "Yangon ", "shortName": "Yangon", "municipalityName": "Yangon", "location": {"lat": 16.9073, "lon": 96.1332}, "countryCode": "MM"}, "averageDailyFlights": 5.0, "operators": [{"name": "Myanmar National Airlines", "iata": "UB", "icao": "UBA"}, {"name": "Myanmar Airways International", "iata": "8M", "icao": "MMA"}, {"name": "Mann Yadanarpon Airlines", "iata": "7Y", "icao": "MYP"}, {"name": "Myanmar Airways"}]}, {"destination": {"icao": "VYMK", "iata": "MYT", "name": "Myitkyina ", "shortName": "Myitkyina", "municipalityName": "Myitkyina", "location": {"lat": 25.3836, "lon": 97.3519}, "countryCode": "MM"}, "averageDailyFlights": 2.86, "operators": [{"name": "Myanmar National Airlines", "iata": "UB", "icao": "UBA"}, {"name": "Mann Yadanarpon Airlines", "iata": "7Y", "icao": "MYP"}, {"name": "Myanmar Airways"}]}, {"destination": {"icao": "VTBD", "iata": "DMK", "name": "Bangkok Don Mueang", "shortName": "Don Mueang", "municipalityName": "Bangkok", "location": {"lat": 13.912599, "lon": 100.607}, "countryCode": "TH"}, "averageDailyFlights": 1.29, "operators": [{"name": "Thai AirAsia", "iata": "FD", "icao": "AIQ"}, {"name": "Myanmar Airways"}]}, {"destination": {"name": "Kalemio"}, "averageDailyFlights": 0.86, "operators": [{"name": "Myanmar National Airlines", "iata": "UB", "icao": "UBA"}]}, {"destination": {"icao": "VTBS", "iata": "BKK", "name": "Bangkok Suvarnabhumi", "shortName": "Suvarnabhumi", "municipalityName": "Bangkok", "location": {"lat": 13.681099, "lon": 100.747}, "countryCode": "TH"}, "averageDailyFlights": 0.71, "operators": [{"name": "Myanmar Airways International", "iata": "8M", "icao": "MMA"}]}, {"destination": {"icao": "ZPLX", "iata": "LUM", "name": "Luxi Mangshi", "shortName": "Mangshi", "municipalityName": "Luxi", "location": {"lat": 24.4011, "lon": 98.5317}, "countryCode": "CN"}, "averageDailyFlights": 0.71, "operators": [{"name": "Ruili Airlines", "iata": "DR", "icao": "RLH"}, {"name": "Myanmar National Airlines", "iata": "UB", "icao": "UBA"}]}, {"destination": {"name": "Khomalin"}, "averageDailyFlights": 0.71, "operators": [{"name": "Myanmar National Airlines", "iata": "UB", "icao": "UBA"}]}, {"destination": {"icao": "VYKI", "iata": "KHM", "name": "Kanti ", "shortName": "Kanti", "municipalityName": "Kanti", "location": {"lat": 25.9883, "lon": 95.6744}, "countryCode": "MM"}, "averageDailyFlights": 0.57, "operators": [{"name": "Myanmar National Airlines", "iata": "UB", "icao": "UBA"}]}, {"destination": {"icao": "ZPPP", "iata": "KMG", "name": "Kunming Changshui", "shortName": "Changshui", "municipalityName": "Kunming", "location": {"lat": 25.101944, "lon": 102.92917}, "countryCode": "CN"}, "averageDailyFlights": 0.57, "operators": [{"name": "China Eastern Airlines", "iata": "MU", "icao": "CES"}]}, {"destination": {"name": "Bamo"}, "averageDailyFlights": 0.57, "operators": [{"name": "Myanmar National Airlines", "iata": "UB", "icao": "UBA"}]}, {"destination": {"icao": "UNNT", "iata": "OVB", "localCode": "\u0422\u041b\u0427", "name": "Novosibirsk Tolmachevo", "shortName": "Tolmachevo", "municipalityName": "Novosibirsk", "location": {"lat": 55.0126, "lon": 82.6507}, "countryCode": "RU"}, "averageDailyFlights": 0.14, "operators": [{"name": "Myanmar Airways"}]}, {"destination": {"icao": "VYSW", "iata": "AKY", "name": "Sittwe ", "shortName": "Sittwe", "municipalityName": "Sittwe", "location": {"lat": 20.132698, "lon": 92.8726}, "countryCode": "MM"}, "averageDailyFlights": 0.14, "operators": [{"name": "Myanmar National Airlines", "iata": "UB", "icao": "UBA"}]}]}