{"routes": [{"destination": {"icao": "WIII", "iata": "CGK", "name": "Jakarta Soekarno-Hatta", "shortName": "Soekarno-Hatta", "municipalityName": "Jakarta", "location": {"lat": -6.125569, "lon": 106.656}, "countryCode": "ID"}, "averageDailyFlights": 4.43, "operators": [{"name": "Garuda Indonesia", "iata": "GA", "icao": "GIA"}, {"name": "Batik Air", "iata": "ID", "icao": "BTK"}]}, {"destination": {"icao": "WMKK", "iata": "KUL", "name": "Kuala Lumpur ", "shortName": "Kuala Lumpur", "municipalityName": "Kuala Lumpur", "location": {"lat": 2.745579, "lon": 101.71}, "countryCode": "MY"}, "averageDailyFlights": 1.57, "operators": [{"name": "AirAsia", "iata": "AK", "icao": "AXM"}]}, {"destination": {"icao": "WMKP", "iata": "PEN", "name": "Penang ", "shortName": "Penang", "municipalityName": "Penang", "location": {"lat": 5.29714, "lon": 100.277}, "countryCode": "MY"}, "averageDailyFlights": 0.43, "operators": [{"name": "Firefly", "iata": "FY", "icao": "FFM"}]}, {"destination": {"icao": "OEJN", "iata": "JED", "name": "Jeddah King Abdulaziz", "shortName": "King Abdulaziz", "municipalityName": "Jeddah", "location": {"lat": 21.6796, "lon": 39.1565}, "countryCode": "SA"}, "averageDailyFlights": 0.14, "operators": [{"name": "Lion Air", "iata": "JT", "icao": "LNI"}]}, {"destination": {"icao": "OEMA", "iata": "MED", "name": "Medina Prince Mohammad Bin Abdulaziz", "shortName": "Prince Mohammad Bin Abdulaziz", "municipalityName": "Medina", "location": {"lat": 24.5534, "lon": 39.7051}, "countryCode": "SA"}, "averageDailyFlights": 0.14, "operators": [{"name": "Garuda Indonesia", "iata": "GA", "icao": "GIA"}]}]}