{"routes": [{"destination": {"icao": "CYVO", "iata": "YVO", "name": "Val-d'Or ", "shortName": "Val-d'Or", "municipalityName": "Val-d'Or", "location": {"lat": 48.0533, "lon": -77.7828}, "countryCode": "CA"}, "averageDailyFlights": 1.57, "operators": [{"name": "Air Creebec", "iata": "YN", "icao": "CRQ"}]}, {"destination": {"icao": "CYGW", "iata": "YGW", "name": "Kuujjuarapik ", "shortName": "Kuujjuarapik", "municipalityName": "Kuujjuarapik", "location": {"lat": 55.2819, "lon": -77.7653}, "countryCode": "CA"}, "averageDailyFlights": 1.14, "operators": [{"name": "Air Creebec", "iata": "YN", "icao": "CRQ"}]}, {"destination": {"icao": "CYKQ", "iata": "YKQ", "name": "Waskaganish ", "shortName": "Waskaganish", "municipalityName": "Waskaganish", "location": {"lat": 51.4733, "lon": -78.7583}, "countryCode": "CA"}, "averageDailyFlights": 0.71, "operators": [{"name": "Air Creebec", "iata": "YN", "icao": "CRQ"}]}, {"destination": {"icao": "CZEM", "iata": "ZEM", "name": "Eastmain River ", "shortName": "Eastmain River", "municipalityName": "Eastmain River", "location": {"lat": 52.2264, "lon": -78.5225}, "countryCode": "CA"}, "averageDailyFlights": 0.57, "operators": [{"name": "Air Creebec", "iata": "YN", "icao": "CRQ"}]}, {"destination": {"icao": "CYHH", "iata": "YNS", "name": "Nemiscau ", "shortName": "Nemiscau", "municipalityName": "Nemiscau", "location": {"lat": 51.6911, "lon": -76.1356}, "countryCode": "CA"}, "averageDailyFlights": 0.29, "operators": [{"name": "Air Creebec", "iata": "YN", "icao": "CRQ"}]}, {"destination": {"name": "Montreal"}, "averageDailyFlights": 0.29, "operators": [{"name": "Air Creebec", "iata": "YN", "icao": "CRQ"}]}, {"destination": {"icao": "CYMT", "iata": "YMT", "name": "Chibougamau Chapais", "shortName": "Chapais", "municipalityName": "Chibougamau", "location": {"lat": 49.7719, "lon": -74.5281}, "countryCode": "CA"}, "averageDailyFlights": 0.14, "operators": [{"name": "Air Creebec", "iata": "YN", "icao": "CRQ"}]}]}