{"routes": [{"destination": {"icao": "CYVR", "iata": "YVR", "name": "Vancouver ", "shortName": "Vancouver", "municipalityName": "Vancouver", "location": {"lat": 49.1939, "lon": -123.184}, "countryCode": "CA"}, "averageDailyFlights": 2.36, "operators": [{"name": "Air Canada", "iata": "AC", "icao": "ACA"}, {"name": "WestJet", "iata": "WS", "icao": "WJA"}, {"name": "Pacific Coastal Airlines", "iata": "8P", "icao": "PCO"}]}, {"destination": {"icao": "CYYC", "iata": "YYC", "name": "Calgary ", "shortName": "Calgary", "municipalityName": "Calgary", "location": {"lat": 51.1139, "lon": -114.02}, "countryCode": "CA"}, "averageDailyFlights": 2.29, "operators": [{"name": "WestJet", "iata": "WS", "icao": "WJA"}]}, {"destination": {"icao": "CYEG", "iata": "YEG", "name": "Edmonton ", "shortName": "Edmonton", "municipalityName": "Edmonton", "location": {"lat": 53.3097, "lon": -113.58}, "countryCode": "CA"}, "averageDailyFlights": 0.71, "operators": [{"name": "WestJet", "iata": "WS", "icao": "WJA"}]}, {"destination": {"icao": "MMPR", "iata": "PVR", "name": "Puerto Vallarta Licenciado Gustavo D\u00edaz Ordaz", "shortName": "Licenciado Gustavo D\u00edaz Ordaz", "municipalityName": "Puerto Vallarta", "location": {"lat": 20.6801, "lon": -105.254}, "countryCode": "MX"}, "averageDailyFlights": 0.29, "operators": [{"name": "WestJet", "iata": "WS", "icao": "WJA"}]}, {"destination": {"icao": "KHOU", "iata": "HOU", "name": "Houston William P Hobby", "shortName": "William P Hobby", "municipalityName": "Houston", "location": {"lat": 29.6454, "lon": -95.2789}, "countryCode": "US"}, "averageDailyFlights": 0.14, "operators": [{"name": "NetJets Aviation", "iata": "1I", "icao": "EJA"}]}]}