{"routes": [{"destination": {"icao": "KEWR", "iata": "EWR", "name": "Newark Liberty", "shortName": "Liberty", "municipalityName": "Newark", "location": {"lat": 40.6925, "lon": -74.1687}, "countryCode": "US"}, "averageDailyFlights": 17.93, "operators": [{"name": "PTR"}, {"name": "Porter Airlines", "iata": "PD", "icao": "POE"}]}, {"destination": {"icao": "CYUL", "iata": "YUL", "name": "Montreal Trudeau", "shortName": "Trudeau", "municipalityName": "Montreal", "location": {"lat": 45.4706, "lon": -73.7408}, "countryCode": "CA"}, "averageDailyFlights": 17.71, "operators": [{"name": "PTR"}, {"name": "Air Canada", "iata": "AC", "icao": "ACA"}, {"name": "Porter Airlines", "iata": "PD", "icao": "POE"}]}, {"destination": {"icao": "CYOW", "iata": "YOW", "name": "Ottawa Macdonald-Cartier", "shortName": "Macdonald-Cartier", "municipalityName": "Ottawa", "location": {"lat": 45.3225, "lon": -75.6692}, "countryCode": "CA"}, "averageDailyFlights": 12.71, "operators": [{"name": "PTR"}, {"name": "Porter Airlines", "iata": "PD", "icao": "POE"}, {"name": "Air Canada", "iata": "AC", "icao": "ACA"}]}, {"destination": {"icao": "CYQT", "iata": "YQT", "name": "Thunder Bay ", "shortName": "Thunder Bay", "municipalityName": "Thunder Bay", "location": {"lat": 48.3719, "lon": -89.3239}, "countryCode": "CA"}, "averageDailyFlights": 7.0, "operators": [{"name": "PTR"}, {"name": "Porter Airlines", "iata": "PD", "icao": "POE"}]}, {"destination": {"icao": "KMDW", "iata": "MDW", "name": "Chicago Midway", "shortName": "Midway", "municipalityName": "Chicago", "location": {"lat": 41.786, "lon": -87.7524}, "countryCode": "US"}, "averageDailyFlights": 3.72, "operators": [{"name": "PTR"}, {"name": "Porter Airlines", "iata": "PD", "icao": "POE"}]}, {"destination": {"icao": "KBOS", "iata": "BOS", "name": "Boston General Edward Lawrence Logan", "shortName": "General Edward Lawrence Logan", "municipalityName": "Boston", "location": {"lat": 42.3643, "lon": -71.0052}, "countryCode": "US"}, "averageDailyFlights": 3.18, "operators": [{"name": "PTR"}, {"name": "Porter Airlines", "iata": "PD", "icao": "POE"}]}, {"destination": {"icao": "CYFC", "iata": "YFC", "name": "Fredericton ", "shortName": "Fredericton", "municipalityName": "Fredericton", "location": {"lat": 45.8689, "lon": -66.5372}, "countryCode": "CA"}, "averageDailyFlights": 2.43, "operators": [{"name": "PTR"}, {"name": "Porter Airlines", "iata": "PD", "icao": "POE"}]}, {"destination": {"icao": "KIAD", "iata": "IAD", "name": "District of Columbia Washington Dulles", "shortName": "Washington Dulles", "municipalityName": "District of Columbia", "location": {"lat": 38.9445, "lon": -77.4558}, "countryCode": "US"}, "averageDailyFlights": 2.29, "operators": [{"name": "PTR"}, {"name": "Porter Airlines", "iata": "PD", "icao": "POE"}]}, {"destination": {"icao": "CYQM", "iata": "YQM", "name": "Moncton Greater", "shortName": "Greater", "municipalityName": "Moncton", "location": {"lat": 46.1122, "lon": -64.6786}, "countryCode": "CA"}, "averageDailyFlights": 2.14, "operators": [{"name": "PTR"}, {"name": "Porter Airlines", "iata": "PD", "icao": "POE"}]}, {"destination": {"icao": "CYQB", "iata": "YQB", "name": "Quebec Jean Lesage", "shortName": "Jean Lesage", "municipalityName": "Quebec", "location": {"lat": 46.7911, "lon": -71.3933}, "countryCode": "CA"}, "averageDailyFlights": 2.14, "operators": [{"name": "PTR"}, {"name": "Porter Airlines", "iata": "PD", "icao": "POE"}]}, {"destination": {"icao": "CYSB", "iata": "YSB", "name": "Greater Sudbury Sudbury", "shortName": "Sudbury", "municipalityName": "Greater Sudbury", "location": {"lat": 46.625, "lon": -80.7989}, "countryCode": "CA"}, "averageDailyFlights": 2.01, "operators": [{"name": "PTR"}, {"name": "Porter Airlines", "iata": "PD", "icao": "POE"}]}, {"destination": {"icao": "CYTS", "iata": "YTS", "name": "Timmins Victor M. Power", "shortName": "Victor M. Power", "municipalityName": "Timmins", "location": {"lat": 48.5697, "lon": -81.3767}, "countryCode": "CA"}, "averageDailyFlights": 1.86, "operators": [{"name": "PTR"}, {"name": "Porter Airlines", "iata": "PD", "icao": "POE"}]}, {"destination": {"icao": "CYHZ", "iata": "YHZ", "name": "Halifax Stanfield", "shortName": "Stanfield", "municipalityName": "Halifax", "location": {"lat": 44.8808, "lon": -63.5086}, "countryCode": "CA"}, "averageDailyFlights": 1.73, "operators": [{"name": "PTR"}, {"name": "Porter Airlines", "iata": "PD", "icao": "POE"}]}, {"destination": {"icao": "CYAM", "iata": "YAM", "name": "Sault Ste Marie ", "shortName": "Sault Ste Marie", "municipalityName": "Sault Ste Marie", "location": {"lat": 46.485, "lon": -84.5094}, "countryCode": "CA"}, "averageDailyFlights": 0.86, "operators": [{"name": "PTR"}, {"name": "Porter Airlines", "iata": "PD", "icao": "POE"}]}, {"destination": {"icao": "CYQG", "iata": "YQG", "name": "Windsor ", "shortName": "Windsor", "municipalityName": "Windsor", "location": {"lat": 42.2756, "lon": -82.9556}, "countryCode": "CA"}, "averageDailyFlights": 0.74, "operators": [{"name": "PTR"}, {"name": "Porter Airlines", "iata": "PD", "icao": "POE"}]}, {"destination": {"name": "Toronto"}, "averageDailyFlights": 0.57, "operators": [{"name": "Air Canada", "iata": "AC", "icao": "ACA"}]}, {"destination": {"name": "Montr\u00e9al"}, "averageDailyFlights": 0.29, "operators": [{"name": "Porter Airlines", "iata": "PD", "icao": "POE"}]}, {"destination": {"name": "Washington-Dulles"}, "averageDailyFlights": 0.29, "operators": [{"name": "Porter Airlines", "iata": "PD", "icao": "POE"}]}, {"destination": {"icao": "KDET", "iata": "DET", "name": "Detroit Coleman A. Young Municipal", "shortName": "Coleman A. Young Municipal", "municipalityName": "Detroit", "location": {"lat": 42.4092, "lon": -83.0099}, "countryCode": "US"}, "averageDailyFlights": 0.14, "operators": [{"name": "FSY"}]}]}