{"routes": [{"destination": {"icao": "CYZV", "iata": "YZV", "name": "Sept-\u00celes ", "shortName": "Sept-\u00celes", "municipalityName": "Sept-\u00celes", "location": {"lat": 50.2233, "lon": -66.2656}, "countryCode": "CA"}, "averageDailyFlights": 1.57, "operators": [{"name": "PAL Airlines", "iata": "PB", "icao": "PVL"}]}, {"destination": {"icao": "CYYR", "iata": "YYR", "name": "Goose Bay ", "shortName": "Goose Bay", "municipalityName": "Goose Bay", "location": {"lat": 53.3192, "lon": -60.4258}, "countryCode": "CA"}, "averageDailyFlights": 1.14, "operators": [{"name": "PAL Airlines", "iata": "PB", "icao": "PVL"}]}, {"destination": {"icao": "CZUM", "iata": "ZUM", "name": "Churchill Falls ", "shortName": "Churchill Falls", "municipalityName": "Churchill Falls", "location": {"lat": 53.5619, "lon": -64.1064}, "countryCode": "CA"}, "averageDailyFlights": 0.43, "operators": [{"name": "PAL Airlines", "iata": "PB", "icao": "PVL"}]}, {"destination": {"icao": "CYYY", "iata": "YYY", "name": "Mont-Joli Mont Joli", "shortName": "Mont Joli", "municipalityName": "Mont-Joli", "location": {"lat": 48.6086, "lon": -68.2081}, "countryCode": "CA"}, "averageDailyFlights": 0.43, "operators": [{"name": "PAL Airlines", "iata": "PB", "icao": "PVL"}]}, {"destination": {"icao": "CYUL", "iata": "YUL", "name": "Montreal Trudeau", "shortName": "Trudeau", "municipalityName": "Montreal", "location": {"lat": 45.4706, "lon": -73.7408}, "countryCode": "CA"}, "averageDailyFlights": 0.14, "operators": [{"name": "PAL Airlines", "iata": "PB", "icao": "PVL"}]}, {"destination": {"name": "St. John's"}, "averageDailyFlights": 0.14, "operators": [{"name": "PAL Airlines", "iata": "PB", "icao": "PVL"}]}]}