{"routes": [{"destination": {"icao": "LFLL", "iata": "LYS", "name": "Lyon Saint-Exup\u00e9ry", "shortName": "Saint-Exup\u00e9ry", "municipalityName": "Lyon", "location": {"lat": 45.7264, "lon": 5.090829}, "countryCode": "FR"}, "averageDailyFlights": 1.57, "operators": [{"name": "Air Algerie", "iata": "AH", "icao": "DAH"}, {"name": "Volotea", "iata": "V7", "icao": "VOE"}]}, {"destination": {"icao": "LFPO", "iata": "ORY", "name": "Paris -Orly", "shortName": "-Orly", "municipalityName": "Paris", "location": {"lat": 48.7253, "lon": 2.35944}, "countryCode": "FR"}, "averageDailyFlights": 1.43, "operators": [{"name": "Air Algerie", "iata": "AH", "icao": "DAH"}, {"name": "Transavia France", "iata": "TO", "icao": "TVF"}]}, {"destination": {"icao": "DAAG", "iata": "ALG", "name": "Algiers Houari Boumediene", "shortName": "Houari Boumediene", "municipalityName": "Algiers", "location": {"lat": 36.691, "lon": 3.215409}, "countryCode": "DZ"}, "averageDailyFlights": 1.0, "operators": [{"name": "Air Algerie", "iata": "AH", "icao": "DAH"}]}, {"destination": {"icao": "LFQQ", "iata": "LIL", "name": "Lille/Lesquin Lille-Lesquin", "shortName": "Lille-Lesquin", "municipalityName": "Lille/Lesquin", "location": {"lat": 50.5619, "lon": 3.08944}, "countryCode": "FR"}, "averageDailyFlights": 0.29, "operators": [{"name": "ASL Airlines France", "iata": "5O", "icao": "FPO"}]}, {"destination": {"icao": "LFML", "iata": "MRS", "name": "Marseille Provence", "shortName": "Provence", "municipalityName": "Marseille", "location": {"lat": 43.43927, "lon": 5.221424}, "countryCode": "FR"}, "averageDailyFlights": 0.29, "operators": [{"name": "Volotea", "iata": "V7", "icao": "VOE"}]}]}