{"routes": [{"destination": {"icao": "DAAG", "iata": "ALG", "name": "Algiers Houari Boumediene", "shortName": "Houari Boumediene", "municipalityName": "Algiers", "location": {"lat": 36.691, "lon": 3.215409}, "countryCode": "DZ"}, "averageDailyFlights": 6.0, "operators": [{"name": "Air Algerie", "iata": "AH", "icao": "DAH"}, {"name": "Tassili Airlines", "iata": "SF", "icao": "DTH"}]}, {"destination": {"icao": "LFPG", "iata": "CDG", "name": "Paris Charles de Gaulle", "shortName": "Charles de Gaulle", "municipalityName": "Paris", "location": {"lat": 49.0128, "lon": 2.549999}, "countryCode": "FR"}, "averageDailyFlights": 2.71, "operators": [{"name": "Air France", "iata": "AF", "icao": "AFR"}, {"name": "Air Algerie", "iata": "AH", "icao": "DAH"}]}, {"destination": {"icao": "LFPO", "iata": "ORY", "name": "Paris -Orly", "shortName": "-Orly", "municipalityName": "Paris", "location": {"lat": 48.7253, "lon": 2.35944}, "countryCode": "FR"}, "averageDailyFlights": 2.71, "operators": [{"name": "Transavia France", "iata": "TO", "icao": "TVF"}]}, {"destination": {"icao": "LFML", "iata": "MRS", "name": "Marseille Provence", "shortName": "Provence", "municipalityName": "Marseille", "location": {"lat": 43.43927, "lon": 5.221424}, "countryCode": "FR"}, "averageDailyFlights": 2.29, "operators": [{"name": "Air Algerie", "iata": "AH", "icao": "DAH"}, {"name": "Volotea", "iata": "V7", "icao": "VOE"}]}, {"destination": {"icao": "LFLL", "iata": "LYS", "name": "Lyon Saint-Exup\u00e9ry", "shortName": "Saint-Exup\u00e9ry", "municipalityName": "Lyon", "location": {"lat": 45.7264, "lon": 5.090829}, "countryCode": "FR"}, "averageDailyFlights": 1.71, "operators": [{"name": "Transavia France", "iata": "TO", "icao": "TVF"}, {"name": "Air Algerie", "iata": "AH", "icao": "DAH"}]}, {"destination": {"icao": "LTFM", "iata": "IST", "name": "Istanbul ", "shortName": "Istanbul", "municipalityName": "Istanbul", "location": {"lat": 41.275276, "lon": 28.751944}, "countryCode": "TR"}, "averageDailyFlights": 1.57, "operators": [{"name": "Turkish Airlines", "iata": "TK", "icao": "THY"}, {"name": "Air Algerie", "iata": "AH", "icao": "DAH"}]}, {"destination": {"icao": "LFBO", "iata": "TLS", "name": "Toulouse-Blagnac ", "shortName": "Toulouse-Blagnac", "municipalityName": "Toulouse-Blagnac", "location": {"lat": 43.6291, "lon": 1.363819}, "countryCode": "FR"}, "averageDailyFlights": 1.57, "operators": [{"name": "Air Algerie", "iata": "AH", "icao": "DAH"}, {"name": "Air France", "iata": "AF", "icao": "AFR"}]}, {"destination": {"icao": "LFQQ", "iata": "LIL", "name": "Lille/Lesquin Lille-Lesquin", "shortName": "Lille-Lesquin", "municipalityName": "Lille/Lesquin", "location": {"lat": 50.5619, "lon": 3.08944}, "countryCode": "FR"}, "averageDailyFlights": 0.86, "operators": [{"name": "Air Algerie", "iata": "AH", "icao": "DAH"}, {"name": "ASL Airlines France", "iata": "5O", "icao": "FPO"}]}, {"destination": {"icao": "LFMT", "iata": "MPL", "name": "Montpellier/M\u00e9diterran\u00e9e Montpellier-M\u00e9diterran\u00e9e", "shortName": "Montpellier-M\u00e9diterran\u00e9e", "municipalityName": "Montpellier/M\u00e9diterran\u00e9e", "location": {"lat": 43.5762, "lon": 3.96301}, "countryCode": "FR"}, "averageDailyFlights": 0.86, "operators": [{"name": "Air Algerie", "iata": "AH", "icao": "DAH"}, {"name": "Transavia France", "iata": "TO", "icao": "TVF"}]}, {"destination": {"icao": "LFBD", "iata": "BOD", "name": "Bordeaux/M\u00e9rignac Bordeaux-M\u00e9rignac", "shortName": "Bordeaux-M\u00e9rignac", "municipalityName": "Bordeaux/M\u00e9rignac", "location": {"lat": 44.8283, "lon": -0.715556}, "countryCode": "FR"}, "averageDailyFlights": 0.71, "operators": [{"name": "Volotea", "iata": "V7", "icao": "VOE"}, {"name": "Air Algerie", "iata": "AH", "icao": "DAH"}]}, {"destination": {"icao": "LEBL", "iata": "BCN", "name": "Barcelona ", "shortName": "Barcelona", "municipalityName": "Barcelona", "location": {"lat": 41.2971, "lon": 2.078459}, "countryCode": "ES"}, "averageDailyFlights": 0.57, "operators": [{"name": "Vueling", "iata": "VY", "icao": "VLG"}]}, {"destination": {"icao": "DABC", "iata": "CZL", "name": "Constantine Mohamed Boudiaf", "shortName": "Mohamed Boudiaf", "municipalityName": "Constantine", "location": {"lat": 36.276, "lon": 6.620389}, "countryCode": "DZ"}, "averageDailyFlights": 0.57, "operators": [{"name": "Air Algerie", "iata": "AH", "icao": "DAH"}]}, {"destination": {"icao": "OEMA", "iata": "MED", "name": "Medina Prince Mohammad Bin Abdulaziz", "shortName": "Prince Mohammad Bin Abdulaziz", "municipalityName": "Medina", "location": {"lat": 24.5534, "lon": 39.7051}, "countryCode": "SA"}, "averageDailyFlights": 0.57, "operators": [{"name": "Air Algerie", "iata": "AH", "icao": "DAH"}, {"name": "Saudi Arabian Airlines", "iata": "SV", "icao": "SVA"}]}, {"destination": {"icao": "DAOF", "iata": "TIN", "name": "Tindouf ", "shortName": "Tindouf", "municipalityName": "Tindouf", "location": {"lat": 27.7004, "lon": -8.167099}, "countryCode": "DZ"}, "averageDailyFlights": 0.57, "operators": [{"name": "Air Algerie", "iata": "AH", "icao": "DAH"}]}, {"destination": {"icao": "DAOR", "iata": "CBH", "name": "B\u00e9char Boudghene Ben Ali Lotfi", "shortName": "Boudghene Ben Ali Lotfi", "municipalityName": "B\u00e9char", "location": {"lat": 31.6457, "lon": -2.26986}, "countryCode": "DZ"}, "averageDailyFlights": 0.43, "operators": [{"name": "Air Algerie", "iata": "AH", "icao": "DAH"}]}, {"destination": {"icao": "OEJN", "iata": "JED", "name": "Jeddah King Abdulaziz", "shortName": "King Abdulaziz", "municipalityName": "Jeddah", "location": {"lat": 21.6796, "lon": 39.1565}, "countryCode": "SA"}, "averageDailyFlights": 0.43, "operators": [{"name": "Air Algerie", "iata": "AH", "icao": "DAH"}]}, {"destination": {"icao": "LFRS", "iata": "NTE", "name": "Nantes Atlantique", "shortName": "Atlantique", "municipalityName": "Nantes", "location": {"lat": 47.1532, "lon": -1.61073}, "countryCode": "FR"}, "averageDailyFlights": 0.43, "operators": [{"name": "Transavia France", "iata": "TO", "icao": "TVF"}]}, {"destination": {"icao": "DAAT", "iata": "TMR", "name": "Tamanghasset Aguenar \u2013 Hadj Bey Akhamok", "shortName": "Aguenar \u2013 Hadj Bey Akhamok", "municipalityName": "Tamanghasset", "location": {"lat": 22.8115, "lon": 5.451079}, "countryCode": "DZ"}, "averageDailyFlights": 0.43, "operators": [{"name": "Air Algerie", "iata": "AH", "icao": "DAH"}]}, {"destination": {"icao": "DTTA", "iata": "TUN", "name": "Tunis Carthage", "shortName": "Carthage", "municipalityName": "Tunis", "location": {"lat": 36.851, "lon": 10.227199}, "countryCode": "TN"}, "averageDailyFlights": 0.43, "operators": [{"name": "Tunisair", "iata": "TU", "icao": "TAR"}]}, {"destination": {"icao": "LEAL", "iata": "ALC", "name": "Alicante ", "shortName": "Alicante", "municipalityName": "Alicante", "location": {"lat": 38.2822, "lon": -0.558156}, "countryCode": "ES"}, "averageDailyFlights": 0.29, "operators": [{"name": "Air Algerie", "iata": "AH", "icao": "DAH"}]}, {"destination": {"icao": "DABB", "iata": "AAE", "name": "Annabah Annaba", "shortName": "Annaba", "municipalityName": "Annabah", "location": {"lat": 36.8222, "lon": 7.809169}, "countryCode": "DZ"}, "averageDailyFlights": 0.29, "operators": [{"name": "Air Algerie", "iata": "AH", "icao": "DAH"}]}, {"destination": {"icao": "DAUO", "iata": "ELU", "name": "Guemar ", "shortName": "Guemar", "municipalityName": "Guemar", "location": {"lat": 33.5114, "lon": 6.77679}, "countryCode": "DZ"}, "averageDailyFlights": 0.29, "operators": [{"name": "Air Algerie", "iata": "AH", "icao": "DAH"}]}, {"destination": {"icao": "DAUH", "iata": "HME", "name": "Hassi Messaoud Oued Irara", "shortName": "Oued Irara", "municipalityName": "Hassi Messaoud", "location": {"lat": 31.673, "lon": 6.140439}, "countryCode": "DZ"}, "averageDailyFlights": 0.29, "operators": [{"name": "Air Algerie", "iata": "AH", "icao": "DAH"}]}, {"destination": {"icao": "DAUT", "iata": "TMX", "name": "Timimoun ", "shortName": "Timimoun", "municipalityName": "Timimoun", "location": {"lat": 29.2371, "lon": 0.276033}, "countryCode": "DZ"}, "averageDailyFlights": 0.29, "operators": [{"name": "Air Algerie", "iata": "AH", "icao": "DAH"}]}, {"destination": {"icao": "LFSB", "iata": "BSL", "name": "B\u00e2le/Mulhouse Euro Basel-Mulhouse-Freiburg", "shortName": "Euro Basel-Mulhouse-Freiburg", "municipalityName": "B\u00e2le/Mulhouse", "location": {"lat": 47.5896, "lon": 7.52991}, "countryCode": "FR"}, "averageDailyFlights": 0.14, "operators": [{"name": "ASL Airlines France", "iata": "5O", "icao": "FPO"}]}, {"destination": {"icao": "EBBR", "iata": "BRU", "name": "Brussels ", "shortName": "Brussels", "municipalityName": "Brussels", "location": {"lat": 50.9014, "lon": 4.484439}, "countryCode": "BE"}, "averageDailyFlights": 0.14, "operators": [{"name": "TUI Airlines Belgium", "iata": "TB", "icao": "JAF"}]}, {"destination": {"icao": "DAAJ", "iata": "DJG", "name": "Djanet Inedbirene", "shortName": "Inedbirene", "municipalityName": "Djanet", "location": {"lat": 24.2928, "lon": 9.45244}, "countryCode": "DZ"}, "averageDailyFlights": 0.14, "operators": [{"name": "Air Algerie", "iata": "AH", "icao": "DAH"}]}, {"destination": {"icao": "DAOY", "iata": "EBH", "name": "El Bayadh ", "shortName": "El Bayadh", "municipalityName": "El Bayadh", "location": {"lat": 33.721664, "lon": 1.0925}, "countryCode": "DZ"}, "averageDailyFlights": 0.14, "operators": [{"name": "Air Algerie", "iata": "AH", "icao": "DAH"}]}, {"destination": {"icao": "DAUG", "iata": "GHA", "name": "Gharda\u00efa Noum\u00e9rat - Moufdi Zakaria", "shortName": "Noum\u00e9rat - Moufdi Zakaria", "municipalityName": "Gharda\u00efa", "location": {"lat": 32.3841, "lon": 3.79411}, "countryCode": "DZ"}, "averageDailyFlights": 0.14, "operators": [{"name": "Air Algerie", "iata": "AH", "icao": "DAH"}]}, {"destination": {"icao": "DAUU", "iata": "OGX", "name": "Ouargla Ain el Beida", "shortName": "Ain el Beida", "municipalityName": "Ouargla", "location": {"lat": 31.9172, "lon": 5.412779}, "countryCode": "DZ"}, "averageDailyFlights": 0.14, "operators": [{"name": "Air Algerie", "iata": "AH", "icao": "DAH"}]}, {"destination": {"icao": "LFMP", "iata": "PGF", "name": "Perpignan/Rivesaltes Perpignan-Rivesaltes (Llaban\u00e8re)", "shortName": "Perpignan-Rivesaltes (Llaban\u00e8re)", "municipalityName": "Perpignan/Rivesaltes", "location": {"lat": 42.7404, "lon": 2.87067}, "countryCode": "FR"}, "averageDailyFlights": 0.14, "operators": [{"name": "ASL Airlines France", "iata": "5O", "icao": "FPO"}]}, {"destination": {"icao": "DAON", "iata": "TLM", "name": "Tlemcen Zenata \u2013 Messali El Hadj", "shortName": "Zenata \u2013 Messali El Hadj", "municipalityName": "Tlemcen", "location": {"lat": 35.0167, "lon": -1.45}, "countryCode": "DZ"}, "averageDailyFlights": 0.14, "operators": [{"name": "TUI Airlines Belgium", "iata": "TB", "icao": "JAF"}]}]}