{"routes": [{"destination": {"icao": "LOWI", "iata": "INN", "name": "Innsbruck ", "shortName": "Innsbruck", "municipalityName": "Innsbruck", "location": {"lat": 47.2602, "lon": 11.343999}, "countryCode": "AT"}, "averageDailyFlights": 1.86, "operators": [{"name": "Transavia", "iata": "HV", "icao": "TRA"}]}, {"destination": {"icao": "LEMG", "iata": "AGP", "name": "M\u00e1laga ", "shortName": "M\u00e1laga", "municipalityName": "M\u00e1laga", "location": {"lat": 36.6749, "lon": -4.49911}, "countryCode": "ES"}, "averageDailyFlights": 1.86, "operators": [{"name": "Transavia", "iata": "HV", "icao": "TRA"}, {"name": "GAV"}, {"name": "Granada Aviacion"}]}, {"destination": {"icao": "LEAL", "iata": "ALC", "name": "Alicante ", "shortName": "Alicante", "municipalityName": "Alicante", "location": {"lat": 38.2822, "lon": -0.558156}, "countryCode": "ES"}, "averageDailyFlights": 1.43, "operators": [{"name": "Transavia", "iata": "HV", "icao": "TRA"}]}, {"destination": {"icao": "EGLC", "iata": "LCY", "name": "London City", "shortName": "City", "municipalityName": "London", "location": {"lat": 51.5053, "lon": 0.055277}, "countryCode": "GB"}, "averageDailyFlights": 1.29, "operators": [{"name": "British Airways", "iata": "BA", "icao": "BAW"}]}, {"destination": {"icao": "LPFR", "iata": "FAO", "name": "Faro ", "shortName": "Faro", "municipalityName": "Faro", "location": {"lat": 37.0144, "lon": -7.965909}, "countryCode": "PT"}, "averageDailyFlights": 1.14, "operators": [{"name": "Transavia", "iata": "HV", "icao": "TRA"}]}, {"destination": {"icao": "LOWS", "iata": "SZG", "name": "Salzburg ", "shortName": "Salzburg", "municipalityName": "Salzburg", "location": {"lat": 47.7933, "lon": 13.0043}, "countryCode": "AT"}, "averageDailyFlights": 1.14, "operators": [{"name": "Transavia", "iata": "HV", "icao": "TRA"}]}, {"destination": {"icao": "LEBL", "iata": "BCN", "name": "Barcelona ", "shortName": "Barcelona", "municipalityName": "Barcelona", "location": {"lat": 41.2971, "lon": 2.078459}, "countryCode": "ES"}, "averageDailyFlights": 1.0, "operators": [{"name": "Transavia", "iata": "HV", "icao": "TRA"}]}, {"destination": {"icao": "LTFJ", "iata": "SAW", "name": "Istanbul Sabiha G\u00f6k\u00e7en", "shortName": "Sabiha G\u00f6k\u00e7en", "municipalityName": "Istanbul", "location": {"lat": 40.8986, "lon": 29.3092}, "countryCode": "TR"}, "averageDailyFlights": 0.86, "operators": [{"name": "Pegasus", "iata": "PC", "icao": "PGT"}]}, {"destination": {"icao": "LIME", "iata": "BGY", "name": "Bergamo Orio al Serio", "shortName": "Orio al Serio", "municipalityName": "Bergamo", "location": {"lat": 45.6739, "lon": 9.70417}, "countryCode": "IT"}, "averageDailyFlights": 0.57, "operators": [{"name": "Transavia", "iata": "HV", "icao": "TRA"}]}, {"destination": {"icao": "GCLP", "iata": "LPA", "name": "Gran Canaria Island Gran Canaria", "shortName": "Gran Canaria", "municipalityName": "Gran Canaria Island", "location": {"lat": 27.9319, "lon": -15.386599}, "countryCode": "ES"}, "averageDailyFlights": 0.57, "operators": [{"name": "Transavia", "iata": "HV", "icao": "TRA"}, {"name": "TUI Airlines Nederland (Netherlands)", "iata": "OR", "icao": "TFL"}]}, {"destination": {"icao": "LPPT", "iata": "LIS", "name": "Lisbon Portela", "shortName": "Portela", "municipalityName": "Lisbon", "location": {"lat": 38.7813, "lon": -9.135919}, "countryCode": "PT"}, "averageDailyFlights": 0.57, "operators": [{"name": "Transavia", "iata": "HV", "icao": "TRA"}]}, {"destination": {"icao": "GMTT", "iata": "TNG", "name": "Tangier Ibn Batouta", "shortName": "Ibn Batouta", "municipalityName": "Tangier", "location": {"lat": 35.7269, "lon": -5.91689}, "countryCode": "MA"}, "averageDailyFlights": 0.57, "operators": [{"name": "Transavia", "iata": "HV", "icao": "TRA"}]}, {"destination": {"icao": "GCTS", "iata": "TFS", "name": "Tenerife Island Tenerife South", "shortName": "Tenerife South", "municipalityName": "Tenerife Island", "location": {"lat": 28.0445, "lon": -16.5725}, "countryCode": "ES"}, "averageDailyFlights": 0.57, "operators": [{"name": "TUI Airlines Nederland (Netherlands)", "iata": "OR", "icao": "TFL"}, {"name": "Transavia", "iata": "HV", "icao": "TRA"}]}, {"destination": {"icao": "EGPH", "iata": "EDI", "name": "Edinburgh ", "shortName": "Edinburgh", "municipalityName": "Edinburgh", "location": {"lat": 55.95, "lon": -3.372499}, "countryCode": "GB"}, "averageDailyFlights": 0.43, "operators": [{"name": "Transavia", "iata": "HV", "icao": "TRA"}]}, {"destination": {"icao": "GCFV", "iata": "FUE", "name": "Fuerteventura Island Fuerteventura", "shortName": "Fuerteventura", "municipalityName": "Fuerteventura Island", "location": {"lat": 28.4527, "lon": -13.8638}, "countryCode": "ES"}, "averageDailyFlights": 0.43, "operators": [{"name": "TUI Airlines Nederland (Netherlands)", "iata": "OR", "icao": "TFL"}]}, {"destination": {"icao": "LTAU", "iata": "ASR", "name": "Kayseri Erkilet", "shortName": "Erkilet", "municipalityName": "Kayseri", "location": {"lat": 38.7704, "lon": 35.4954}, "countryCode": "TR"}, "averageDailyFlights": 0.43, "operators": [{"name": "Pegasus", "iata": "PC", "icao": "PGT"}, {"name": "Freebird Airlines", "iata": "FH", "icao": "FHY"}, {"name": "Sun Express", "iata": "XQ", "icao": "SXS"}]}, {"destination": {"icao": "LIRF", "iata": "FCO", "name": "Rome Leonardo da Vinci\u2013Fiumicino", "shortName": "Leonardo da Vinci\u2013Fiumicino", "municipalityName": "Rome", "location": {"lat": 41.8045, "lon": 12.2508}, "countryCode": "IT"}, "averageDailyFlights": 0.43, "operators": [{"name": "Transavia", "iata": "HV", "icao": "TRA"}]}, {"destination": {"icao": "LEVC", "iata": "VLC", "name": "Valencia ", "shortName": "Valencia", "municipalityName": "Valencia", "location": {"lat": 39.4893, "lon": -0.481624}, "countryCode": "ES"}, "averageDailyFlights": 0.43, "operators": [{"name": "Transavia", "iata": "HV", "icao": "TRA"}]}, {"destination": {"icao": "GMTA", "iata": "AHU", "name": "Al Hoceima Cherif Al Idrissi", "shortName": "Cherif Al Idrissi", "municipalityName": "Al Hoceima", "location": {"lat": 35.1771, "lon": -3.839519}, "countryCode": "MA"}, "averageDailyFlights": 0.29, "operators": [{"name": "Transavia", "iata": "HV", "icao": "TRA"}]}, {"destination": {"icao": "LFBE", "iata": "EGC", "name": "Bergerac/Roumani\u00e8re Bergerac-Roumani\u00e8re", "shortName": "Bergerac-Roumani\u00e8re", "municipalityName": "Bergerac/Roumani\u00e8re", "location": {"lat": 44.8253, "lon": 0.518611}, "countryCode": "FR"}, "averageDailyFlights": 0.29, "operators": [{"name": "Transavia", "iata": "HV", "icao": "TRA"}]}, {"destination": {"icao": "GMFF", "iata": "FEZ", "name": "Fes Sa\u00efss", "shortName": "Sa\u00efss", "municipalityName": "Fes", "location": {"lat": 33.9273, "lon": -4.97796}, "countryCode": "MA"}, "averageDailyFlights": 0.29, "operators": [{"name": "Transavia", "iata": "HV", "icao": "TRA"}]}, {"destination": {"icao": "EFKS", "iata": "KAO", "name": "Kuusamo ", "shortName": "Kuusamo", "municipalityName": "Kuusamo", "location": {"lat": 65.9876, "lon": 29.2394}, "countryCode": "FI"}, "averageDailyFlights": 0.29, "operators": [{"name": "Transavia", "iata": "HV", "icao": "TRA"}]}, {"destination": {"icao": "GMMX", "iata": "RAK", "name": "Marrakech Menara", "shortName": "Menara", "municipalityName": "Marrakech", "location": {"lat": 31.6069, "lon": -8.036299}, "countryCode": "MA"}, "averageDailyFlights": 0.29, "operators": [{"name": "TUI Airlines Belgium", "iata": "TB", "icao": "JAF"}]}, {"destination": {"icao": "GMMW", "iata": "NDR", "name": "Nador ", "shortName": "Nador", "municipalityName": "Nador", "location": {"lat": 34.9888, "lon": -3.028209}, "countryCode": "MA"}, "averageDailyFlights": 0.29, "operators": [{"name": "Transavia", "iata": "HV", "icao": "TRA"}]}, {"destination": {"icao": "GMFO", "iata": "OUD", "name": "Oujda Angads", "shortName": "Angads", "municipalityName": "Oujda", "location": {"lat": 34.7872, "lon": -1.92399}, "countryCode": "MA"}, "averageDailyFlights": 0.29, "operators": [{"name": "TUI Airlines Belgium", "iata": "TB", "icao": "JAF"}]}, {"destination": {"icao": "LSGG", "iata": "GVA", "name": "Geneva Cointrin", "shortName": "Cointrin", "municipalityName": "Geneva", "location": {"lat": 46.2381, "lon": 6.10895}, "countryCode": "CH"}, "averageDailyFlights": 0.14, "operators": [{"name": "Transavia", "iata": "HV", "icao": "TRA"}]}, {"destination": {"icao": "LFLS", "iata": "GNB", "name": "Grenoble/Saint-Geoirs Grenoble-Is\u00e8re", "shortName": "Grenoble-Is\u00e8re", "municipalityName": "Grenoble/Saint-Geoirs", "location": {"lat": 45.3629, "lon": 5.32937}, "countryCode": "FR"}, "averageDailyFlights": 0.14, "operators": [{"name": "Transavia", "iata": "HV", "icao": "TRA"}]}, {"destination": {"icao": "LTBJ", "iata": "ADB", "name": "\u0130zmir Adnan Menderes", "shortName": "Adnan Menderes", "municipalityName": "\u0130zmir", "location": {"lat": 38.2924, "lon": 27.157}, "countryCode": "TR"}, "averageDailyFlights": 0.14, "operators": [{"name": "Sun Express", "iata": "XQ", "icao": "SXS"}]}, {"destination": {"name": "Cascais"}, "averageDailyFlights": 0.14, "operators": [{"name": "Regional Jet", "iata": "EE", "icao": "EST"}]}]}