{"routes": [{"destination": {"icao": "ESSA", "iata": "ARN", "name": "Stockholm -Arlanda", "shortName": "-Arlanda", "municipalityName": "Stockholm", "location": {"lat": 59.6519, "lon": 17.9186}, "countryCode": "SE"}, "averageDailyFlights": 1.57, "operators": [{"name": "SAS", "iata": "SK", "icao": "SAS"}]}, {"destination": {"icao": "ESSB", "iata": "BMA", "name": "Stockholm -Bromma", "shortName": "-Bromma", "municipalityName": "Stockholm", "location": {"lat": 59.3544, "lon": 17.941698}, "countryCode": "SE"}, "averageDailyFlights": 0.86, "operators": [{"name": "Braathens Regional", "iata": "TF", "icao": "BRX"}]}, {"destination": {"icao": "EKCH", "iata": "CPH", "name": "Copenhagen Kastrup", "shortName": "Kastrup", "municipalityName": "Copenhagen", "location": {"lat": 55.6179, "lon": 12.656}, "countryCode": "DK"}, "averageDailyFlights": 0.29, "operators": [{"name": "SAS", "iata": "SK", "icao": "SAS"}]}, {"destination": {"icao": "EDDE", "iata": "ERF", "name": "Erfurt ", "shortName": "Erfurt", "municipalityName": "Erfurt", "location": {"lat": 50.9798, "lon": 10.9581}, "countryCode": "DE"}, "averageDailyFlights": 0.14, "operators": [{"name": "Braathens Regional", "iata": "TF", "icao": "BRX"}]}, {"destination": {"icao": "ESNU", "iata": "UME", "name": "Ume\u00e5 ", "shortName": "Ume\u00e5", "municipalityName": "Ume\u00e5", "location": {"lat": 63.7918, "lon": 20.2828}, "countryCode": "SE"}, "averageDailyFlights": 0.14, "operators": [{"name": "Joon", "iata": "JN", "icao": "JON"}]}]}