{"routes": [{"destination": {"icao": "HECA", "iata": "CAI", "name": "Cairo ", "shortName": "Cairo", "municipalityName": "Cairo", "location": {"lat": 30.1219, "lon": 31.4056}, "countryCode": "EG"}, "averageDailyFlights": 5.14, "operators": [{"name": "Nesma Airlines", "iata": "NE", "icao": "NMA"}, {"name": "EgyptAir", "iata": "MS", "icao": "MSR"}, {"name": "Air Cairo", "iata": "SM", "icao": "MSC"}]}, {"destination": {"name": "Moscow"}, "averageDailyFlights": 4.57, "operators": [{"name": "Aeroflot", "iata": "SU", "icao": "AFL"}, {"name": "Ural Airlines", "iata": "U6", "icao": "SVR"}, {"name": "AlMasria", "iata": "UJ", "icao": "LMU"}, {"name": "AZUR Air", "iata": "ZF", "icao": "KTK"}, {"name": "Air Cairo", "iata": "SM", "icao": "MSC"}, {"name": "Red Wings", "iata": "WZ", "icao": "RWZ"}]}, {"destination": {"icao": "EDDL", "iata": "DUS", "name": "Duesseldorf D\u00fcsseldorf", "shortName": "D\u00fcsseldorf", "municipalityName": "Duesseldorf", "location": {"lat": 51.2895, "lon": 6.766779}, "countryCode": "DE"}, "averageDailyFlights": 4.0, "operators": [{"name": "Air Cairo", "iata": "SM", "icao": "MSC"}, {"name": "Eurowings", "iata": "EW", "icao": "EWG"}, {"name": "Corendon Airlines Europe", "iata": "XR", "icao": "CXI"}, {"name": "Condor", "iata": "DE", "icao": "CFG"}, {"name": "TUIfly", "iata": "X3", "icao": "TUI"}]}, {"destination": {"icao": "LSZH", "iata": "ZRH", "name": "Zurich Kloten", "shortName": "Kloten", "municipalityName": "Zurich", "location": {"lat": 47.4647, "lon": 8.549169}, "countryCode": "CH"}, "averageDailyFlights": 3.68, "operators": [{"name": "Tri-MG Intra Asia Airlines", "iata": "GM", "icao": "TMG"}, {"name": "Edelweiss Air", "iata": "WK", "icao": "EDW"}, {"name": "Air Cairo", "iata": "SM", "icao": "MSC"}, {"name": "FlexFlight", "iata": "W2", "icao": "FXT"}]}, {"destination": {"name": "London"}, "averageDailyFlights": 2.86, "operators": [{"name": "easyJet", "iata": "U2", "icao": "EZY"}, {"name": "Wizz Air UK", "iata": "W9", "icao": "WUK"}]}, {"destination": {"icao": "EDDF", "iata": "FRA", "name": "Frankfurt-am-Main ", "shortName": "Frankfurt-am-Main", "municipalityName": "Frankfurt-am-Main", "location": {"lat": 50.0264, "lon": 8.543129}, "countryCode": "DE"}, "averageDailyFlights": 2.57, "operators": [{"name": "Air Cairo", "iata": "SM", "icao": "MSC"}, {"name": "Condor", "iata": "DE", "icao": "CFG"}, {"name": "TUIfly", "iata": "X3", "icao": "TUI"}, {"name": "Flight Alaska"}, {"name": "Aura Airlines"}]}, {"destination": {"icao": "EDDP", "iata": "LEJ", "name": "Leipzig Halle", "shortName": "Halle", "municipalityName": "Leipzig", "location": {"lat": 51.4324, "lon": 12.2416}, "countryCode": "DE"}, "averageDailyFlights": 2.14, "operators": [{"name": "Air Cairo", "iata": "SM", "icao": "MSC"}, {"name": "Condor", "iata": "DE", "icao": "CFG"}, {"name": "Corendon Airlines Europe", "iata": "XR", "icao": "CXI"}]}, {"destination": {"icao": "EDDM", "iata": "MUC", "name": "Munich ", "shortName": "Munich", "municipalityName": "Munich", "location": {"lat": 48.3538, "lon": 11.7861}, "countryCode": "DE"}, "averageDailyFlights": 2.14, "operators": [{"name": "Condor", "iata": "DE", "icao": "CFG"}, {"name": "Air Cairo", "iata": "SM", "icao": "MSC"}, {"name": "TUIfly", "iata": "X3", "icao": "TUI"}]}, {"destination": {"icao": "EDDH", "iata": "HAM", "name": "Hamburg ", "shortName": "Hamburg", "municipalityName": "Hamburg", "location": {"lat": 53.6304, "lon": 9.988229}, "countryCode": "DE"}, "averageDailyFlights": 2.04, "operators": [{"name": "Condor", "iata": "DE", "icao": "CFG"}, {"name": "Eurowings", "iata": "EW", "icao": "EWG"}, {"name": "Air Cairo", "iata": "SM", "icao": "MSC"}, {"name": "Corendon Airlines Europe", "iata": "XR", "icao": "CXI"}]}, {"destination": {"icao": "EDDN", "iata": "NUE", "name": "Nuremberg ", "shortName": "Nuremberg", "municipalityName": "Nuremberg", "location": {"lat": 49.4987, "lon": 11.0669}, "countryCode": "DE"}, "averageDailyFlights": 2.0, "operators": [{"name": "Norwegian Air UK"}, {"name": "Air Cairo", "iata": "SM", "icao": "MSC"}, {"name": "Corendon Airlines Europe", "iata": "XR", "icao": "CXI"}, {"name": "Eurowings", "iata": "EW", "icao": "EWG"}]}, {"destination": {"icao": "EDDS", "iata": "STR", "name": "Stuttgart ", "shortName": "Stuttgart", "municipalityName": "Stuttgart", "location": {"lat": 48.6899, "lon": 9.22196}, "countryCode": "DE"}, "averageDailyFlights": 1.92, "operators": [{"name": "Eurowings", "iata": "EW", "icao": "EWG"}, {"name": "Air Cairo", "iata": "SM", "icao": "MSC"}, {"name": "Norwegian Air UK"}, {"name": "TUIfly", "iata": "X3", "icao": "TUI"}, {"name": "Corendon Airlines Europe", "iata": "XR", "icao": "CXI"}]}, {"destination": {"icao": "EDDB", "iata": "BER", "name": "Berlin Brandenburg", "shortName": "Brandenburg", "municipalityName": "Berlin", "location": {"lat": 52.35139, "lon": 13.493889}, "countryCode": "DE"}, "averageDailyFlights": 1.86, "operators": [{"name": "SundAir", "iata": "SR", "icao": "SDR"}, {"name": "Air Cairo", "iata": "SM", "icao": "MSC"}, {"name": "easyJet", "iata": "U2", "icao": "EZY"}, {"name": "Eurowings", "iata": "EW", "icao": "EWG"}, {"name": "Corendon Airlines Europe", "iata": "XR", "icao": "CXI"}]}, {"destination": {"icao": "EBBR", "iata": "BRU", "name": "Brussels ", "shortName": "Brussels", "municipalityName": "Brussels", "location": {"lat": 50.9014, "lon": 4.484439}, "countryCode": "BE"}, "averageDailyFlights": 1.86, "operators": [{"name": "Brussels Airlines", "iata": "SN", "icao": "BEL"}, {"name": "TUI Airlines Belgium", "iata": "TB", "icao": "JAF"}]}, {"destination": {"icao": "EDDV", "iata": "HAJ", "name": "Hanover Hannover", "shortName": "Hannover", "municipalityName": "Hanover", "location": {"lat": 52.4611, "lon": 9.685079}, "countryCode": "DE"}, "averageDailyFlights": 1.86, "operators": [{"name": "Corendon Airlines Europe", "iata": "XR", "icao": "CXI"}, {"name": "TUIfly", "iata": "X3", "icao": "TUI"}, {"name": "Air Cairo", "iata": "SM", "icao": "MSC"}, {"name": "Eurowings", "iata": "EW", "icao": "EWG"}]}, {"destination": {"icao": "EHAM", "iata": "AMS", "name": "Amsterdam Schiphol", "shortName": "Schiphol", "municipalityName": "Amsterdam", "location": {"lat": 52.3086, "lon": 4.763889}, "countryCode": "NL"}, "averageDailyFlights": 1.71, "operators": [{"name": "Transavia", "iata": "HV", "icao": "TRA"}, {"name": "Corendon Dutch Airlines", "iata": "CD", "icao": "CND"}, {"name": "easyJet", "iata": "U2", "icao": "EZY"}, {"name": "TUI Airlines Nederland (Netherlands)", "iata": "OR", "icao": "TFL"}]}, {"destination": {"icao": "EDDK", "iata": "CGN", "name": "Cologne Bonn", "shortName": "Bonn", "municipalityName": "Cologne", "location": {"lat": 50.8659, "lon": 7.142739}, "countryCode": "DE"}, "averageDailyFlights": 1.71, "operators": [{"name": "Eurowings", "iata": "EW", "icao": "EWG"}, {"name": "Air Cairo", "iata": "SM", "icao": "MSC"}, {"name": "Corendon Airlines Europe", "iata": "XR", "icao": "CXI"}]}, {"destination": {"icao": "LTFJ", "iata": "SAW", "name": "Istanbul Sabiha G\u00f6k\u00e7en", "shortName": "Sabiha G\u00f6k\u00e7en", "municipalityName": "Istanbul", "location": {"lat": 40.8986, "lon": 29.3092}, "countryCode": "TR"}, "averageDailyFlights": 1.59, "operators": [{"name": "Pegasus", "iata": "PC", "icao": "PGT"}, {"name": "Turkish Airlines", "iata": "TK", "icao": "THY"}]}, {"destination": {"icao": "EGCC", "iata": "MAN", "name": "Manchester ", "shortName": "Manchester", "municipalityName": "Manchester", "location": {"lat": 53.3537, "lon": -2.27495}, "countryCode": "GB"}, "averageDailyFlights": 1.14, "operators": [{"name": "easyJet", "iata": "U2", "icao": "EZY"}]}, {"destination": {"icao": "LKPR", "iata": "PRG", "name": "Prague Ruzyn\u011b", "shortName": "Ruzyn\u011b", "municipalityName": "Prague", "location": {"lat": 50.1008, "lon": 14.26}, "countryCode": "CZ"}, "averageDailyFlights": 1.14, "operators": [{"name": "SmartWings", "iata": "QS", "icao": "TVS"}, {"name": "Air Cairo", "iata": "SM", "icao": "MSC"}]}, {"destination": {"icao": "ULLI", "iata": "LED", "localCode": "\u041f\u041b\u041a", "name": "Saint-Petersburg Pulkovo", "shortName": "Pulkovo", "municipalityName": "Saint-Petersburg", "location": {"lat": 59.8003, "lon": 30.2625}, "countryCode": "RU"}, "averageDailyFlights": 1.07, "operators": [{"name": "Air Cairo", "iata": "SM", "icao": "MSC"}, {"name": "AlMasria", "iata": "UJ", "icao": "LMU"}, {"name": "Aeroflot", "iata": "SU", "icao": "AFL"}]}, {"destination": {"icao": "LIMC", "iata": "MXP", "name": "Milan Malpensa", "shortName": "Malpensa", "municipalityName": "Milan", "location": {"lat": 45.6306, "lon": 8.72811}, "countryCode": "IT"}, "averageDailyFlights": 1.0, "operators": [{"name": "easyJet", "iata": "U2", "icao": "EZY"}, {"name": "Wizz Air Malta", "iata": "W4", "icao": "WMT"}]}, {"destination": {"icao": "URSS", "iata": "AER", "localCode": "\u0421\u041e\u0427", "name": "Sochi ", "shortName": "Sochi", "municipalityName": "Sochi", "location": {"lat": 43.4499, "lon": 39.9566}, "countryCode": "RU"}, "averageDailyFlights": 0.86, "operators": [{"name": "Rossiya Airlines", "iata": "FV", "icao": "SDM"}, {"name": "Red Wings", "iata": "WZ", "icao": "RWZ"}]}, {"destination": {"icao": "LTAI", "iata": "AYT", "name": "Antalya ", "shortName": "Antalya", "municipalityName": "Antalya", "location": {"lat": 36.8987, "lon": 30.8005}, "countryCode": "TR"}, "averageDailyFlights": 0.71, "operators": [{"name": "Pegasus", "iata": "PC", "icao": "PGT"}]}, {"destination": {"icao": "LHBP", "iata": "BUD", "name": "Budapest Ferenc Liszt", "shortName": "Ferenc Liszt", "municipalityName": "Budapest", "location": {"lat": 47.4369, "lon": 19.255598}, "countryCode": "HU"}, "averageDailyFlights": 0.71, "operators": [{"name": "Wizz Air", "iata": "W6", "icao": "WZZ"}, {"name": "Air Cairo", "iata": "SM", "icao": "MSC"}]}, {"destination": {"icao": "LSGG", "iata": "GVA", "name": "Geneva Cointrin", "shortName": "Cointrin", "municipalityName": "Geneva", "location": {"lat": 46.2381, "lon": 6.10895}, "countryCode": "CH"}, "averageDailyFlights": 0.71, "operators": [{"name": "SWISS", "iata": "LX", "icao": "SWR"}, {"name": "easyJet", "iata": "U2", "icao": "EZY"}]}, {"destination": {"icao": "LOWS", "iata": "SZG", "name": "Salzburg ", "shortName": "Salzburg", "municipalityName": "Salzburg", "location": {"lat": 47.7933, "lon": 13.0043}, "countryCode": "AT"}, "averageDailyFlights": 0.71, "operators": [{"name": "Eurowings", "iata": "EW", "icao": "EWG"}]}, {"destination": {"icao": "LFSB", "iata": "BSL", "name": "B\u00e2le/Mulhouse Euro Basel-Mulhouse-Freiburg", "shortName": "Euro Basel-Mulhouse-Freiburg", "municipalityName": "B\u00e2le/Mulhouse", "location": {"lat": 47.5896, "lon": 7.52991}, "countryCode": "FR"}, "averageDailyFlights": 0.57, "operators": [{"name": "Air Cairo", "iata": "SM", "icao": "MSC"}, {"name": "easyJet", "iata": "U2", "icao": "EZY"}]}, {"destination": {"icao": "EDDC", "iata": "DRS", "name": "Dresden ", "shortName": "Dresden", "municipalityName": "Dresden", "location": {"lat": 51.1328, "lon": 13.7672}, "countryCode": "DE"}, "averageDailyFlights": 0.57, "operators": [{"name": "SundAir", "iata": "SR", "icao": "SDR"}]}, {"destination": {"icao": "LFPO", "iata": "ORY", "name": "Paris -Orly", "shortName": "-Orly", "municipalityName": "Paris", "location": {"lat": 48.7253, "lon": 2.35944}, "countryCode": "FR"}, "averageDailyFlights": 0.57, "operators": [{"name": "Transavia France", "iata": "TO", "icao": "TVF"}]}, {"destination": {"icao": "USSS", "iata": "SVX", "localCode": "\u041a\u041b\u0426", "name": "Ekaterinburg Koltsovo", "shortName": "Koltsovo", "municipalityName": "Ekaterinburg", "location": {"lat": 56.7431, "lon": 60.8027}, "countryCode": "RU"}, "averageDailyFlights": 0.54, "operators": [{"name": "Air Cairo", "iata": "SM", "icao": "MSC"}, {"name": "Red Wings", "iata": "WZ", "icao": "RWZ"}, {"name": "Ural Airlines", "iata": "U6", "icao": "SVR"}, {"name": "AZUR Air", "iata": "ZF", "icao": "KTK"}]}, {"destination": {"icao": "EGGD", "iata": "BRS", "name": "Bristol ", "shortName": "Bristol", "municipalityName": "Bristol", "location": {"lat": 51.3827, "lon": -2.719089}, "countryCode": "GB"}, "averageDailyFlights": 0.43, "operators": [{"name": "easyJet", "iata": "U2", "icao": "EZY"}]}, {"destination": {"icao": "LHDC", "iata": "DEB", "name": "Debrecen ", "shortName": "Debrecen", "municipalityName": "Debrecen", "location": {"lat": 47.4889, "lon": 21.6153}, "countryCode": "HU"}, "averageDailyFlights": 0.43, "operators": [{"name": "Wizz Air", "iata": "W6", "icao": "WZZ"}]}, {"destination": {"icao": "EGGP", "iata": "LPL", "name": "Liverpool John Lennon", "shortName": "John Lennon", "municipalityName": "Liverpool", "location": {"lat": 53.3336, "lon": -2.84972}, "countryCode": "GB"}, "averageDailyFlights": 0.43, "operators": [{"name": "easyJet", "iata": "U2", "icao": "EZY"}]}, {"destination": {"icao": "ELLX", "iata": "LUX", "name": "Luxembourg -Findel", "shortName": "-Findel", "municipalityName": "Luxembourg", "location": {"lat": 49.6266, "lon": 6.21152}, "countryCode": "LU"}, "averageDailyFlights": 0.43, "operators": [{"name": "Luxair", "iata": "LG", "icao": "LGL"}]}, {"destination": {"icao": "LIRF", "iata": "FCO", "name": "Rome Leonardo da Vinci\u2013Fiumicino", "shortName": "Leonardo da Vinci\u2013Fiumicino", "municipalityName": "Rome", "location": {"lat": 41.8045, "lon": 12.2508}, "countryCode": "IT"}, "averageDailyFlights": 0.43, "operators": [{"name": "Wizz Air Malta", "iata": "W4", "icao": "WMT"}]}, {"destination": {"icao": "HESH", "iata": "SSH", "name": "Sharm el Sheikh ", "shortName": "Sharm el Sheikh", "municipalityName": "Sharm el Sheikh", "location": {"lat": 27.9773, "lon": 34.395}, "countryCode": "EG"}, "averageDailyFlights": 0.43, "operators": [{"name": "Air Cairo", "iata": "SM", "icao": "MSC"}]}, {"destination": {"name": "Bazel"}, "averageDailyFlights": 0.43, "operators": [{"name": "Corendon Airlines Europe", "iata": "XR", "icao": "CXI"}]}, {"destination": {"name": "Minsk"}, "averageDailyFlights": 0.43, "operators": [{"name": "Belavia", "iata": "B2", "icao": "BRU"}]}, {"destination": {"icao": "LBSF", "iata": "SOF", "name": "Sofia ", "shortName": "Sofia", "municipalityName": "Sofia", "location": {"lat": 42.696693, "lon": 23.411436}, "countryCode": "BG"}, "averageDailyFlights": 0.36, "operators": [{"name": "Aura Airlines"}, {"name": "Bulgaria Air", "iata": "FB", "icao": "LZB"}, {"name": "Corendon Airlines Europe", "iata": "XR", "icao": "CXI"}]}, {"destination": {"icao": "LOWG", "iata": "GRZ", "name": "Graz ", "shortName": "Graz", "municipalityName": "Graz", "location": {"lat": 46.9911, "lon": 15.439599}, "countryCode": "AT"}, "averageDailyFlights": 0.33, "operators": [{"name": "Eurowings", "iata": "EW", "icao": "EWG"}, {"name": "Corendon Airlines Europe", "iata": "XR", "icao": "CXI"}]}, {"destination": {"icao": "UWKD", "iata": "KZN", "name": "Kazan ", "shortName": "Kazan", "municipalityName": "Kazan", "location": {"lat": 55.6062, "lon": 49.2787}, "countryCode": "RU"}, "averageDailyFlights": 0.32, "operators": [{"name": "Red Wings", "iata": "WZ", "icao": "RWZ"}, {"name": "Ural Airlines", "iata": "U6", "icao": "SVR"}]}, {"destination": {"icao": "EKAH", "iata": "AAR", "name": "Aarhus ", "shortName": "Aarhus", "municipalityName": "Aarhus", "location": {"lat": 56.3, "lon": 10.619}, "countryCode": "DK"}, "averageDailyFlights": 0.29, "operators": [{"name": "Air Cairo", "iata": "SM", "icao": "MSC"}]}, {"destination": {"icao": "EGAA", "iata": "BFS", "name": "Belfast ", "shortName": "Belfast", "municipalityName": "Belfast", "location": {"lat": 54.6575, "lon": -6.215829}, "countryCode": "GB"}, "averageDailyFlights": 0.29, "operators": [{"name": "easyJet", "iata": "U2", "icao": "EZY"}]}, {"destination": {"icao": "EDDW", "iata": "BRE", "name": "Bremen ", "shortName": "Bremen", "municipalityName": "Bremen", "location": {"lat": 53.0475, "lon": 8.786669}, "countryCode": "DE"}, "averageDailyFlights": 0.29, "operators": [{"name": "SundAir", "iata": "SR", "icao": "SDR"}]}, {"destination": {"icao": "EGPH", "iata": "EDI", "name": "Edinburgh ", "shortName": "Edinburgh", "municipalityName": "Edinburgh", "location": {"lat": 55.95, "lon": -3.372499}, "countryCode": "GB"}, "averageDailyFlights": 0.29, "operators": [{"name": "easyJet", "iata": "U2", "icao": "EZY"}]}, {"destination": {"icao": "EGPF", "iata": "GLA", "name": "Glasgow ", "shortName": "Glasgow", "municipalityName": "Glasgow", "location": {"lat": 55.8719, "lon": -4.43306}, "countryCode": "GB"}, "averageDailyFlights": 0.29, "operators": [{"name": "easyJet", "iata": "U2", "icao": "EZY"}]}, {"destination": {"icao": "LOWL", "iata": "LNZ", "name": "Linz ", "shortName": "Linz", "municipalityName": "Linz", "location": {"lat": 48.2332, "lon": 14.1875}, "countryCode": "AT"}, "averageDailyFlights": 0.29, "operators": [{"name": "Corendon Airlines Europe", "iata": "XR", "icao": "CXI"}]}, {"destination": {"icao": "EDDG", "iata": "FMO", "name": "M\u00fcnster Osnabr\u00fcck", "shortName": "Osnabr\u00fcck", "municipalityName": "M\u00fcnster", "location": {"lat": 52.1346, "lon": 7.68483}, "countryCode": "DE"}, "averageDailyFlights": 0.29, "operators": [{"name": "Corendon Airlines Europe", "iata": "XR", "icao": "CXI"}]}, {"destination": {"icao": "LIRN", "iata": "NAP", "name": "N\u00e1poli Naples", "shortName": "Naples", "municipalityName": "N\u00e1poli", "location": {"lat": 40.886, "lon": 14.2908}, "countryCode": "IT"}, "averageDailyFlights": 0.29, "operators": [{"name": "easyJet", "iata": "U2", "icao": "EZY"}]}, {"destination": {"icao": "EYVI", "iata": "VNO", "localCode": "\u0412\u0418\u041b", "name": "Vilnius ", "shortName": "Vilnius", "municipalityName": "Vilnius", "location": {"lat": 54.6341, "lon": 25.2858}, "countryCode": "LT"}, "averageDailyFlights": 0.29, "operators": [{"name": "Aura Airlines"}, {"name": "JSC Avion Express", "iata": "X9", "icao": "NVD"}]}, {"destination": {"name": "Vienna"}, "averageDailyFlights": 0.29, "operators": [{"name": "Air Cairo", "iata": "SM", "icao": "MSC"}, {"name": "Corendon Airlines Europe", "iata": "XR", "icao": "CXI"}]}, {"destination": {"icao": "LYBE", "iata": "BEG", "name": "Belgrade Nikola Tesla", "shortName": "Nikola Tesla", "municipalityName": "Belgrade", "location": {"lat": 44.8184, "lon": 20.3091}, "countryCode": "RS"}, "averageDailyFlights": 0.14, "operators": [{"name": "Air Cairo", "iata": "SM", "icao": "MSC"}]}, {"destination": {"icao": "LZIB", "iata": "BTS", "name": "Bratislava M. R. \u0160tef\u00e1nik", "shortName": "M. R. \u0160tef\u00e1nik", "municipalityName": "Bratislava", "location": {"lat": 48.1702, "lon": 17.2127}, "countryCode": "SK"}, "averageDailyFlights": 0.14, "operators": [{"name": "Air Cairo", "iata": "SM", "icao": "MSC"}]}, {"destination": {"icao": "EDDE", "iata": "ERF", "name": "Erfurt ", "shortName": "Erfurt", "municipalityName": "Erfurt", "location": {"lat": 50.9798, "lon": 10.9581}, "countryCode": "DE"}, "averageDailyFlights": 0.14, "operators": [{"name": "Corendon Airlines Europe", "iata": "XR", "icao": "CXI"}]}, {"destination": {"icao": "EDNY", "iata": "FDH", "name": "Friedrichshafen ", "shortName": "Friedrichshafen", "municipalityName": "Friedrichshafen", "location": {"lat": 47.6713, "lon": 9.511489}, "countryCode": "DE"}, "averageDailyFlights": 0.14, "operators": [{"name": "Corendon Airlines Europe", "iata": "XR", "icao": "CXI"}]}, {"destination": {"icao": "EDVK", "iata": "KSF", "name": "Kassel -Calden", "shortName": "-Calden", "municipalityName": "Kassel", "location": {"lat": 51.408333, "lon": 9.377499}, "countryCode": "DE"}, "averageDailyFlights": 0.14, "operators": [{"name": "SundAir", "iata": "SR", "icao": "SDR"}]}, {"destination": {"icao": "LFLL", "iata": "LYS", "name": "Lyon Saint-Exup\u00e9ry", "shortName": "Saint-Exup\u00e9ry", "municipalityName": "Lyon", "location": {"lat": 45.7264, "lon": 5.090829}, "countryCode": "FR"}, "averageDailyFlights": 0.14, "operators": [{"name": "Transavia France", "iata": "TO", "icao": "TVF"}]}, {"destination": {"icao": "HEMA", "iata": "RMF", "name": "Marsa Alam ", "shortName": "Marsa Alam", "municipalityName": "Marsa Alam", "location": {"lat": 25.5571, "lon": 34.5837}, "countryCode": "EG"}, "averageDailyFlights": 0.14, "operators": [{"name": "Air Cairo", "iata": "SM", "icao": "MSC"}]}, {"destination": {"icao": "URMM", "iata": "MRV", "localCode": "\u041c\u0420\u0412", "name": "Mineralnyye Vody ", "shortName": "Mineralnyye Vody", "municipalityName": "Mineralnyye Vody", "location": {"lat": 44.2251, "lon": 43.0819}, "countryCode": "RU"}, "averageDailyFlights": 0.14, "operators": [{"name": "Red Wings", "iata": "WZ", "icao": "RWZ"}]}, {"destination": {"icao": "LFRS", "iata": "NTE", "name": "Nantes Atlantique", "shortName": "Atlantique", "municipalityName": "Nantes", "location": {"lat": 47.1532, "lon": -1.61073}, "countryCode": "FR"}, "averageDailyFlights": 0.14, "operators": [{"name": "Transavia France", "iata": "TO", "icao": "TVF"}]}, {"destination": {"icao": "UNNT", "iata": "OVB", "localCode": "\u0422\u041b\u0427", "name": "Novosibirsk Tolmachevo", "shortName": "Tolmachevo", "municipalityName": "Novosibirsk", "location": {"lat": 55.0126, "lon": 82.6507}, "countryCode": "RU"}, "averageDailyFlights": 0.14, "operators": [{"name": "AZUR Air", "iata": "ZF", "icao": "KTK"}]}, {"destination": {"icao": "USPP", "iata": "PEE", "localCode": "\u041f\u0420\u042c", "name": "Perm Bolshoye Savino", "shortName": "Bolshoye Savino", "municipalityName": "Perm", "location": {"lat": 57.9145, "lon": 56.0212}, "countryCode": "RU"}, "averageDailyFlights": 0.14, "operators": [{"name": "AZUR Air", "iata": "ZF", "icao": "KTK"}]}, {"destination": {"icao": "EVRA", "iata": "RIX", "localCode": "\u0420\u0418\u0425", "name": "Riga ", "shortName": "Riga", "municipalityName": "Riga", "location": {"lat": 56.9236, "lon": 23.9711}, "countryCode": "LV"}, "averageDailyFlights": 0.14, "operators": [{"name": "Aura Airlines"}]}, {"destination": {"icao": "EPRZ", "iata": "RZE", "name": "Rzesz\u00f3w -Jasionka", "shortName": "-Jasionka", "municipalityName": "Rzesz\u00f3w", "location": {"lat": 50.11, "lon": 22.019}, "countryCode": "PL"}, "averageDailyFlights": 0.14, "operators": [{"name": "Aura Airlines"}]}, {"destination": {"icao": "EDDR", "iata": "SCN", "name": "Saarbr\u00fccken ", "shortName": "Saarbr\u00fccken", "municipalityName": "Saarbr\u00fccken", "location": {"lat": 49.2146, "lon": 7.109509}, "countryCode": "DE"}, "averageDailyFlights": 0.14, "operators": [{"name": "TUIfly", "iata": "X3", "icao": "TUI"}]}, {"destination": {"icao": "EETN", "iata": "TLL", "localCode": "TLL", "name": "Tallinn Lennart Meri", "shortName": "Lennart Meri", "municipalityName": "Tallinn", "location": {"lat": 59.4133, "lon": 24.8328}, "countryCode": "EE"}, "averageDailyFlights": 0.14, "operators": [{"name": "Aura Airlines"}]}, {"destination": {"icao": "LBWN", "iata": "VAR", "name": "Varna ", "shortName": "Varna", "municipalityName": "Varna", "location": {"lat": 43.2321, "lon": 27.8251}, "countryCode": "BG"}, "averageDailyFlights": 0.14, "operators": [{"name": "Aura Airlines"}]}, {"destination": {"name": "Bucharest"}, "averageDailyFlights": 0.14, "operators": [{"name": "Aura Airlines"}]}, {"destination": {"name": "Ufa"}, "averageDailyFlights": 0.14, "operators": [{"name": "AZUR Air", "iata": "ZF", "icao": "KTK"}]}, {"destination": {"name": "Zhukovsky"}, "averageDailyFlights": 0.14, "operators": [{"name": "Red Wings", "iata": "WZ", "icao": "RWZ"}]}]}