{"routes": [{"destination": {"icao": "KDEN", "iata": "DEN", "name": "Denver ", "shortName": "Denver", "municipalityName": "Denver", "location": {"lat": 39.8617, "lon": -104.673}, "countryCode": "US"}, "averageDailyFlights": 2.14, "operators": [{"name": "United Airlines", "iata": "UA", "icao": "UAL"}]}, {"destination": {"icao": "KAPA", "iata": "APA", "name": "Denver Centennial", "shortName": "Centennial", "municipalityName": "Denver", "location": {"lat": 39.5701, "lon": -104.849}, "countryCode": "US"}, "averageDailyFlights": 1.29, "operators": [{"name": "Libyan Airlines", "iata": "LN", "icao": "LAA"}, {"name": "IJA"}]}, {"destination": {"icao": "KBIL", "iata": "BIL", "name": "Billings Metropolitan Area Billings Logan", "shortName": "Billings Logan", "municipalityName": "Billings Metropolitan Area", "location": {"lat": 45.8077, "lon": -108.543}, "countryCode": "US"}, "averageDailyFlights": 1.14, "operators": [{"name": "Libyan Airlines", "iata": "LN", "icao": "LAA"}, {"name": "Alpine Air Express", "iata": "5A", "icao": "AIP"}]}, {"destination": {"icao": "KRAP", "iata": "RAP", "name": "Rapid City Regional", "shortName": "Regional", "municipalityName": "Rapid City", "location": {"lat": 44.0453, "lon": -103.057}, "countryCode": "US"}, "averageDailyFlights": 0.71, "operators": [{"name": "Libyan Airlines", "iata": "LN", "icao": "LAA"}]}, {"destination": {"icao": "KGXY", "iata": "GXY", "name": "Greeley \u2013Weld County", "shortName": "\u2013Weld County", "municipalityName": "Greeley", "location": {"lat": 40.4374, "lon": -104.633}, "countryCode": "US"}, "averageDailyFlights": 0.29, "operators": [{"name": "Libyan Airlines", "iata": "LN", "icao": "LAA"}]}, {"destination": {"icao": "KRIW", "iata": "RIW", "name": "Riverton Regional", "shortName": "Regional", "municipalityName": "Riverton", "location": {"lat": 43.0642, "lon": -108.46}, "countryCode": "US"}, "averageDailyFlights": 0.29, "operators": [{"name": "Libyan Airlines", "iata": "LN", "icao": "LAA"}]}, {"destination": {"icao": "KRKS", "iata": "RKS", "name": "Rock Springs Sweetwater County", "shortName": "Sweetwater County", "municipalityName": "Rock Springs", "location": {"lat": 41.5942, "lon": -109.065}, "countryCode": "US"}, "averageDailyFlights": 0.29, "operators": [{"name": "LXJ"}, {"name": "Libyan Airlines", "iata": "LN", "icao": "LAA"}]}, {"destination": {"icao": "KSLC", "iata": "SLC", "name": "Salt Lake City ", "shortName": "Salt Lake City", "municipalityName": "Salt Lake City", "location": {"lat": 40.7884, "lon": -111.978}, "countryCode": "US"}, "averageDailyFlights": 0.29, "operators": [{"name": "SkyWest Airlines", "iata": "OO", "icao": "SKW"}]}, {"destination": {"icao": "KCPR", "iata": "CPR", "name": "Casper -Natrona County", "shortName": "-Natrona County", "municipalityName": "Casper", "location": {"lat": 42.908, "lon": -106.464}, "countryCode": "US"}, "averageDailyFlights": 0.14, "operators": [{"name": "Libyan Airlines", "iata": "LN", "icao": "LAA"}]}, {"destination": {"icao": "KCYS", "iata": "CYS", "name": "Cheyenne Regional Jerry Olson Field", "shortName": "Regional Jerry Olson Field", "municipalityName": "Cheyenne", "location": {"lat": 41.1557, "lon": -104.812}, "countryCode": "US"}, "averageDailyFlights": 0.14, "operators": [{"name": "Libyan Airlines", "iata": "LN", "icao": "LAA"}]}, {"destination": {"icao": "KCOD", "iata": "COD", "name": "Cody Yellowstone Regional", "shortName": "Yellowstone Regional", "municipalityName": "Cody", "location": {"lat": 44.5202, "lon": -109.024}, "countryCode": "US"}, "averageDailyFlights": 0.14, "operators": [{"name": "Libyan Airlines", "iata": "LN", "icao": "LAA"}]}, {"destination": {"icao": "KLND", "iata": "LND", "name": "Lander Hunt Field", "shortName": "Hunt Field", "municipalityName": "Lander", "location": {"lat": 42.8152, "lon": -108.73}, "countryCode": "US"}, "averageDailyFlights": 0.14, "operators": [{"name": "Libyan Airlines", "iata": "LN", "icao": "LAA"}]}, {"destination": {"icao": "KTRK", "iata": "TKF", "name": "Truckee Tahoe", "shortName": "Tahoe", "municipalityName": "Truckee", "location": {"lat": 39.32, "lon": -120.14}, "countryCode": "US"}, "averageDailyFlights": 0.14, "operators": [{"name": "PXT"}]}]}