{"routes": [{"destination": {"icao": "KPBI", "iata": "PBI", "name": "West Palm Beach Palm Beach", "shortName": "Palm Beach", "municipalityName": "West Palm Beach", "location": {"lat": 26.6832, "lon": -80.0956}, "countryCode": "US"}, "averageDailyFlights": 14.0, "operators": [{"name": "LAK"}, {"name": "WDY"}, {"name": "JRE"}, {"name": "JKR"}, {"name": "KPO"}, {"name": "VJA"}, {"name": "JetBlue Airways", "iata": "B6", "icao": "JBU"}, {"name": "NetJets Aviation", "iata": "1I", "icao": "EJA"}, {"name": "Delta Air Lines", "iata": "DL", "icao": "DAL"}, {"name": "TFF"}, {"name": "EJM"}, {"name": "XOJ"}, {"name": "Contour Aviation", "iata": "LF", "icao": "VTE"}, {"name": "FTH"}, {"name": "LXJ"}, {"name": "VNT"}]}, {"destination": {"icao": "KFLL", "iata": "FLL", "name": "Fort Lauderdale Hollywood", "shortName": "Hollywood", "municipalityName": "Fort Lauderdale", "location": {"lat": 26.0726, "lon": -80.1527}, "countryCode": "US"}, "averageDailyFlights": 5.29, "operators": [{"name": "LXJ"}, {"name": "JetBlue Airways", "iata": "B6", "icao": "JBU"}, {"name": "Contour Aviation", "iata": "LF", "icao": "VTE"}, {"name": "BMA"}, {"name": "WUP"}]}, {"destination": {"icao": "KTEB", "iata": "TEB", "name": "Teterboro ", "shortName": "Teterboro", "municipalityName": "Teterboro", "location": {"lat": 40.8501, "lon": -74.0608}, "countryCode": "US"}, "averageDailyFlights": 5.14, "operators": [{"name": "JTZ"}, {"name": "LXJ"}, {"name": "VJA"}, {"name": "KOW"}, {"name": "NEW"}, {"name": "JRE"}, {"name": "NetJets Aviation", "iata": "1I", "icao": "EJA"}, {"name": "Tradewind Aviation", "iata": "TJ", "icao": "GPD"}, {"name": "Jet Linx Aviation", "iata": "JL", "icao": "JTL"}, {"name": "EDG"}, {"name": "PGN"}, {"name": "NJE"}, {"name": "EJM"}, {"name": "WWI"}, {"name": "FTH"}]}, {"destination": {"icao": "KMCO", "iata": "MCO", "name": "Orlando ", "shortName": "Orlando", "municipalityName": "Orlando", "location": {"lat": 28.4294, "lon": -81.309}, "countryCode": "US"}, "averageDailyFlights": 4.71, "operators": [{"name": "JetBlue Airways", "iata": "B6", "icao": "JBU"}, {"name": "Delta Air Lines", "iata": "DL", "icao": "DAL"}, {"name": "NetJets Aviation", "iata": "1I", "icao": "EJA"}]}, {"destination": {"icao": "KCLT", "iata": "CLT", "name": "Charlotte Douglas", "shortName": "Douglas", "municipalityName": "Charlotte", "location": {"lat": 35.214, "lon": -80.9431}, "countryCode": "US"}, "averageDailyFlights": 4.43, "operators": [{"name": "American Airlines", "iata": "AA", "icao": "AAL"}, {"name": "LXJ"}, {"name": "NetJets Aviation", "iata": "1I", "icao": "EJA"}]}, {"destination": {"icao": "KDCA", "iata": "DCA", "name": "District of Columbia Ronald Reagan Washington National", "shortName": "Ronald Reagan Washington National", "municipalityName": "District of Columbia", "location": {"lat": 38.8521, "lon": -77.0377}, "countryCode": "US"}, "averageDailyFlights": 4.0, "operators": [{"name": "American Airlines", "iata": "AA", "icao": "AAL"}]}, {"destination": {"icao": "KATL", "iata": "ATL", "name": "Atlanta Hartsfield Jackson", "shortName": "Hartsfield Jackson", "municipalityName": "Atlanta", "location": {"lat": 33.6367, "lon": -84.4281}, "countryCode": "US"}, "averageDailyFlights": 3.86, "operators": [{"name": "Delta Air Lines", "iata": "DL", "icao": "DAL"}]}, {"destination": {"icao": "KORD", "iata": "ORD", "name": "Chicago O'Hare", "shortName": "O'Hare", "municipalityName": "Chicago", "location": {"lat": 41.9786, "lon": -87.9048}, "countryCode": "US"}, "averageDailyFlights": 3.43, "operators": [{"name": "Envoy Air", "iata": "MQ", "icao": "ENY"}, {"name": "American Airlines", "iata": "AA", "icao": "AAL"}]}, {"destination": {"icao": "TXKF", "iata": "BDA", "name": "Hamilton L.F. Wade", "shortName": "L.F. Wade", "municipalityName": "Hamilton", "location": {"lat": 32.364, "lon": -64.6787}, "countryCode": "BM"}, "averageDailyFlights": 2.71, "operators": [{"name": "BMA"}]}, {"destination": {"icao": "KVRB", "iata": "VRB", "name": "Vero Beach Municipal", "shortName": "Municipal", "municipalityName": "Vero Beach", "location": {"lat": 27.6556, "lon": -80.4179}, "countryCode": "US"}, "averageDailyFlights": 2.71, "operators": [{"name": "NetJets Aviation", "iata": "1I", "icao": "EJA"}, {"name": "Breeze Airways", "iata": "MX", "icao": "MXY"}, {"name": "JRE"}, {"name": "SLH"}]}, {"destination": {"icao": "KBED", "iata": "BED", "name": "Bedford Laurence G Hanscom Field", "shortName": "Laurence G Hanscom Field", "municipalityName": "Bedford", "location": {"lat": 42.47, "lon": -71.289}, "countryCode": "US"}, "averageDailyFlights": 2.43, "operators": [{"name": "RNI"}, {"name": "CYC"}, {"name": "GXA"}, {"name": "NGF"}, {"name": "LXJ"}, {"name": "NetJets Aviation", "iata": "1I", "icao": "EJA"}, {"name": "FTD"}, {"name": "TIV"}, {"name": "Tradewind Aviation", "iata": "TJ", "icao": "GPD"}, {"name": "HER"}, {"name": "VJT"}]}, {"destination": {"icao": "KDTW", "iata": "DTW", "name": "Detroit Metropolitan Wayne County", "shortName": "Metropolitan Wayne County", "municipalityName": "Detroit", "location": {"lat": 42.2124, "lon": -83.3534}, "countryCode": "US"}, "averageDailyFlights": 2.43, "operators": [{"name": "Delta Air Lines", "iata": "DL", "icao": "DAL"}]}, {"destination": {"icao": "KLEB", "iata": "LEB", "name": "Lebanon Municipal", "shortName": "Municipal", "municipalityName": "Lebanon", "location": {"lat": 43.6261, "lon": -72.3042}, "countryCode": "US"}, "averageDailyFlights": 2.43, "operators": [{"name": "Cape Air", "iata": "9K", "icao": "KAP"}, {"name": "NetJets Aviation", "iata": "1I", "icao": "EJA"}]}, {"destination": {"icao": "KMIA", "iata": "MIA", "name": "Miami ", "shortName": "Miami", "municipalityName": "Miami", "location": {"lat": 25.7932, "lon": -80.2906}, "countryCode": "US"}, "averageDailyFlights": 2.42, "operators": [{"name": "GXA"}, {"name": "Envoy Air", "iata": "MQ", "icao": "ENY"}, {"name": "VJA"}, {"name": "NetJets Aviation", "iata": "1I", "icao": "EJA"}, {"name": "EJM"}, {"name": "LXJ"}, {"name": "TFF"}, {"name": "XFL"}, {"name": "American Airlines", "iata": "AA", "icao": "AAL"}]}, {"destination": {"icao": "KBCT", "iata": "BCT", "name": "Boca Raton ", "shortName": "Boca Raton", "municipalityName": "Boca Raton", "location": {"lat": 26.378498, "lon": -80.1077}, "countryCode": "US"}, "averageDailyFlights": 2.0, "operators": [{"name": "EJM"}, {"name": "JSX Air", "iata": "XE", "icao": "JSX"}, {"name": "NetJets Aviation", "iata": "1I", "icao": "EJA"}, {"name": "XFL"}, {"name": "VJA"}, {"name": "LXJ"}, {"name": "LAK"}]}, {"destination": {"icao": "KIAD", "iata": "IAD", "name": "District of Columbia Washington Dulles", "shortName": "Washington Dulles", "municipalityName": "District of Columbia", "location": {"lat": 38.9445, "lon": -77.4558}, "countryCode": "US"}, "averageDailyFlights": 1.86, "operators": [{"name": "Tradewind Aviation", "iata": "TJ", "icao": "GPD"}, {"name": "LXJ"}, {"name": "VJT"}, {"name": "NetJets Aviation", "iata": "1I", "icao": "EJA"}, {"name": "RDN"}, {"name": "Jet Linx Aviation", "iata": "JL", "icao": "JTL"}, {"name": "CJE"}, {"name": "EJM"}]}, {"destination": {"icao": "MYNN", "iata": "NAS", "name": "Nassau Lynden Pindling", "shortName": "Lynden Pindling", "municipalityName": "Nassau", "location": {"lat": 25.039, "lon": -77.4662}, "countryCode": "BS"}, "averageDailyFlights": 1.86, "operators": [{"name": "VJA"}, {"name": "WDY"}, {"name": "LXJ"}, {"name": "NJE"}, {"name": "JRE"}, {"name": "VJT"}, {"name": "Jet Linx Aviation", "iata": "JL", "icao": "JTL"}]}, {"destination": {"icao": "KBNA", "iata": "BNA", "name": "Nashville ", "shortName": "Nashville", "municipalityName": "Nashville", "location": {"lat": 36.1245, "lon": -86.6782}, "countryCode": "US"}, "averageDailyFlights": 1.71, "operators": [{"name": "JSX Air", "iata": "XE", "icao": "JSX"}]}, {"destination": {"icao": "KTPA", "iata": "TPA", "name": "Tampa ", "shortName": "Tampa", "municipalityName": "Tampa", "location": {"lat": 27.9755, "lon": -82.5332}, "countryCode": "US"}, "averageDailyFlights": 1.71, "operators": [{"name": "JetBlue Airways", "iata": "B6", "icao": "JBU"}, {"name": "NetJets Aviation", "iata": "1I", "icao": "EJA"}, {"name": "WUP"}]}, {"destination": {"icao": "KAPF", "iata": "APF", "name": "Naples Municipal", "shortName": "Municipal", "municipalityName": "Naples", "location": {"lat": 26.1526, "lon": -81.7753}, "countryCode": "US"}, "averageDailyFlights": 1.57, "operators": [{"name": "TFF"}, {"name": "LXJ"}, {"name": "NetJets Aviation", "iata": "1I", "icao": "EJA"}, {"name": "KOW"}, {"name": "EJM"}]}, {"destination": {"icao": "KRSW", "iata": "RSW", "name": "Fort Myers Southwest Florida", "shortName": "Southwest Florida", "municipalityName": "Fort Myers", "location": {"lat": 26.5362, "lon": -81.7552}, "countryCode": "US"}, "averageDailyFlights": 1.43, "operators": [{"name": "JetBlue Airways", "iata": "B6", "icao": "JBU"}, {"name": "LXJ"}]}, {"destination": {"icao": "KPHL", "iata": "PHL", "name": "Philadelphia ", "shortName": "Philadelphia", "municipalityName": "Philadelphia", "location": {"lat": 39.8719, "lon": -75.2411}, "countryCode": "US"}, "averageDailyFlights": 1.29, "operators": [{"name": "KPO"}, {"name": "LXJ"}, {"name": "Delta Air Lines", "iata": "DL", "icao": "DAL"}, {"name": "Ultimate Air Shuttle", "iata": "UE", "icao": "UJC"}, {"name": "VJA"}, {"name": "NetJets Aviation", "iata": "1I", "icao": "EJA"}]}, {"destination": {"icao": "KCHS", "iata": "CHS", "name": "Charleston Air Force Base-", "shortName": "Air Force Base-", "municipalityName": "Charleston", "location": {"lat": 32.8986, "lon": -80.0405}, "countryCode": "US"}, "averageDailyFlights": 1.14, "operators": [{"name": "EJM"}, {"name": "DCM"}, {"name": "NetJets Aviation", "iata": "1I", "icao": "EJA"}, {"name": "Breeze Airways", "iata": "MX", "icao": "MXY"}, {"name": "LXJ"}]}, {"destination": {"icao": "KSWF", "iata": "SWF", "name": "Newburgh Stewart", "shortName": "Stewart", "municipalityName": "Newburgh", "location": {"lat": 41.5041, "lon": -74.1048}, "countryCode": "US"}, "averageDailyFlights": 1.14, "operators": [{"name": "TWY"}, {"name": "PRE"}, {"name": "KPO"}, {"name": "JAS"}]}, {"destination": {"icao": "KFRG", "iata": "FRG", "name": "Farmingdale Republic", "shortName": "Republic", "municipalityName": "Farmingdale", "location": {"lat": 40.7288, "lon": -73.4134}, "countryCode": "US"}, "averageDailyFlights": 1.0, "operators": [{"name": "TFF"}, {"name": "NetJets Aviation", "iata": "1I", "icao": "EJA"}, {"name": "XEN"}, {"name": "JKR"}]}, {"destination": {"icao": "MBPV", "iata": "PLS", "name": "Providenciales Island Providenciales", "shortName": "Providenciales", "municipalityName": "Providenciales Island", "location": {"lat": 21.7736, "lon": -72.2659}, "countryCode": "TC"}, "averageDailyFlights": 1.0, "operators": [{"name": "VJT"}, {"name": "FJO"}, {"name": "VJA"}, {"name": "LXJ"}]}, {"destination": {"icao": "KRKD", "iata": "RKD", "name": "Rockland Knox County Regional", "shortName": "Knox County Regional", "municipalityName": "Rockland", "location": {"lat": 44.0601, "lon": -69.0992}, "countryCode": "US"}, "averageDailyFlights": 1.0, "operators": [{"name": "VNT"}, {"name": "TWY"}, {"name": "CYC"}]}, {"destination": {"icao": "KASE", "iata": "ASE", "name": "Aspen Sardy Field", "shortName": "Sardy Field", "municipalityName": "Aspen", "location": {"lat": 39.2232, "lon": -106.869}, "countryCode": "US"}, "averageDailyFlights": 0.86, "operators": [{"name": "LXJ"}, {"name": "NetJets Aviation", "iata": "1I", "icao": "EJA"}, {"name": "VJA"}, {"name": "PRE"}]}, {"destination": {"icao": "KBWI", "iata": "BWI", "name": "Baltimore Washington  Thurgood Marshall", "shortName": "Washington  Thurgood Marshall", "municipalityName": "Baltimore", "location": {"lat": 39.1754, "lon": -76.6683}, "countryCode": "US"}, "averageDailyFlights": 0.86, "operators": [{"name": "CNS"}, {"name": "NetJets Aviation", "iata": "1I", "icao": "EJA"}, {"name": "VJA"}]}, {"destination": {"icao": "KCMH", "iata": "CMH", "name": "Columbus Port", "shortName": "Port", "municipalityName": "Columbus", "location": {"lat": 39.998, "lon": -82.8919}, "countryCode": "US"}, "averageDailyFlights": 0.86, "operators": [{"name": "NetJets Aviation", "iata": "1I", "icao": "EJA"}]}, {"destination": {"icao": "KSUA", "iata": "SUA", "name": "Stuart Witham Field", "shortName": "Witham Field", "municipalityName": "Stuart", "location": {"lat": 27.1817, "lon": -80.2211}, "countryCode": "US"}, "averageDailyFlights": 0.86, "operators": [{"name": "NetJets Aviation", "iata": "1I", "icao": "EJA"}, {"name": "LXJ"}]}, {"destination": {"icao": "KSYR", "iata": "SYR", "name": "Syracuse Hancock", "shortName": "Hancock", "municipalityName": "Syracuse", "location": {"lat": 43.1112, "lon": -76.1063}, "countryCode": "US"}, "averageDailyFlights": 0.86, "operators": [{"name": "CYC"}, {"name": "NetJets Aviation", "iata": "1I", "icao": "EJA"}, {"name": "LXJ"}]}, {"destination": {"icao": "KBOS", "iata": "BOS", "name": "Boston General Edward Lawrence Logan", "shortName": "General Edward Lawrence Logan", "municipalityName": "Boston", "location": {"lat": 42.3643, "lon": -71.0052}, "countryCode": "US"}, "averageDailyFlights": 0.71, "operators": [{"name": "NetJets Aviation", "iata": "1I", "icao": "EJA"}, {"name": "JRE"}, {"name": "LXJ"}, {"name": "EJM"}]}, {"destination": {"icao": "KBZN", "iata": "BZN", "name": "Bozeman Gallatin Field", "shortName": "Gallatin Field", "municipalityName": "Bozeman", "location": {"lat": 45.7775, "lon": -111.153}, "countryCode": "US"}, "averageDailyFlights": 0.71, "operators": [{"name": "TWY"}, {"name": "GJE"}, {"name": "NetJets Aviation", "iata": "1I", "icao": "EJA"}, {"name": "LXJ"}]}, {"destination": {"icao": "KEGE", "iata": "EGE", "name": "Eagle County Regional", "shortName": "County Regional", "municipalityName": "Eagle", "location": {"lat": 39.6426, "lon": -106.918}, "countryCode": "US"}, "averageDailyFlights": 0.71, "operators": [{"name": "EDG"}, {"name": "IJA"}, {"name": "ACW"}, {"name": "LXJ"}]}, {"destination": {"icao": "KHOU", "iata": "HOU", "name": "Houston William P Hobby", "shortName": "William P Hobby", "municipalityName": "Houston", "location": {"lat": 29.6454, "lon": -95.2789}, "countryCode": "US"}, "averageDailyFlights": 0.71, "operators": [{"name": "VJA"}, {"name": "XFL"}, {"name": "NetJets Aviation", "iata": "1I", "icao": "EJA"}, {"name": "EDG"}]}, {"destination": {"icao": "KLBE", "iata": "LBE", "name": "Latrobe Arnold Palmer Regional", "shortName": "Arnold Palmer Regional", "municipalityName": "Latrobe", "location": {"lat": 40.2759, "lon": -79.4048}, "countryCode": "US"}, "averageDailyFlights": 0.71, "operators": [{"name": "NEW"}, {"name": "LJY"}, {"name": "Tradewind Aviation", "iata": "TJ", "icao": "GPD"}]}, {"destination": {"icao": "MYAM", "iata": "MHH", "name": "Marsh Harbour ", "shortName": "Marsh Harbour", "municipalityName": "Marsh Harbour", "location": {"lat": 26.5114, "lon": -77.0835}, "countryCode": "BS"}, "averageDailyFlights": 0.71, "operators": [{"name": "LAK"}, {"name": "EDG"}, {"name": "Jet Linx Aviation", "iata": "JL", "icao": "JTL"}, {"name": "VJA"}]}, {"destination": {"icao": "KMMU", "iata": "MMU", "name": "Morristown Municipal", "shortName": "Municipal", "municipalityName": "Morristown", "location": {"lat": 40.7994, "lon": -74.4149}, "countryCode": "US"}, "averageDailyFlights": 0.71, "operators": [{"name": "LXJ"}, {"name": "NJE"}, {"name": "NetJets Aviation", "iata": "1I", "icao": "EJA"}]}, {"destination": {"icao": "MYEH", "iata": "ELH", "name": "North Eleuthera ", "shortName": "North Eleuthera", "municipalityName": "North Eleuthera", "location": {"lat": 25.4749, "lon": -76.6835}, "countryCode": "BS"}, "averageDailyFlights": 0.71, "operators": [{"name": "VJA"}, {"name": "PGN"}, {"name": "LXJ"}]}, {"destination": {"icao": "KOCF", "iata": "OCF", "name": "Ocala - Jim Taylor Field", "shortName": "- Jim Taylor Field", "municipalityName": "Ocala", "location": {"lat": 29.1726, "lon": -82.2242}, "countryCode": "US"}, "averageDailyFlights": 0.71, "operators": [{"name": "DCM"}]}, {"destination": {"icao": "TNCM", "iata": "SXM", "name": "Saint Martin Princess Juliana", "shortName": "Princess Juliana", "municipalityName": "Saint Martin", "location": {"lat": 18.041, "lon": -63.1089}, "countryCode": "SX"}, "averageDailyFlights": 0.71, "operators": [{"name": "LXJ"}]}, {"destination": {"icao": "KSRQ", "iata": "SRQ", "name": "Sarasota/Bradenton Sarasota Bradenton", "shortName": "Sarasota Bradenton", "municipalityName": "Sarasota/Bradenton", "location": {"lat": 27.3954, "lon": -82.5544}, "countryCode": "US"}, "averageDailyFlights": 0.71, "operators": [{"name": "EJM"}, {"name": "CNS"}, {"name": "LXJ"}, {"name": "LAK"}]}, {"destination": {"icao": "KBTV", "iata": "BTV", "name": "Burlington ", "shortName": "Burlington", "municipalityName": "Burlington", "location": {"lat": 44.4719, "lon": -73.1533}, "countryCode": "US"}, "averageDailyFlights": 0.57, "operators": [{"name": "EJM"}, {"name": "LXJ"}, {"name": "Tradewind Aviation", "iata": "TJ", "icao": "GPD"}]}, {"destination": {"icao": "KJAX", "iata": "JAX", "name": "Jacksonville ", "shortName": "Jacksonville", "municipalityName": "Jacksonville", "location": {"lat": 30.4941, "lon": -81.6879}, "countryCode": "US"}, "averageDailyFlights": 0.57, "operators": [{"name": "RNI"}, {"name": "EDG"}]}, {"destination": {"icao": "KJFK", "iata": "JFK", "name": "New York John F Kennedy", "shortName": "John F Kennedy", "municipalityName": "New York", "location": {"lat": 40.6398, "lon": -73.7789}, "countryCode": "US"}, "averageDailyFlights": 0.57, "operators": [{"name": "NetJets Aviation", "iata": "1I", "icao": "EJA"}, {"name": "Tradewind Aviation", "iata": "TJ", "icao": "GPD"}, {"name": "CNS"}]}, {"destination": {"icao": "TJSJ", "iata": "SJU", "name": "San Juan Luis Munoz Marin", "shortName": "Luis Munoz Marin", "municipalityName": "San Juan", "location": {"lat": 18.4394, "lon": -66.0018}, "countryCode": "PR"}, "averageDailyFlights": 0.57, "operators": [{"name": "LXJ"}, {"name": "EJM"}, {"name": "WWI"}]}, {"destination": {"icao": "KABE", "iata": "ABE", "name": "Allentown Lehigh Valley", "shortName": "Lehigh Valley", "municipalityName": "Allentown", "location": {"lat": 40.6521, "lon": -75.4408}, "countryCode": "US"}, "averageDailyFlights": 0.43, "operators": [{"name": "GJE"}]}, {"destination": {"icao": "KACY", "iata": "ACY", "name": "Atlantic City ", "shortName": "Atlantic City", "municipalityName": "Atlantic City", "location": {"lat": 39.4576, "lon": -74.5772}, "countryCode": "US"}, "averageDailyFlights": 0.43, "operators": [{"name": "JRE"}, {"name": "LAK"}]}, {"destination": {"icao": "KBHB", "iata": "BHB", "name": "Bar Harbor Hancock County-", "shortName": "Hancock County-", "municipalityName": "Bar Harbor", "location": {"lat": 44.45, "lon": -68.3615}, "countryCode": "US"}, "averageDailyFlights": 0.43, "operators": [{"name": "NetJets Aviation", "iata": "1I", "icao": "EJA"}, {"name": "OKC"}]}, {"destination": {"icao": "KBLM", "iata": "BLM", "name": "Belmar/Farmingdale Monmouth Executive", "shortName": "Monmouth Executive", "municipalityName": "Belmar/Farmingdale", "location": {"lat": 40.1869, "lon": -74.1249}, "countryCode": "US"}, "averageDailyFlights": 0.43, "operators": [{"name": "JRE"}, {"name": "VJA"}, {"name": "NetJets Aviation", "iata": "1I", "icao": "EJA"}]}, {"destination": {"icao": "KCLE", "iata": "CLE", "name": "Cleveland Hopkins", "shortName": "Hopkins", "municipalityName": "Cleveland", "location": {"lat": 41.4117, "lon": -81.8498}, "countryCode": "US"}, "averageDailyFlights": 0.43, "operators": [{"name": "Delta Air Lines", "iata": "DL", "icao": "DAL"}, {"name": "NetJets Aviation", "iata": "1I", "icao": "EJA"}, {"name": "LXJ"}]}, {"destination": {"icao": "KAPA", "iata": "APA", "name": "Denver Centennial", "shortName": "Centennial", "municipalityName": "Denver", "location": {"lat": 39.5701, "lon": -104.849}, "countryCode": "US"}, "averageDailyFlights": 0.43, "operators": [{"name": "LXJ"}, {"name": "IJA"}]}, {"destination": {"icao": "KDTS", "iata": "DSI", "name": "Destin Fort Walton Beach", "shortName": "Fort Walton Beach", "municipalityName": "Destin", "location": {"lat": 30.4001, "lon": -86.4715}, "countryCode": "US"}, "averageDailyFlights": 0.43, "operators": [{"name": "JRE"}]}, {"destination": {"icao": "KFMY", "iata": "FMY", "name": "Fort Myers Page Field", "shortName": "Page Field", "municipalityName": "Fort Myers", "location": {"lat": 26.5866, "lon": -81.8633}, "countryCode": "US"}, "averageDailyFlights": 0.43, "operators": [{"name": "NetJets Aviation", "iata": "1I", "icao": "EJA"}]}, {"destination": {"icao": "KFPR", "iata": "FPR", "name": "Ft. Pierce St Lucie County", "shortName": "St Lucie County", "municipalityName": "Ft. Pierce", "location": {"lat": 27.4951, "lon": -80.3683}, "countryCode": "US"}, "averageDailyFlights": 0.43, "operators": [{"name": "BUY"}]}, {"destination": {"icao": "CYKF", "iata": "YKF", "name": "Kitchener Waterloo", "shortName": "Waterloo", "municipalityName": "Kitchener", "location": {"lat": 43.4608, "lon": -80.3786}, "countryCode": "CA"}, "averageDailyFlights": 0.43, "operators": [{"name": "VNT"}]}, {"destination": {"icao": "KMVY", "iata": "MVY", "name": "Martha's Vineyard ", "shortName": "Martha's Vineyard", "municipalityName": "Martha's Vineyard", "location": {"lat": 41.3931, "lon": -70.6143}, "countryCode": "US"}, "averageDailyFlights": 0.43, "operators": [{"name": "Tradewind Aviation", "iata": "TJ", "icao": "GPD"}, {"name": "CNS"}]}, {"destination": {"icao": "CYUL", "iata": "YUL", "name": "Montreal Trudeau", "shortName": "Trudeau", "municipalityName": "Montreal", "location": {"lat": 45.4706, "lon": -73.7408}, "countryCode": "CA"}, "averageDailyFlights": 0.43, "operators": [{"name": "VJA"}, {"name": "LXJ"}, {"name": "Delta Air Lines", "iata": "DL", "icao": "DAL"}]}, {"destination": {"icao": "CYOW", "iata": "YOW", "name": "Ottawa Macdonald-Cartier", "shortName": "Macdonald-Cartier", "municipalityName": "Ottawa", "location": {"lat": 45.3225, "lon": -75.6692}, "countryCode": "CA"}, "averageDailyFlights": 0.43, "operators": [{"name": "NetJets Aviation", "iata": "1I", "icao": "EJA"}, {"name": "Tradewind Aviation", "iata": "TJ", "icao": "GPD"}]}, {"destination": {"icao": "KRDU", "iata": "RDU", "name": "Raleigh/Durham Raleigh Durham", "shortName": "Raleigh Durham", "municipalityName": "Raleigh/Durham", "location": {"lat": 35.8776, "lon": -78.7875}, "countryCode": "US"}, "averageDailyFlights": 0.43, "operators": [{"name": "NetJets Aviation", "iata": "1I", "icao": "EJA"}, {"name": "Tradewind Aviation", "iata": "TJ", "icao": "GPD"}, {"name": "TWY"}]}, {"destination": {"icao": "CYYZ", "iata": "YYZ", "name": "Toronto Pearson", "shortName": "Pearson", "municipalityName": "Toronto", "location": {"lat": 43.6772, "lon": -79.6306}, "countryCode": "CA"}, "averageDailyFlights": 0.43, "operators": [{"name": "SYB"}, {"name": "TOR"}]}, {"destination": {"icao": "KICT", "iata": "ICT", "name": "Wichita Mid Continent", "shortName": "Mid Continent", "municipalityName": "Wichita", "location": {"lat": 37.6499, "lon": -97.4331}, "countryCode": "US"}, "averageDailyFlights": 0.43, "operators": [{"name": "NetJets Aviation", "iata": "1I", "icao": "EJA"}]}, {"destination": {"icao": "KORH", "iata": "ORH", "name": "Worcester Regional", "shortName": "Regional", "municipalityName": "Worcester", "location": {"lat": 42.2673, "lon": -71.8757}, "countryCode": "US"}, "averageDailyFlights": 0.43, "operators": [{"name": "Libyan Airlines", "iata": "LN", "icao": "LAA"}, {"name": "Nordwind Airlines", "iata": "N4", "icao": "NWS"}]}, {"destination": {"icao": "KALB", "iata": "ALB", "name": "Albany ", "shortName": "Albany", "municipalityName": "Albany", "location": {"lat": 42.7483, "lon": -73.8017}, "countryCode": "US"}, "averageDailyFlights": 0.29, "operators": [{"name": "WUP"}, {"name": "Tradewind Aviation", "iata": "TJ", "icao": "GPD"}]}, {"destination": {"icao": "TVSA", "iata": "SVD", "name": "Argyle ", "shortName": "Argyle", "municipalityName": "Argyle", "location": {"lat": 13.156389, "lon": -61.150276}, "countryCode": "VC"}, "averageDailyFlights": 0.29, "operators": [{"name": "VJT"}]}, {"destination": {"icao": "KPDK", "iata": "PDK", "name": "Atlanta DeKalb Peachtree", "shortName": "DeKalb Peachtree", "municipalityName": "Atlanta", "location": {"lat": 33.8756, "lon": -84.302}, "countryCode": "US"}, "averageDailyFlights": 0.29, "operators": [{"name": "NetJets Aviation", "iata": "1I", "icao": "EJA"}, {"name": "PJC"}]}, {"destination": {"icao": "TKPK", "iata": "SKB", "name": "Basseterre Robert L. Bradshaw", "shortName": "Robert L. Bradshaw", "municipalityName": "Basseterre", "location": {"lat": 17.3112, "lon": -62.7187}, "countryCode": "KN"}, "averageDailyFlights": 0.29, "operators": [{"name": "TFF"}, {"name": "JKR"}]}, {"destination": {"icao": "TBPB", "iata": "BGI", "name": "Bridgetown Sir Grantley Adams", "shortName": "Sir Grantley Adams", "municipalityName": "Bridgetown", "location": {"lat": 13.0746, "lon": -59.4925}, "countryCode": "BB"}, "averageDailyFlights": 0.29, "operators": [{"name": "VJA"}, {"name": "LXJ"}]}, {"destination": {"icao": "KBUF", "iata": "BUF", "name": "Buffalo Niagara", "shortName": "Niagara", "municipalityName": "Buffalo", "location": {"lat": 42.9405, "lon": -78.7322}, "countryCode": "US"}, "averageDailyFlights": 0.29, "operators": [{"name": "JRE"}]}, {"destination": {"icao": "KCRQ", "iata": "CLD", "name": "Carlsbad Mc Clellan-Palomar", "shortName": "Mc Clellan-Palomar", "municipalityName": "Carlsbad", "location": {"lat": 33.1283, "lon": -117.28}, "countryCode": "US"}, "averageDailyFlights": 0.29, "operators": [{"name": "VJA"}]}, {"destination": {"icao": "TLPC", "iata": "SLU", "name": "Castries George F. L. Charles", "shortName": "George F. L. Charles", "municipalityName": "Castries", "location": {"lat": 14.0202, "lon": -60.9929}, "countryCode": "LC"}, "averageDailyFlights": 0.29, "operators": [{"name": "KOW"}]}, {"destination": {"icao": "KCMI", "iata": "CMI", "name": "Champaign/Urbana University of Illinois Willard", "shortName": "University of Illinois Willard", "municipalityName": "Champaign/Urbana", "location": {"lat": 40.0392, "lon": -88.2781}, "countryCode": "US"}, "averageDailyFlights": 0.29, "operators": [{"name": "FSR"}]}, {"destination": {"icao": "KMDW", "iata": "MDW", "name": "Chicago Midway", "shortName": "Midway", "municipalityName": "Chicago", "location": {"lat": 41.786, "lon": -87.7524}, "countryCode": "US"}, "averageDailyFlights": 0.29, "operators": [{"name": "NetJets Aviation", "iata": "1I", "icao": "EJA"}]}, {"destination": {"icao": "KLUK", "iata": "LUK", "name": "Cincinnati Municipal  Lunken Field", "shortName": "Municipal  Lunken Field", "municipalityName": "Cincinnati", "location": {"lat": 39.1033, "lon": -84.4186}, "countryCode": "US"}, "averageDailyFlights": 0.29, "operators": [{"name": "TFF"}, {"name": "NetJets Aviation", "iata": "1I", "icao": "EJA"}]}, {"destination": {"icao": "KMQS", "iata": "CTH", "name": "Coatesville Chester County G O Carlson", "shortName": "Chester County G O Carlson", "municipalityName": "Coatesville", "location": {"lat": 39.979, "lon": -75.8655}, "countryCode": "US"}, "averageDailyFlights": 0.29, "operators": [{"name": "NetJets Aviation", "iata": "1I", "icao": "EJA"}, {"name": "LAK"}]}, {"destination": {"icao": "KFXE", "iata": "FXE", "name": "Fort Lauderdale Executive", "shortName": "Executive", "municipalityName": "Fort Lauderdale", "location": {"lat": 26.197298, "lon": -80.1707}, "countryCode": "US"}, "averageDailyFlights": 0.29, "operators": [{"name": "HPJ"}, {"name": "NetJets Aviation", "iata": "1I", "icao": "EJA"}]}, {"destination": {"icao": "KGYY", "iata": "GYY", "name": "Gary Chicago", "shortName": "Chicago", "municipalityName": "Gary", "location": {"lat": 41.6163, "lon": -87.4128}, "countryCode": "US"}, "averageDailyFlights": 0.29, "operators": [{"name": "RDN"}]}, {"destination": {"icao": "LEGR", "iata": "GRX", "name": "Granada Federico Garcia Lorca", "shortName": "Federico Garcia Lorca", "municipalityName": "Granada", "location": {"lat": 37.1887, "lon": -3.777359}, "countryCode": "ES"}, "averageDailyFlights": 0.29, "operators": [{"name": "TWY"}]}, {"destination": {"icao": "KHYA", "iata": "HYA", "name": "Hyannis Barnstable Municipal Boardman Polando Field", "shortName": "Barnstable Municipal Boardman Polando Field", "municipalityName": "Hyannis", "location": {"lat": 41.6693, "lon": -70.2804}, "countryCode": "US"}, "averageDailyFlights": 0.29, "operators": [{"name": "HPJ"}, {"name": "Cape Air", "iata": "9K", "icao": "KAP"}]}, {"destination": {"icao": "KIND", "iata": "IND", "name": "Indianapolis ", "shortName": "Indianapolis", "municipalityName": "Indianapolis", "location": {"lat": 39.7173, "lon": -86.2944}, "countryCode": "US"}, "averageDailyFlights": 0.29, "operators": [{"name": "Delta Air Lines", "iata": "DL", "icao": "DAL"}, {"name": "VNT"}]}, {"destination": {"icao": "KISP", "iata": "ISP", "name": "Islip Long Island Mac Arthur", "shortName": "Long Island Mac Arthur", "municipalityName": "Islip", "location": {"lat": 40.7952, "lon": -73.1002}, "countryCode": "US"}, "averageDailyFlights": 0.29, "operators": [{"name": "XFL"}, {"name": "NetJets Aviation", "iata": "1I", "icao": "EJA"}]}, {"destination": {"icao": "KJAC", "iata": "JAC", "name": "Jackson Hole", "shortName": "Hole", "municipalityName": "Jackson", "location": {"lat": 43.6073, "lon": -110.738}, "countryCode": "US"}, "averageDailyFlights": 0.29, "operators": [{"name": "VNT"}]}, {"destination": {"icao": "KJVL", "iata": "JVL", "name": "Janesville Southern Wisconsin Regional", "shortName": "Southern Wisconsin Regional", "municipalityName": "Janesville", "location": {"lat": 42.6203, "lon": -89.0416}, "countryCode": "US"}, "averageDailyFlights": 0.29, "operators": [{"name": "COL"}]}, {"destination": {"icao": "KEYW", "iata": "EYW", "name": "Key West ", "shortName": "Key West", "municipalityName": "Key West", "location": {"lat": 24.5561, "lon": -81.7596}, "countryCode": "US"}, "averageDailyFlights": 0.29, "operators": [{"name": "LXJ"}]}, {"destination": {"icao": "MDJB", "iata": "JBQ", "name": "La Isabela ", "shortName": "La Isabela", "municipalityName": "La Isabela", "location": {"lat": 18.5725, "lon": -69.9856}, "countryCode": "DO"}, "averageDailyFlights": 0.29, "operators": [{"name": "Papillon Airways", "iata": "HI"}]}, {"destination": {"icao": "KACK", "iata": "ACK", "name": "Nantucket Memorial", "shortName": "Memorial", "municipalityName": "Nantucket", "location": {"lat": 41.2531, "lon": -70.0602}, "countryCode": "US"}, "averageDailyFlights": 0.29, "operators": [{"name": "COL"}, {"name": "LXJ"}]}, {"destination": {"icao": "KMSY", "iata": "MSY", "name": "New Orleans Louis Armstrong", "shortName": "Louis Armstrong", "municipalityName": "New Orleans", "location": {"lat": 29.9934, "lon": -90.258}, "countryCode": "US"}, "averageDailyFlights": 0.29, "operators": [{"name": "VJA"}]}, {"destination": {"icao": "KEWR", "iata": "EWR", "name": "Newark Liberty", "shortName": "Liberty", "municipalityName": "Newark", "location": {"lat": 40.6925, "lon": -74.1687}, "countryCode": "US"}, "averageDailyFlights": 0.29, "operators": [{"name": "NJE"}, {"name": "Delta Air Lines", "iata": "DL", "icao": "DAL"}]}, {"destination": {"icao": "KEFK", "iata": "EFK", "name": "Newport State", "shortName": "State", "municipalityName": "Newport", "location": {"lat": 44.8888, "lon": -72.2292}, "countryCode": "US"}, "averageDailyFlights": 0.29, "operators": [{"name": "Tradewind Aviation", "iata": "TJ", "icao": "GPD"}]}, {"destination": {"icao": "KISM", "iata": "ISM", "name": "Orlando Kissimmee Gateway", "shortName": "Kissimmee Gateway", "municipalityName": "Orlando", "location": {"lat": 28.2898, "lon": -81.4371}, "countryCode": "US"}, "averageDailyFlights": 0.29, "operators": [{"name": "EJM"}, {"name": "LXJ"}]}, {"destination": {"icao": "KPWM", "iata": "PWM", "name": "Portland Jetport", "shortName": "Jetport", "municipalityName": "Portland", "location": {"lat": 43.6462, "lon": -70.3093}, "countryCode": "US"}, "averageDailyFlights": 0.29, "operators": [{"name": "NetJets Aviation", "iata": "1I", "icao": "EJA"}]}, {"destination": {"icao": "KPVD", "iata": "PVD", "name": "Providence Theodore Francis Green State", "shortName": "Theodore Francis Green State", "municipalityName": "Providence", "location": {"lat": 41.7326, "lon": -71.4204}, "countryCode": "US"}, "averageDailyFlights": 0.29, "operators": [{"name": "Tradewind Aviation", "iata": "TJ", "icao": "GPD"}, {"name": "NetJets Aviation", "iata": "1I", "icao": "EJA"}]}, {"destination": {"icao": "MDPP", "iata": "POP", "name": "Puerto Plata Gregorio Luperon", "shortName": "Gregorio Luperon", "municipalityName": "Puerto Plata", "location": {"lat": 19.7579, "lon": -70.57}, "countryCode": "DO"}, "averageDailyFlights": 0.29, "operators": [{"name": "JRE"}]}, {"destination": {"icao": "KSTL", "iata": "STL", "name": "Saint Louis Lambert St Louis", "shortName": "Lambert St Louis", "municipalityName": "Saint Louis", "location": {"lat": 38.7487, "lon": -90.37}, "countryCode": "US"}, "averageDailyFlights": 0.29, "operators": [{"name": "CYC"}]}, {"destination": {"icao": "KSLC", "iata": "SLC", "name": "Salt Lake City ", "shortName": "Salt Lake City", "municipalityName": "Salt Lake City", "location": {"lat": 40.7884, "lon": -111.978}, "countryCode": "US"}, "averageDailyFlights": 0.29, "operators": [{"name": "XOJ"}, {"name": "Jet Linx Aviation", "iata": "JL", "icao": "JTL"}]}, {"destination": {"icao": "KSAN", "iata": "SAN", "name": "San Diego ", "shortName": "San Diego", "municipalityName": "San Diego", "location": {"lat": 32.7336, "lon": -117.19}, "countryCode": "US"}, "averageDailyFlights": 0.29, "operators": [{"name": "LXJ"}, {"name": "KOW"}]}, {"destination": {"icao": "KSFO", "iata": "SFO", "name": "San Francisco ", "shortName": "San Francisco", "municipalityName": "San Francisco", "location": {"lat": 37.619, "lon": -122.375}, "countryCode": "US"}, "averageDailyFlights": 0.29, "operators": [{"name": "LXJ"}, {"name": "EJM"}]}, {"destination": {"icao": "KSAV", "iata": "SAV", "name": "Savannah Hilton Head", "shortName": "Hilton Head", "municipalityName": "Savannah", "location": {"lat": 32.1276, "lon": -81.2021}, "countryCode": "US"}, "averageDailyFlights": 0.29, "operators": [{"name": "JTZ"}, {"name": "NetJets Aviation", "iata": "1I", "icao": "EJA"}]}, {"destination": {"icao": "KSGT", "iata": "SGT", "name": "Stuttgart Municipal", "shortName": "Municipal", "municipalityName": "Stuttgart", "location": {"lat": 34.5995, "lon": -91.575}, "countryCode": "US"}, "averageDailyFlights": 0.29, "operators": [{"name": "JTZ"}]}, {"destination": {"icao": "TQPF", "iata": "AXA", "name": "The Valley Wallblake", "shortName": "Wallblake", "municipalityName": "The Valley", "location": {"lat": 18.2048, "lon": -63.0551}, "countryCode": "AI"}, "averageDailyFlights": 0.29, "operators": [{"name": "PGN"}, {"name": "RNI"}]}, {"destination": {"icao": "KVNY", "iata": "VNY", "name": "Van Nuys ", "shortName": "Van Nuys", "municipalityName": "Van Nuys", "location": {"lat": 34.2098, "lon": -118.49}, "countryCode": "US"}, "averageDailyFlights": 0.29, "operators": [{"name": "TFF"}, {"name": "NetJets Aviation", "iata": "1I", "icao": "EJA"}]}, {"destination": {"icao": "KRBW", "iata": "RBW", "name": "Walterboro Lowcountry Regional", "shortName": "Lowcountry Regional", "municipalityName": "Walterboro", "location": {"lat": 32.921, "lon": -80.6406}, "countryCode": "US"}, "averageDailyFlights": 0.29, "operators": [{"name": "PGN"}, {"name": "LAK"}]}, {"destination": {"icao": "KBAF", "iata": "BAF", "name": "Westfield/Springfield Barnes Municipal", "shortName": "Barnes Municipal", "municipalityName": "Westfield/Springfield", "location": {"lat": 42.1578, "lon": -72.7156}, "countryCode": "US"}, "averageDailyFlights": 0.29, "operators": [{"name": "EDG"}]}, {"destination": {"icao": "KFOK", "iata": "FOK", "name": "Westhampton Beach Francis S Gabreski", "shortName": "Francis S Gabreski", "municipalityName": "Westhampton Beach", "location": {"lat": 40.8437, "lon": -72.6318}, "countryCode": "US"}, "averageDailyFlights": 0.29, "operators": [{"name": "NetJets Aviation", "iata": "1I", "icao": "EJA"}, {"name": "NJE"}]}, {"destination": {"icao": "KARB", "iata": "ARB", "name": "Ann Arbor Municipal", "shortName": "Municipal", "municipalityName": "Ann Arbor", "location": {"lat": 42.223, "lon": -83.7456}, "countryCode": "US"}, "averageDailyFlights": 0.14, "operators": [{"name": "CNS"}]}, {"destination": {"icao": "KAGS", "iata": "AGS", "name": "Augusta Regional At Bush Field", "shortName": "Regional At Bush Field", "municipalityName": "Augusta", "location": {"lat": 33.3699, "lon": -81.9645}, "countryCode": "US"}, "averageDailyFlights": 0.14, "operators": [{"name": "NetJets Aviation", "iata": "1I", "icao": "EJA"}]}, {"destination": {"icao": "KBGR", "iata": "BGR", "name": "Bangor ", "shortName": "Bangor", "municipalityName": "Bangor", "location": {"lat": 44.8074, "lon": -68.8281}, "countryCode": "US"}, "averageDailyFlights": 0.14, "operators": [{"name": "CYC"}]}, {"destination": {"icao": "KBTL", "iata": "BTL", "name": "Battle Creek W K Kellogg", "shortName": "W K Kellogg", "municipalityName": "Battle Creek", "location": {"lat": 42.3073, "lon": -85.2515}, "countryCode": "US"}, "averageDailyFlights": 0.14, "operators": [{"name": "NetJets Aviation", "iata": "1I", "icao": "EJA"}]}, {"destination": {"icao": "KBVY", "iata": "BVY", "name": "Beverly Municipal", "shortName": "Municipal", "municipalityName": "Beverly", "location": {"lat": 42.5842, "lon": -70.9165}, "countryCode": "US"}, "averageDailyFlights": 0.14, "operators": [{"name": "LXJ"}]}, {"destination": {"icao": "KBXM", "iata": "NHZ", "name": "Brunswick Executive", "shortName": "Executive", "municipalityName": "Brunswick", "location": {"lat": 43.8922, "lon": -69.9386}, "countryCode": "US"}, "averageDailyFlights": 0.14, "operators": [{"name": "NetJets Aviation", "iata": "1I", "icao": "EJA"}]}, {"destination": {"icao": "TIST", "iata": "STT", "name": "Charlotte Amalie, Harry S. Truman Airport Cyril E. King", "shortName": "Cyril E. King", "municipalityName": "Charlotte Amalie, Harry S. Truman Airport", "location": {"lat": 18.3373, "lon": -64.9734}, "countryCode": "VI"}, "averageDailyFlights": 0.14, "operators": [{"name": "LXJ"}]}, {"destination": {"icao": "KCHO", "iata": "CHO", "name": "Charlottesville Albemarle", "shortName": "Albemarle", "municipalityName": "Charlottesville", "location": {"lat": 38.1386, "lon": -78.4529}, "countryCode": "US"}, "averageDailyFlights": 0.14, "operators": [{"name": "NetJets Aviation", "iata": "1I", "icao": "EJA"}]}, {"destination": {"icao": "KDPA", "iata": "DPA", "name": "Chicago/West Chicago Dupage", "shortName": "Dupage", "municipalityName": "Chicago/West Chicago", "location": {"lat": 41.9078, "lon": -88.2486}, "countryCode": "US"}, "averageDailyFlights": 0.14, "operators": [{"name": "EJM"}]}, {"destination": {"icao": "KCVG", "iata": "CVG", "name": "Cincinnati Northern Kentucky", "shortName": "Northern Kentucky", "municipalityName": "Cincinnati", "location": {"lat": 39.0488, "lon": -84.6678}, "countryCode": "US"}, "averageDailyFlights": 0.14, "operators": [{"name": "LXJ"}]}, {"destination": {"icao": "KDAL", "iata": "DAL", "name": "Dallas Love Field", "shortName": "Love Field", "municipalityName": "Dallas", "location": {"lat": 32.8471, "lon": -96.8518}, "countryCode": "US"}, "averageDailyFlights": 0.14, "operators": [{"name": "HER"}]}, {"destination": {"icao": "KDXR", "iata": "DXR", "name": "Danbury Municipal", "shortName": "Municipal", "municipalityName": "Danbury", "location": {"lat": 41.3715, "lon": -73.4822}, "countryCode": "US"}, "averageDailyFlights": 0.14, "operators": [{"name": "RLI"}]}, {"destination": {"icao": "KBJC", "iata": "BJC", "name": "Denver Rocky Mountain Metropolitan", "shortName": "Rocky Mountain Metropolitan", "municipalityName": "Denver", "location": {"lat": 39.9088, "lon": -105.117}, "countryCode": "US"}, "averageDailyFlights": 0.14, "operators": [{"name": "NetJets Aviation", "iata": "1I", "icao": "EJA"}]}, {"destination": {"icao": "KESN", "iata": "ESN", "name": "Easton Newnam Field", "shortName": "Newnam Field", "municipalityName": "Easton", "location": {"lat": 38.8042, "lon": -76.069}, "countryCode": "US"}, "averageDailyFlights": 0.14, "operators": [{"name": "FTH"}]}, {"destination": {"icao": "CYEG", "iata": "YEG", "name": "Edmonton ", "shortName": "Edmonton", "municipalityName": "Edmonton", "location": {"lat": 53.3097, "lon": -113.58}, "countryCode": "CA"}, "averageDailyFlights": 0.14, "operators": [{"name": "LXJ"}]}, {"destination": {"icao": "EGTE", "iata": "EXT", "name": "Exeter ", "shortName": "Exeter", "municipalityName": "Exeter", "location": {"lat": 50.7344, "lon": -3.413889}, "countryCode": "GB"}, "averageDailyFlights": 0.14, "operators": [{"name": "SVW"}]}, {"destination": {"icao": "KFHB", "iata": "FHB", "name": "Fernandina Beach Municipal", "shortName": "Municipal", "municipalityName": "Fernandina Beach", "location": {"lat": 30.6118, "lon": -81.4612}, "countryCode": "US"}, "averageDailyFlights": 0.14, "operators": [{"name": "NetJets Aviation", "iata": "1I", "icao": "EJA"}]}, {"destination": {"icao": "KFTW", "iata": "FTW", "name": "Fort Worth Meacham", "shortName": "Meacham", "municipalityName": "Fort Worth", "location": {"lat": 32.8198, "lon": -97.3624}, "countryCode": "US"}, "averageDailyFlights": 0.14, "operators": [{"name": "NetJets Aviation", "iata": "1I", "icao": "EJA"}]}, {"destination": {"icao": "MWCR", "iata": "GCM", "name": "Georgetown Owen Roberts", "shortName": "Owen Roberts", "municipalityName": "Georgetown", "location": {"lat": 19.2928, "lon": -81.3577}, "countryCode": "KY"}, "averageDailyFlights": 0.14, "operators": [{"name": "GJE"}]}, {"destination": {"icao": "KGPZ", "iata": "GPZ", "name": "Grand Rapids Itasca Co-Gordon Newstrom field", "shortName": "Itasca Co-Gordon Newstrom field", "municipalityName": "Grand Rapids", "location": {"lat": 47.2111, "lon": -93.5098}, "countryCode": "US"}, "averageDailyFlights": 0.14, "operators": [{"name": "FTH"}]}, {"destination": {"icao": "KGMU", "iata": "GMU", "name": "Greenville Downtown", "shortName": "Downtown", "municipalityName": "Greenville", "location": {"lat": 34.8479, "lon": -82.35}, "countryCode": "US"}, "averageDailyFlights": 0.14, "operators": [{"name": "LXJ"}]}, {"destination": {"icao": "CYHZ", "iata": "YHZ", "name": "Halifax Stanfield", "shortName": "Stanfield", "municipalityName": "Halifax", "location": {"lat": 44.8808, "lon": -63.5086}, "countryCode": "CA"}, "averageDailyFlights": 0.14, "operators": [{"name": "NetJets Aviation", "iata": "1I", "icao": "EJA"}]}, {"destination": {"icao": "KBDL", "iata": "BDL", "name": "Hartford Bradley", "shortName": "Bradley", "municipalityName": "Hartford", "location": {"lat": 41.9389, "lon": -72.6832}, "countryCode": "US"}, "averageDailyFlights": 0.14, "operators": [{"name": "VNT"}]}, {"destination": {"icao": "KHDN", "iata": "HDN", "name": "Hayden Yampa Valley", "shortName": "Yampa Valley", "municipalityName": "Hayden", "location": {"lat": 40.4812, "lon": -107.218}, "countryCode": "US"}, "averageDailyFlights": 0.14, "operators": [{"name": "ELZ"}]}, {"destination": {"icao": "KMKC", "iata": "MKC", "name": "Kansas City Charles B. Wheeler Downtown", "shortName": "Charles B. Wheeler Downtown", "municipalityName": "Kansas City", "location": {"lat": 39.1232, "lon": -94.5928}, "countryCode": "US"}, "averageDailyFlights": 0.14, "operators": [{"name": "FTH"}]}, {"destination": {"icao": "07FA", "iata": "OCA", "name": "Key Largo Ocean Reef Club", "shortName": "Ocean Reef Club", "municipalityName": "Key Largo", "location": {"lat": 25.3254, "lon": -80.2748}, "countryCode": "US"}, "averageDailyFlights": 0.14, "operators": [{"name": "EJM"}]}, {"destination": {"icao": "KLAS", "iata": "LAS", "name": "Las Vegas McCarran", "shortName": "McCarran", "municipalityName": "Las Vegas", "location": {"lat": 36.0801, "lon": -115.152}, "countryCode": "US"}, "averageDailyFlights": 0.14, "operators": [{"name": "TFF"}]}, {"destination": {"icao": "KLIT", "iata": "LIT", "name": "Little Rock Adams Field", "shortName": "Adams Field", "municipalityName": "Little Rock", "location": {"lat": 34.7294, "lon": -92.2243}, "countryCode": "US"}, "averageDailyFlights": 0.14, "operators": [{"name": "NetJets Aviation", "iata": "1I", "icao": "EJA"}]}, {"destination": {"icao": "KLVM", "iata": "LVM", "name": "Livingston Mission Field", "shortName": "Mission Field", "municipalityName": "Livingston", "location": {"lat": 45.6994, "lon": -110.448}, "countryCode": "US"}, "averageDailyFlights": 0.14, "operators": [{"name": "RAX"}]}, {"destination": {"icao": "KLAX", "iata": "LAX", "name": "Los Angeles ", "shortName": "Los Angeles", "municipalityName": "Los Angeles", "location": {"lat": 33.9425, "lon": -118.408}, "countryCode": "US"}, "averageDailyFlights": 0.14, "operators": [{"name": "LXJ"}]}, {"destination": {"icao": "KSDF", "iata": "SDF", "name": "Louisville Standiford Field", "shortName": "Standiford Field", "municipalityName": "Louisville", "location": {"lat": 38.1744, "lon": -85.736}, "countryCode": "US"}, "averageDailyFlights": 0.14, "operators": [{"name": "LXJ"}]}, {"destination": {"icao": "KMHT", "iata": "MHT", "name": "Manchester ", "shortName": "Manchester", "municipalityName": "Manchester", "location": {"lat": 42.9326, "lon": -71.4357}, "countryCode": "US"}, "averageDailyFlights": 0.14, "operators": [{"name": "Tradewind Aviation", "iata": "TJ", "icao": "GPD"}]}, {"destination": {"icao": "KMSP", "iata": "MSP", "name": "Minneapolis Wold-Chamberlain", "shortName": "Wold-Chamberlain", "municipalityName": "Minneapolis", "location": {"lat": 44.882, "lon": -93.2218}, "countryCode": "US"}, "averageDailyFlights": 0.14, "operators": [{"name": "NetJets Aviation", "iata": "1I", "icao": "EJA"}]}, {"destination": {"icao": "KMGJ", "iata": "MGJ", "name": "Montgomery Orange County", "shortName": "Orange County", "municipalityName": "Montgomery", "location": {"lat": 41.51, "lon": -74.2646}, "countryCode": "US"}, "averageDailyFlights": 0.14, "operators": [{"name": "Tradewind Aviation", "iata": "TJ", "icao": "GPD"}]}, {"destination": {"icao": "KLGA", "iata": "LGA", "name": "New York La Guardia", "shortName": "La Guardia", "municipalityName": "New York", "location": {"lat": 40.7772, "lon": -73.8726}, "countryCode": "US"}, "averageDailyFlights": 0.14, "operators": [{"name": "LXJ"}]}, {"destination": {"icao": "KUUU", "iata": "NPT", "name": "Newport State", "shortName": "State", "municipalityName": "Newport", "location": {"lat": 41.5324, "lon": -71.2815}, "countryCode": "US"}, "averageDailyFlights": 0.14, "operators": [{"name": "CNS"}]}, {"destination": {"icao": "KORF", "iata": "ORF", "name": "Norfolk ", "shortName": "Norfolk", "municipalityName": "Norfolk", "location": {"lat": 36.8946, "lon": -76.2012}, "countryCode": "US"}, "averageDailyFlights": 0.14, "operators": [{"name": "NetJets Aviation", "iata": "1I", "icao": "EJA"}]}, {"destination": {"icao": "KOAK", "iata": "OAK", "name": "Oakland Metropolitan", "shortName": "Metropolitan", "municipalityName": "Oakland", "location": {"lat": 37.7213, "lon": -122.221}, "countryCode": "US"}, "averageDailyFlights": 0.14, "operators": [{"name": "EJM"}]}, {"destination": {"icao": "TNCA", "iata": "AUA", "name": "Oranjestad Queen Beatrix", "shortName": "Queen Beatrix", "municipalityName": "Oranjestad", "location": {"lat": 12.501399, "lon": -70.0152}, "countryCode": "AW"}, "averageDailyFlights": 0.14, "operators": [{"name": "JNY"}]}, {"destination": {"icao": "KPSP", "iata": "PSP", "name": "Palm Springs ", "shortName": "Palm Springs", "municipalityName": "Palm Springs", "location": {"lat": 33.8297, "lon": -116.507}, "countryCode": "US"}, "averageDailyFlights": 0.14, "operators": [{"name": "NetJets Aviation", "iata": "1I", "icao": "EJA"}]}, {"destination": {"icao": "KSOP", "iata": "SOP", "name": "Pinehurst/Southern Pines Moore County", "shortName": "Moore County", "municipalityName": "Pinehurst/Southern Pines", "location": {"lat": 35.2374, "lon": -79.3912}, "countryCode": "US"}, "averageDailyFlights": 0.14, "operators": [{"name": "NetJets Aviation", "iata": "1I", "icao": "EJA"}]}, {"destination": {"icao": "KPHN", "iata": "PHN", "name": "Port Huron St Clair County", "shortName": "St Clair County", "municipalityName": "Port Huron", "location": {"lat": 42.911, "lon": -82.5289}, "countryCode": "US"}, "averageDailyFlights": 0.14, "operators": [{"name": "LXJ"}]}, {"destination": {"icao": "KPSM", "iata": "PSM", "name": "Portsmouth at Pease", "shortName": "at Pease", "municipalityName": "Portsmouth", "location": {"lat": 43.0779, "lon": -70.8233}, "countryCode": "US"}, "averageDailyFlights": 0.14, "operators": [{"name": "CNS"}]}, {"destination": {"icao": "KPOU", "iata": "POU", "name": "Poughkeepsie Dutchess County", "shortName": "Dutchess County", "municipalityName": "Poughkeepsie", "location": {"lat": 41.6266, "lon": -73.8842}, "countryCode": "US"}, "averageDailyFlights": 0.14, "operators": [{"name": "WUP"}]}, {"destination": {"icao": "SULS", "iata": "PDP", "name": "Punta del Este Capitan Corbeta CA Curbelo", "shortName": "Capitan Corbeta CA Curbelo", "municipalityName": "Punta del Este", "location": {"lat": -34.8551, "lon": -55.0943}, "countryCode": "UY"}, "averageDailyFlights": 0.14, "operators": [{"name": "VJT"}]}, {"destination": {"icao": "KRIC", "iata": "RIC", "name": "Richmond ", "shortName": "Richmond", "municipalityName": "Richmond", "location": {"lat": 37.5052, "lon": -77.3197}, "countryCode": "US"}, "averageDailyFlights": 0.14, "operators": [{"name": "NetJets Aviation", "iata": "1I", "icao": "EJA"}]}, {"destination": {"icao": "TUPJ", "iata": "EIS", "name": "Road Town Terrance B. Lettsome", "shortName": "Terrance B. Lettsome", "municipalityName": "Road Town", "location": {"lat": 18.4448, "lon": -64.543}, "countryCode": "VG"}, "averageDailyFlights": 0.14, "operators": [{"name": "LXJ"}]}, {"destination": {"icao": "KROC", "iata": "ROC", "name": "Rochester Greater", "shortName": "Greater", "municipalityName": "Rochester", "location": {"lat": 43.1189, "lon": -77.6724}, "countryCode": "US"}, "averageDailyFlights": 0.14, "operators": [{"name": "NetJets Aviation", "iata": "1I", "icao": "EJA"}]}, {"destination": {"icao": "KSLN", "iata": "SLN", "name": "Salina Municipal", "shortName": "Municipal", "municipalityName": "Salina", "location": {"lat": 38.791, "lon": -97.6522}, "countryCode": "US"}, "averageDailyFlights": 0.14, "operators": [{"name": "NetJets Aviation", "iata": "1I", "icao": "EJA"}]}, {"destination": {"icao": "KSBA", "iata": "SBA", "name": "Santa Barbara Municipal", "shortName": "Municipal", "municipalityName": "Santa Barbara", "location": {"lat": 34.4262, "lon": -119.84}, "countryCode": "US"}, "averageDailyFlights": 0.14, "operators": [{"name": "LXJ"}]}, {"destination": {"icao": "KSLK", "iata": "SLK", "name": "Saranac Lake Adirondack Regional", "shortName": "Adirondack Regional", "municipalityName": "Saranac Lake", "location": {"lat": 44.3853, "lon": -74.2062}, "countryCode": "US"}, "averageDailyFlights": 0.14, "operators": [{"name": "LXJ"}]}, {"destination": {"icao": "KSHV", "iata": "SHV", "name": "Shreveport Regional", "shortName": "Regional", "municipalityName": "Shreveport", "location": {"lat": 32.4466, "lon": -93.8256}, "countryCode": "US"}, "averageDailyFlights": 0.14, "operators": [{"name": "Contour Aviation", "iata": "LF", "icao": "VTE"}]}, {"destination": {"icao": "KSGH", "iata": "SGH", "name": "Springfield -Beckley Municipal", "shortName": "-Beckley Municipal", "municipalityName": "Springfield", "location": {"lat": 39.8403, "lon": -83.8402}, "countryCode": "US"}, "averageDailyFlights": 0.14, "operators": [{"name": "WWI"}]}, {"destination": {"icao": "TGPY", "iata": "GND", "name": "St. George's Point Salines", "shortName": "Point Salines", "municipalityName": "St. George's", "location": {"lat": 12.004199, "lon": -61.7862}, "countryCode": "GD"}, "averageDailyFlights": 0.14, "operators": [{"name": "RNI"}]}, {"destination": {"icao": "KUNV", "iata": "SCE", "name": "State College University Park", "shortName": "University Park", "municipalityName": "State College", "location": {"lat": 40.8493, "lon": -77.8487}, "countryCode": "US"}, "averageDailyFlights": 0.14, "operators": [{"name": "NetJets Aviation", "iata": "1I", "icao": "EJA"}]}, {"destination": {"icao": "KTLH", "iata": "TLH", "name": "Tallahassee Regional", "shortName": "Regional", "municipalityName": "Tallahassee", "location": {"lat": 30.3965, "lon": -84.3503}, "countryCode": "US"}, "averageDailyFlights": 0.14, "operators": [{"name": "NetJets Aviation", "iata": "1I", "icao": "EJA"}]}, {"destination": {"icao": "KTTN", "iata": "TTN", "name": "Trenton Mercer", "shortName": "Mercer", "municipalityName": "Trenton", "location": {"lat": 40.2767, "lon": -74.8135}, "countryCode": "US"}, "averageDailyFlights": 0.14, "operators": [{"name": "NetJets Aviation", "iata": "1I", "icao": "EJA"}]}, {"destination": {"icao": "KTWF", "iata": "TWF", "name": "Twin Falls Joslin Field Magic Valley Regional", "shortName": "Joslin Field Magic Valley Regional", "municipalityName": "Twin Falls", "location": {"lat": 42.4818, "lon": -114.488}, "countryCode": "US"}, "averageDailyFlights": 0.14, "operators": [{"name": "NetJets Aviation", "iata": "1I", "icao": "EJA"}]}, {"destination": {"icao": "KWVL", "iata": "WVL", "name": "Waterville Robert Lafleur", "shortName": "Robert Lafleur", "municipalityName": "Waterville", "location": {"lat": 44.5332, "lon": -69.6755}, "countryCode": "US"}, "averageDailyFlights": 0.14, "operators": [{"name": "Tradewind Aviation", "iata": "TJ", "icao": "GPD"}]}, {"destination": {"icao": "KAVP", "iata": "AVP", "name": "Wilkes-Barre/Scranton Wilkes Barre Scranton", "shortName": "Wilkes Barre Scranton", "municipalityName": "Wilkes-Barre/Scranton", "location": {"lat": 41.3385, "lon": -75.7234}, "countryCode": "US"}, "averageDailyFlights": 0.14, "operators": [{"name": "XOJ"}]}, {"destination": {"icao": "KILM", "iata": "ILM", "name": "Wilmington ", "shortName": "Wilmington", "municipalityName": "Wilmington", "location": {"lat": 34.2706, "lon": -77.9026}, "countryCode": "US"}, "averageDailyFlights": 0.14, "operators": [{"name": "LXJ"}]}, {"destination": {"icao": "KOKV", "iata": "WGO", "name": "Winchester Regional", "shortName": "Regional", "municipalityName": "Winchester", "location": {"lat": 39.1435, "lon": -78.1444}, "countryCode": "US"}, "averageDailyFlights": 0.14, "operators": [{"name": "NetJets Aviation", "iata": "1I", "icao": "EJA"}]}, {"destination": {"icao": "KYNG", "iata": "YNG", "name": "Youngstown/Warren Youngstown Warren Regional", "shortName": "Youngstown Warren Regional", "municipalityName": "Youngstown/Warren", "location": {"lat": 41.2607, "lon": -80.6791}, "countryCode": "US"}, "averageDailyFlights": 0.14, "operators": [{"name": "NetJets Aviation", "iata": "1I", "icao": "EJA"}]}]}