{"routes": [{"destination": {"icao": "KCLT", "iata": "CLT", "name": "Charlotte Douglas", "shortName": "Douglas", "municipalityName": "Charlotte", "location": {"lat": 35.214, "lon": -80.9431}, "countryCode": "US"}, "averageDailyFlights": 3.0, "operators": [{"name": "Envoy Air", "iata": "MQ", "icao": "ENY"}, {"name": "American Airlines", "iata": "AA", "icao": "AAL"}]}, {"destination": {"icao": "KLBE", "iata": "LBE", "name": "Latrobe Arnold Palmer Regional", "shortName": "Arnold Palmer Regional", "municipalityName": "Latrobe", "location": {"lat": 40.2759, "lon": -79.4048}, "countryCode": "US"}, "averageDailyFlights": 0.71, "operators": [{"name": "LJY"}]}, {"destination": {"icao": "KHPN", "iata": "HPN", "name": "White Plains Westchester County", "shortName": "Westchester County", "municipalityName": "White Plains", "location": {"lat": 41.067, "lon": -73.7076}, "countryCode": "US"}, "averageDailyFlights": 0.71, "operators": [{"name": "NetJets Aviation", "iata": "1I", "icao": "EJA"}, {"name": "VJA"}]}, {"destination": {"icao": "KDNL", "iata": "DNL", "name": "Augusta Daniel Field", "shortName": "Daniel Field", "municipalityName": "Augusta", "location": {"lat": 33.4665, "lon": -82.0394}, "countryCode": "US"}, "averageDailyFlights": 0.57, "operators": [{"name": "Vuela El Salvador", "iata": "N3", "icao": "VOS"}, {"name": "N8GU"}]}, {"destination": {"icao": "KMCO", "iata": "MCO", "name": "Orlando ", "shortName": "Orlando", "municipalityName": "Orlando", "location": {"lat": 28.4294, "lon": -81.309}, "countryCode": "US"}, "averageDailyFlights": 0.57, "operators": [{"name": "NetJets Aviation", "iata": "1I", "icao": "EJA"}, {"name": "CYC"}]}, {"destination": {"icao": "KPDK", "iata": "PDK", "name": "Atlanta DeKalb Peachtree", "shortName": "DeKalb Peachtree", "municipalityName": "Atlanta", "location": {"lat": 33.8756, "lon": -84.302}, "countryCode": "US"}, "averageDailyFlights": 0.43, "operators": [{"name": "NetJets Aviation", "iata": "1I", "icao": "EJA"}, {"name": "CYC"}]}, {"destination": {"icao": "KACY", "iata": "ACY", "name": "Atlantic City ", "shortName": "Atlantic City", "municipalityName": "Atlantic City", "location": {"lat": 39.4576, "lon": -74.5772}, "countryCode": "US"}, "averageDailyFlights": 0.29, "operators": [{"name": "JTZ"}]}, {"destination": {"icao": "KCHS", "iata": "CHS", "name": "Charleston Air Force Base-", "shortName": "Air Force Base-", "municipalityName": "Charleston", "location": {"lat": 32.8986, "lon": -80.0405}, "countryCode": "US"}, "averageDailyFlights": 0.29, "operators": [{"name": "NetJets Aviation", "iata": "1I", "icao": "EJA"}]}, {"destination": {"icao": "KDPA", "iata": "DPA", "name": "Chicago/West Chicago Dupage", "shortName": "Dupage", "municipalityName": "Chicago/West Chicago", "location": {"lat": 41.9078, "lon": -88.2486}, "countryCode": "US"}, "averageDailyFlights": 0.29, "operators": [{"name": "NetJets Aviation", "iata": "1I", "icao": "EJA"}]}, {"destination": {"icao": "KCVG", "iata": "CVG", "name": "Cincinnati Northern Kentucky", "shortName": "Northern Kentucky", "municipalityName": "Cincinnati", "location": {"lat": 39.0488, "lon": -84.6678}, "countryCode": "US"}, "averageDailyFlights": 0.29, "operators": [{"name": "WUP"}]}, {"destination": {"icao": "KCLE", "iata": "CLE", "name": "Cleveland Hopkins", "shortName": "Hopkins", "municipalityName": "Cleveland", "location": {"lat": 41.4117, "lon": -81.8498}, "countryCode": "US"}, "averageDailyFlights": 0.29, "operators": [{"name": "Nolinor", "iata": "N5", "icao": "NRL"}]}, {"destination": {"icao": "KOSU", "iata": "OSU", "name": "Columbus Ohio State University", "shortName": "Ohio State University", "municipalityName": "Columbus", "location": {"lat": 40.0798, "lon": -83.073}, "countryCode": "US"}, "averageDailyFlights": 0.29, "operators": [{"name": "CYC"}]}, {"destination": {"icao": "KGMU", "iata": "GMU", "name": "Greenville Downtown", "shortName": "Downtown", "municipalityName": "Greenville", "location": {"lat": 34.8479, "lon": -82.35}, "countryCode": "US"}, "averageDailyFlights": 0.29, "operators": [{"name": "CXK"}]}, {"destination": {"icao": "KBDL", "iata": "BDL", "name": "Hartford Bradley", "shortName": "Bradley", "municipalityName": "Hartford", "location": {"lat": 41.9389, "lon": -72.6832}, "countryCode": "US"}, "averageDailyFlights": 0.29, "operators": [{"name": "MVP"}]}, {"destination": {"icao": "KAPF", "iata": "APF", "name": "Naples Municipal", "shortName": "Municipal", "municipalityName": "Naples", "location": {"lat": 26.1526, "lon": -81.7753}, "countryCode": "US"}, "averageDailyFlights": 0.29, "operators": [{"name": "CYC"}]}, {"destination": {"icao": "KTOL", "iata": "TOL", "name": "Toledo Express", "shortName": "Express", "municipalityName": "Toledo", "location": {"lat": 41.5868, "lon": -83.8078}, "countryCode": "US"}, "averageDailyFlights": 0.29, "operators": [{"name": "DCM"}]}, {"destination": {"icao": "KCAK", "iata": "CAK", "name": "Akron Canton Regional", "shortName": "Canton Regional", "municipalityName": "Akron", "location": {"lat": 40.9161, "lon": -81.4422}, "countryCode": "US"}, "averageDailyFlights": 0.14, "operators": [{"name": "NetJets Aviation", "iata": "1I", "icao": "EJA"}]}, {"destination": {"icao": "KAEX", "iata": "AEX", "name": "Alexandria ", "shortName": "Alexandria", "municipalityName": "Alexandria", "location": {"lat": 31.3274, "lon": -92.5498}, "countryCode": "US"}, "averageDailyFlights": 0.14, "operators": [{"name": "LXJ"}]}, {"destination": {"icao": "KATL", "iata": "ATL", "name": "Atlanta Hartsfield Jackson", "shortName": "Hartsfield Jackson", "municipalityName": "Atlanta", "location": {"lat": 33.6367, "lon": -84.4281}, "countryCode": "US"}, "averageDailyFlights": 0.14, "operators": [{"name": "CNS"}]}, {"destination": {"icao": "KARW", "iata": "BFT", "name": "Beaufort County", "shortName": "County", "municipalityName": "Beaufort", "location": {"lat": 32.4122, "lon": -80.6344}, "countryCode": "US"}, "averageDailyFlights": 0.14, "operators": [{"name": "CYC"}]}, {"destination": {"icao": "KCHO", "iata": "CHO", "name": "Charlottesville Albemarle", "shortName": "Albemarle", "municipalityName": "Charlottesville", "location": {"lat": 38.1386, "lon": -78.4529}, "countryCode": "US"}, "averageDailyFlights": 0.14, "operators": [{"name": "NetJets Aviation", "iata": "1I", "icao": "EJA"}]}, {"destination": {"icao": "KMDW", "iata": "MDW", "name": "Chicago Midway", "shortName": "Midway", "municipalityName": "Chicago", "location": {"lat": 41.786, "lon": -87.7524}, "countryCode": "US"}, "averageDailyFlights": 0.14, "operators": [{"name": "NetJets Aviation", "iata": "1I", "icao": "EJA"}]}, {"destination": {"icao": "KCEU", "iata": "CEU", "name": "Clemson Oconee County Regional", "shortName": "Oconee County Regional", "municipalityName": "Clemson", "location": {"lat": 34.6719, "lon": -82.8865}, "countryCode": "US"}, "averageDailyFlights": 0.14, "operators": [{"name": "WUP"}]}, {"destination": {"icao": "KCMH", "iata": "CMH", "name": "Columbus Port", "shortName": "Port", "municipalityName": "Columbus", "location": {"lat": 39.998, "lon": -82.8919}, "countryCode": "US"}, "averageDailyFlights": 0.14, "operators": [{"name": "NetJets Aviation", "iata": "1I", "icao": "EJA"}]}, {"destination": {"icao": "KDTS", "iata": "DSI", "name": "Destin Fort Walton Beach", "shortName": "Fort Walton Beach", "municipalityName": "Destin", "location": {"lat": 30.4001, "lon": -86.4715}, "countryCode": "US"}, "averageDailyFlights": 0.14, "operators": [{"name": "NetJets Aviation", "iata": "1I", "icao": "EJA"}]}, {"destination": {"icao": "KFDY", "iata": "FDY", "name": "Findlay ", "shortName": "Findlay", "municipalityName": "Findlay", "location": {"lat": 41.0135, "lon": -83.6687}, "countryCode": "US"}, "averageDailyFlights": 0.14, "operators": [{"name": "LXJ"}]}, {"destination": {"icao": "KFXE", "iata": "FXE", "name": "Fort Lauderdale Executive", "shortName": "Executive", "municipalityName": "Fort Lauderdale", "location": {"lat": 26.197298, "lon": -80.1707}, "countryCode": "US"}, "averageDailyFlights": 0.14, "operators": [{"name": "CNS"}]}, {"destination": {"icao": "KMDT", "iata": "MDT", "name": "Harrisburg ", "shortName": "Harrisburg", "municipalityName": "Harrisburg", "location": {"lat": 40.1935, "lon": -76.7634}, "countryCode": "US"}, "averageDailyFlights": 0.14, "operators": [{"name": "WSP"}]}, {"destination": {"icao": "KCRG", "iata": "CRG", "name": "Jacksonville Executive at Craig", "shortName": "Executive at Craig", "municipalityName": "Jacksonville", "location": {"lat": 30.3363, "lon": -81.5144}, "countryCode": "US"}, "averageDailyFlights": 0.14, "operators": [{"name": "NetJets Aviation", "iata": "1I", "icao": "EJA"}]}, {"destination": {"icao": "KEYW", "iata": "EYW", "name": "Key West ", "shortName": "Key West", "municipalityName": "Key West", "location": {"lat": 24.5561, "lon": -81.7596}, "countryCode": "US"}, "averageDailyFlights": 0.14, "operators": [{"name": "LXJ"}]}, {"destination": {"icao": "KLZU", "iata": "LZU", "name": "Lawrenceville Gwinnett County Briscoe Field", "shortName": "Gwinnett County Briscoe Field", "municipalityName": "Lawrenceville", "location": {"lat": 33.9781, "lon": -83.9624}, "countryCode": "US"}, "averageDailyFlights": 0.14, "operators": [{"name": "CXK"}]}, {"destination": {"icao": "KBNA", "iata": "BNA", "name": "Nashville ", "shortName": "Nashville", "municipalityName": "Nashville", "location": {"lat": 36.1245, "lon": -86.6782}, "countryCode": "US"}, "averageDailyFlights": 0.14, "operators": [{"name": "Nordwind Airlines", "iata": "N4", "icao": "NWS"}]}, {"destination": {"icao": "MYNN", "iata": "NAS", "name": "Nassau Lynden Pindling", "shortName": "Lynden Pindling", "municipalityName": "Nassau", "location": {"lat": 25.039, "lon": -77.4662}, "countryCode": "BS"}, "averageDailyFlights": 0.14, "operators": [{"name": "JTZ"}]}, {"destination": {"icao": "KPLN", "iata": "PLN", "name": "Pellston Regional  of Emmet County", "shortName": "Regional  of Emmet County", "municipalityName": "Pellston", "location": {"lat": 45.5709, "lon": -84.7967}, "countryCode": "US"}, "averageDailyFlights": 0.14, "operators": [{"name": "PGN"}]}, {"destination": {"icao": "KPIT", "iata": "PIT", "name": "Pittsburgh ", "shortName": "Pittsburgh", "municipalityName": "Pittsburgh", "location": {"lat": 40.4915, "lon": -80.2329}, "countryCode": "US"}, "averageDailyFlights": 0.14, "operators": [{"name": "NetJets Aviation", "iata": "1I", "icao": "EJA"}]}, {"destination": {"icao": "KROA", "iata": "ROA", "name": "Roanoke \u2013Blacksburg Regional", "shortName": "\u2013Blacksburg Regional", "municipalityName": "Roanoke", "location": {"lat": 37.3255, "lon": -79.9754}, "countryCode": "US"}, "averageDailyFlights": 0.14, "operators": [{"name": "CYC"}]}, {"destination": {"icao": "KSUS", "iata": "SUS", "name": "Saint Louis Spirit of St Louis", "shortName": "Spirit of St Louis", "municipalityName": "Saint Louis", "location": {"lat": 38.6621, "lon": -90.652}, "countryCode": "US"}, "averageDailyFlights": 0.14, "operators": [{"name": "DHR"}]}, {"destination": {"icao": "KSRQ", "iata": "SRQ", "name": "Sarasota/Bradenton Sarasota Bradenton", "shortName": "Sarasota Bradenton", "municipalityName": "Sarasota/Bradenton", "location": {"lat": 27.3954, "lon": -82.5544}, "countryCode": "US"}, "averageDailyFlights": 0.14, "operators": [{"name": "NetJets Aviation", "iata": "1I", "icao": "EJA"}]}, {"destination": {"icao": "KTEB", "iata": "TEB", "name": "Teterboro ", "shortName": "Teterboro", "municipalityName": "Teterboro", "location": {"lat": 40.8501, "lon": -74.0608}, "countryCode": "US"}, "averageDailyFlights": 0.14, "operators": [{"name": "NetJets Aviation", "iata": "1I", "icao": "EJA"}]}, {"destination": {"icao": "KILM", "iata": "ILM", "name": "Wilmington ", "shortName": "Wilmington", "municipalityName": "Wilmington", "location": {"lat": 34.2706, "lon": -77.9026}, "countryCode": "US"}, "averageDailyFlights": 0.14, "operators": [{"name": "CXK"}]}]}