{"routes": [{"destination": {"icao": "KSEA", "iata": "SEA", "name": "Seattle Tacoma", "shortName": "Tacoma", "municipalityName": "Seattle", "location": {"lat": 47.449, "lon": -122.309}, "countryCode": "US"}, "averageDailyFlights": 6.0, "operators": [{"name": "Alaska Airlines", "iata": "AS", "icao": "ASA"}, {"name": "NetJets Aviation", "iata": "1I", "icao": "EJA"}, {"name": "Delta Air Lines", "iata": "DL", "icao": "DAL"}, {"name": "TWY"}]}, {"destination": {"icao": "KSFO", "iata": "SFO", "name": "San Francisco ", "shortName": "San Francisco", "municipalityName": "San Francisco", "location": {"lat": 37.619, "lon": -122.375}, "countryCode": "US"}, "averageDailyFlights": 4.57, "operators": [{"name": "VJA"}, {"name": "United Airlines", "iata": "UA", "icao": "UAL"}, {"name": "Alaska Airlines", "iata": "AS", "icao": "ASA"}]}, {"destination": {"icao": "KPDX", "iata": "PDX", "name": "Portland ", "shortName": "Portland", "municipalityName": "Portland", "location": {"lat": 45.5887, "lon": -122.598}, "countryCode": "US"}, "averageDailyFlights": 4.0, "operators": [{"name": "Alaska Airlines", "iata": "AS", "icao": "ASA"}, {"name": "Empire Airlines", "iata": "EM", "icao": "CFS"}, {"name": "Ameriflight", "iata": "A8", "icao": "AMF"}]}, {"destination": {"icao": "KSLC", "iata": "SLC", "name": "Salt Lake City ", "shortName": "Salt Lake City", "municipalityName": "Salt Lake City", "location": {"lat": 40.7884, "lon": -111.978}, "countryCode": "US"}, "averageDailyFlights": 3.14, "operators": [{"name": "Delta Air Lines", "iata": "DL", "icao": "DAL"}]}, {"destination": {"icao": "KPHX", "iata": "PHX", "name": "Phoenix Sky Harbor", "shortName": "Sky Harbor", "municipalityName": "Phoenix", "location": {"lat": 33.4343, "lon": -112.012}, "countryCode": "US"}, "averageDailyFlights": 2.86, "operators": [{"name": "American Airlines", "iata": "AA", "icao": "AAL"}, {"name": "SkyWest Airlines", "iata": "OO", "icao": "SKW"}]}, {"destination": {"icao": "KDEN", "iata": "DEN", "name": "Denver ", "shortName": "Denver", "municipalityName": "Denver", "location": {"lat": 39.8617, "lon": -104.673}, "countryCode": "US"}, "averageDailyFlights": 2.14, "operators": [{"name": "United Airlines", "iata": "UA", "icao": "UAL"}]}, {"destination": {"icao": "KLAX", "iata": "LAX", "name": "Los Angeles ", "shortName": "Los Angeles", "municipalityName": "Los Angeles", "location": {"lat": 33.9425, "lon": -118.408}, "countryCode": "US"}, "averageDailyFlights": 2.14, "operators": [{"name": "Alaska Airlines", "iata": "AS", "icao": "ASA"}, {"name": "United Airlines", "iata": "UA", "icao": "UAL"}]}, {"destination": {"icao": "KSAN", "iata": "SAN", "name": "San Diego ", "shortName": "San Diego", "municipalityName": "San Diego", "location": {"lat": 32.7336, "lon": -117.19}, "countryCode": "US"}, "averageDailyFlights": 1.14, "operators": [{"name": "Alaska Airlines", "iata": "AS", "icao": "ASA"}]}, {"destination": {"icao": "KBUR", "iata": "BUR", "name": "Burbank Bob Hope", "shortName": "Bob Hope", "municipalityName": "Burbank", "location": {"lat": 34.2007, "lon": -118.359}, "countryCode": "US"}, "averageDailyFlights": 0.86, "operators": [{"name": "VXP"}]}, {"destination": {"icao": "KEUG", "iata": "EUG", "name": "Eugene Mahlon Sweet Field", "shortName": "Mahlon Sweet Field", "municipalityName": "Eugene", "location": {"lat": 44.1246, "lon": -123.212}, "countryCode": "US"}, "averageDailyFlights": 0.71, "operators": [{"name": "Empire Airlines", "iata": "EM", "icao": "CFS"}, {"name": "NetJets Aviation", "iata": "1I", "icao": "EJA"}]}, {"destination": {"icao": "KLAS", "iata": "LAS", "name": "Las Vegas McCarran", "shortName": "McCarran", "municipalityName": "Las Vegas", "location": {"lat": 36.0801, "lon": -115.152}, "countryCode": "US"}, "averageDailyFlights": 0.71, "operators": [{"name": "VXP"}]}, {"destination": {"icao": "KPSP", "iata": "PSP", "name": "Palm Springs ", "shortName": "Palm Springs", "municipalityName": "Palm Springs", "location": {"lat": 33.8297, "lon": -116.507}, "countryCode": "US"}, "averageDailyFlights": 0.57, "operators": [{"name": "VXP"}]}, {"destination": {"icao": "KPAE", "iata": "PAE", "name": "Everett Snohomish County (Paine Field)", "shortName": "Snohomish County (Paine Field)", "municipalityName": "Everett", "location": {"lat": 47.9063, "lon": -122.282}, "countryCode": "US"}, "averageDailyFlights": 0.43, "operators": [{"name": "WBC"}]}, {"destination": {"icao": "KONT", "iata": "ONT", "name": "Ontario ", "shortName": "Ontario", "municipalityName": "Ontario", "location": {"lat": 34.056, "lon": -117.601}, "countryCode": "US"}, "averageDailyFlights": 0.43, "operators": [{"name": "TWY"}]}, {"destination": {"icao": "KRNO", "iata": "RNO", "name": "Reno Tahoe", "shortName": "Tahoe", "municipalityName": "Reno", "location": {"lat": 39.4991, "lon": -119.768}, "countryCode": "US"}, "averageDailyFlights": 0.43, "operators": [{"name": "RGY"}]}, {"destination": {"icao": "KSTS", "iata": "STS", "name": "Santa Rosa Charles M. Schulz Sonoma County", "shortName": "Charles M. Schulz Sonoma County", "municipalityName": "Santa Rosa", "location": {"lat": 38.509, "lon": -122.813}, "countryCode": "US"}, "averageDailyFlights": 0.43, "operators": [{"name": "VXP"}]}, {"destination": {"icao": "KAVQ", "iata": "AVW", "name": "Tucson Marana Regional", "shortName": "Marana Regional", "municipalityName": "Tucson", "location": {"lat": 32.4096, "lon": -111.218}, "countryCode": "US"}, "averageDailyFlights": 0.43, "operators": [{"name": "RGY"}]}, {"destination": {"icao": "KBFI", "iata": "BFI", "name": "Seattle Boeing Field King County", "shortName": "Boeing Field King County", "municipalityName": "Seattle", "location": {"lat": 47.53, "lon": -122.302}, "countryCode": "US"}, "averageDailyFlights": 0.29, "operators": [{"name": "My Jet Xpress Airlines", "iata": "N7", "icao": "NEP"}]}, {"destination": {"icao": "KDWH", "iata": "DWH", "name": "Houston David Wayne Hooks Memorial", "shortName": "David Wayne Hooks Memorial", "municipalityName": "Houston", "location": {"lat": 30.0618, "lon": -95.5528}, "countryCode": "US"}, "averageDailyFlights": 0.14, "operators": [{"name": "XOJ"}]}, {"destination": {"icao": "KSJC", "iata": "SJC", "name": "San Jose Norman Y. Mineta", "shortName": "Norman Y. Mineta", "municipalityName": "San Jose", "location": {"lat": 37.3626, "lon": -121.929}, "countryCode": "US"}, "averageDailyFlights": 0.14, "operators": [{"name": "NetJets Aviation", "iata": "1I", "icao": "EJA"}]}, {"destination": {"icao": "KSDL", "iata": "SCF", "name": "Scottsdale ", "shortName": "Scottsdale", "municipalityName": "Scottsdale", "location": {"lat": 33.6229, "lon": -111.911}, "countryCode": "US"}, "averageDailyFlights": 0.14, "operators": [{"name": "NetJets Aviation", "iata": "1I", "icao": "EJA"}]}, {"destination": {"icao": "KEAT", "iata": "EAT", "name": "Wenatchee Pangborn Memorial", "shortName": "Pangborn Memorial", "municipalityName": "Wenatchee", "location": {"lat": 47.3989, "lon": -120.207}, "countryCode": "US"}, "averageDailyFlights": 0.14, "operators": [{"name": "FLC"}]}]}