{"routes": [{"destination": {"icao": "KDFW", "iata": "DFW", "name": "Dallas-Fort Worth ", "shortName": "Dallas-Fort Worth", "municipalityName": "Dallas-Fort Worth", "location": {"lat": 32.8968, "lon": -97.038}, "countryCode": "US"}, "averageDailyFlights": 13.57, "operators": [{"name": "American Airlines", "iata": "AA", "icao": "AAL"}, {"name": "Envoy Air", "iata": "MQ", "icao": "ENY"}, {"name": "Ameriflight", "iata": "A8", "icao": "AMF"}]}, {"destination": {"icao": "KDAL", "iata": "DAL", "name": "Dallas Love Field", "shortName": "Love Field", "municipalityName": "Dallas", "location": {"lat": 32.8471, "lon": -96.8518}, "countryCode": "US"}, "averageDailyFlights": 12.29, "operators": [{"name": "YEL"}, {"name": "NetJets Aviation", "iata": "1I", "icao": "EJA"}, {"name": "Southwest Airlines", "iata": "WN", "icao": "SWA"}, {"name": "LBQ"}, {"name": "JSX Air", "iata": "XE", "icao": "JSX"}, {"name": "DRL"}]}, {"destination": {"icao": "KDEN", "iata": "DEN", "name": "Denver ", "shortName": "Denver", "municipalityName": "Denver", "location": {"lat": 39.8617, "lon": -104.673}, "countryCode": "US"}, "averageDailyFlights": 10.71, "operators": [{"name": "United Airlines", "iata": "UA", "icao": "UAL"}, {"name": "Southwest Airlines", "iata": "WN", "icao": "SWA"}, {"name": "Frontier Airlines", "iata": "F9", "icao": "FFT"}, {"name": "Delta Air Lines", "iata": "DL", "icao": "DAL"}]}, {"destination": {"icao": "KATL", "iata": "ATL", "name": "Atlanta Hartsfield Jackson", "shortName": "Hartsfield Jackson", "municipalityName": "Atlanta", "location": {"lat": 33.6367, "lon": -84.4281}, "countryCode": "US"}, "averageDailyFlights": 9.14, "operators": [{"name": "Delta Air Lines", "iata": "DL", "icao": "DAL"}, {"name": "Southwest Airlines", "iata": "WN", "icao": "SWA"}, {"name": "Frontier Airlines", "iata": "F9", "icao": "FFT"}]}, {"destination": {"icao": "KIAH", "iata": "IAH", "name": "Houston George Bush", "shortName": "George Bush", "municipalityName": "Houston", "location": {"lat": 29.9844, "lon": -95.3414}, "countryCode": "US"}, "averageDailyFlights": 9.14, "operators": [{"name": "United Airlines", "iata": "UA", "icao": "UAL"}, {"name": "FFL"}, {"name": "PWR"}]}, {"destination": {"icao": "KPHX", "iata": "PHX", "name": "Phoenix Sky Harbor", "shortName": "Sky Harbor", "municipalityName": "Phoenix", "location": {"lat": 33.4343, "lon": -112.012}, "countryCode": "US"}, "averageDailyFlights": 9.0, "operators": [{"name": "American Airlines", "iata": "AA", "icao": "AAL"}, {"name": "Southwest Airlines", "iata": "WN", "icao": "SWA"}, {"name": "Delta Air Lines", "iata": "DL", "icao": "DAL"}, {"name": "TWY"}]}, {"destination": {"icao": "KLAS", "iata": "LAS", "name": "Las Vegas McCarran", "shortName": "McCarran", "municipalityName": "Las Vegas", "location": {"lat": 36.0801, "lon": -115.152}, "countryCode": "US"}, "averageDailyFlights": 7.86, "operators": [{"name": "Southwest Airlines", "iata": "WN", "icao": "SWA"}, {"name": "Spirit Airlines", "iata": "NK", "icao": "NKS"}, {"name": "Frontier Airlines", "iata": "F9", "icao": "FFT"}]}, {"destination": {"icao": "KHOU", "iata": "HOU", "name": "Houston William P Hobby", "shortName": "William P Hobby", "municipalityName": "Houston", "location": {"lat": 29.6454, "lon": -95.2789}, "countryCode": "US"}, "averageDailyFlights": 6.14, "operators": [{"name": "TCA", "iata": "N6", "icao": "TZS"}, {"name": "Southwest Airlines", "iata": "WN", "icao": "SWA"}, {"name": "SCM"}, {"name": "Delta Air Lines", "iata": "DL", "icao": "DAL"}]}, {"destination": {"icao": "KLAX", "iata": "LAX", "name": "Los Angeles ", "shortName": "Los Angeles", "municipalityName": "Los Angeles", "location": {"lat": 33.9425, "lon": -118.408}, "countryCode": "US"}, "averageDailyFlights": 5.86, "operators": [{"name": "Delta Air Lines", "iata": "DL", "icao": "DAL"}, {"name": "American Airlines", "iata": "AA", "icao": "AAL"}, {"name": "Southwest Airlines", "iata": "WN", "icao": "SWA"}, {"name": "SkyWest Airlines", "iata": "OO", "icao": "SKW"}, {"name": "Spirit Airlines", "iata": "NK", "icao": "NKS"}]}, {"destination": {"icao": "MMMX", "iata": "MEX", "name": "Mexico City Licenciado Benito Juarez", "shortName": "Licenciado Benito Juarez", "municipalityName": "Mexico City", "location": {"lat": 19.4363, "lon": -99.0721}, "countryCode": "MX"}, "averageDailyFlights": 5.71, "operators": [{"name": "Aeromexico", "iata": "AM", "icao": "AMX"}, {"name": "Volaris", "iata": "Y4", "icao": "VOI"}, {"name": "VivaAerobus", "iata": "VB", "icao": "VIV"}]}, {"destination": {"icao": "KMCO", "iata": "MCO", "name": "Orlando ", "shortName": "Orlando", "municipalityName": "Orlando", "location": {"lat": 28.4294, "lon": -81.309}, "countryCode": "US"}, "averageDailyFlights": 4.57, "operators": [{"name": "Southwest Airlines", "iata": "WN", "icao": "SWA"}, {"name": "Frontier Airlines", "iata": "F9", "icao": "FFT"}, {"name": "Spirit Airlines", "iata": "NK", "icao": "NKS"}]}, {"destination": {"icao": "KORD", "iata": "ORD", "name": "Chicago O'Hare", "shortName": "O'Hare", "municipalityName": "Chicago", "location": {"lat": 41.9786, "lon": -87.9048}, "countryCode": "US"}, "averageDailyFlights": 4.43, "operators": [{"name": "American Airlines", "iata": "AA", "icao": "AAL"}, {"name": "United Airlines", "iata": "UA", "icao": "UAL"}]}, {"destination": {"icao": "KCLT", "iata": "CLT", "name": "Charlotte Douglas", "shortName": "Douglas", "municipalityName": "Charlotte", "location": {"lat": 35.214, "lon": -80.9431}, "countryCode": "US"}, "averageDailyFlights": 4.14, "operators": [{"name": "American Airlines", "iata": "AA", "icao": "AAL"}]}, {"destination": {"icao": "KSLC", "iata": "SLC", "name": "Salt Lake City ", "shortName": "Salt Lake City", "municipalityName": "Salt Lake City", "location": {"lat": 40.7884, "lon": -111.978}, "countryCode": "US"}, "averageDailyFlights": 3.14, "operators": [{"name": "Delta Air Lines", "iata": "DL", "icao": "DAL"}, {"name": "NetJets Aviation", "iata": "1I", "icao": "EJA"}]}, {"destination": {"icao": "KELP", "iata": "ELP", "name": "El Paso ", "shortName": "El Paso", "municipalityName": "El Paso", "location": {"lat": 31.8072, "lon": -106.378}, "countryCode": "US"}, "averageDailyFlights": 3.0, "operators": [{"name": "Southwest Airlines", "iata": "WN", "icao": "SWA"}, {"name": "NetJets Aviation", "iata": "1I", "icao": "EJA"}, {"name": "iAero Airways", "iata": "WQ", "icao": "SWQ"}, {"name": "Jet Linx Aviation", "iata": "JL", "icao": "JTL"}]}, {"destination": {"icao": "MMMY", "iata": "MTY", "name": "Monterrey General Mariano Escobedo", "shortName": "General Mariano Escobedo", "municipalityName": "Monterrey", "location": {"lat": 25.7785, "lon": -100.107}, "countryCode": "MX"}, "averageDailyFlights": 2.86, "operators": [{"name": "VivaAerobus", "iata": "VB", "icao": "VIV"}]}, {"destination": {"icao": "MMGL", "iata": "GDL", "name": "Guadalajara Don Miguel Hidalgo Y Costilla", "shortName": "Don Miguel Hidalgo Y Costilla", "municipalityName": "Guadalajara", "location": {"lat": 20.5218, "lon": -103.311}, "countryCode": "MX"}, "averageDailyFlights": 2.71, "operators": [{"name": "ACW"}, {"name": "Volaris", "iata": "Y4", "icao": "VOI"}, {"name": "MTS"}, {"name": "XACNC"}]}, {"destination": {"icao": "KBWI", "iata": "BWI", "name": "Baltimore Washington  Thurgood Marshall", "shortName": "Washington  Thurgood Marshall", "municipalityName": "Baltimore", "location": {"lat": 39.1754, "lon": -76.6683}, "countryCode": "US"}, "averageDailyFlights": 2.57, "operators": [{"name": "Southwest Airlines", "iata": "WN", "icao": "SWA"}, {"name": "LXJ"}]}, {"destination": {"icao": "KBNA", "iata": "BNA", "name": "Nashville ", "shortName": "Nashville", "municipalityName": "Nashville", "location": {"lat": 36.1245, "lon": -86.6782}, "countryCode": "US"}, "averageDailyFlights": 2.57, "operators": [{"name": "Southwest Airlines", "iata": "WN", "icao": "SWA"}, {"name": "Contour Aviation", "iata": "LF", "icao": "VTE"}, {"name": "iAero Airways", "iata": "WQ", "icao": "SWQ"}]}, {"destination": {"icao": "KMDW", "iata": "MDW", "name": "Chicago Midway", "shortName": "Midway", "municipalityName": "Chicago", "location": {"lat": 41.786, "lon": -87.7524}, "countryCode": "US"}, "averageDailyFlights": 2.29, "operators": [{"name": "Southwest Airlines", "iata": "WN", "icao": "SWA"}]}, {"destination": {"icao": "KIAD", "iata": "IAD", "name": "District of Columbia Washington Dulles", "shortName": "Washington Dulles", "municipalityName": "District of Columbia", "location": {"lat": 38.9445, "lon": -77.4558}, "countryCode": "US"}, "averageDailyFlights": 2.29, "operators": [{"name": "United Airlines", "iata": "UA", "icao": "UAL"}]}, {"destination": {"icao": "KJFK", "iata": "JFK", "name": "New York John F Kennedy", "shortName": "John F Kennedy", "municipalityName": "New York", "location": {"lat": 40.6398, "lon": -73.7789}, "countryCode": "US"}, "averageDailyFlights": 2.29, "operators": [{"name": "JetBlue Airways", "iata": "B6", "icao": "JBU"}, {"name": "Delta Air Lines", "iata": "DL", "icao": "DAL"}]}, {"destination": {"icao": "KEWR", "iata": "EWR", "name": "Newark Liberty", "shortName": "Liberty", "municipalityName": "Newark", "location": {"lat": 40.6925, "lon": -74.1687}, "countryCode": "US"}, "averageDailyFlights": 2.29, "operators": [{"name": "United Airlines", "iata": "UA", "icao": "UAL"}]}, {"destination": {"icao": "KSAN", "iata": "SAN", "name": "San Diego ", "shortName": "San Diego", "municipalityName": "San Diego", "location": {"lat": 32.7336, "lon": -117.19}, "countryCode": "US"}, "averageDailyFlights": 2.29, "operators": [{"name": "Southwest Airlines", "iata": "WN", "icao": "SWA"}]}, {"destination": {"icao": "KSEA", "iata": "SEA", "name": "Seattle Tacoma", "shortName": "Tacoma", "municipalityName": "Seattle", "location": {"lat": 47.449, "lon": -122.309}, "countryCode": "US"}, "averageDailyFlights": 2.29, "operators": [{"name": "Alaska Airlines", "iata": "AS", "icao": "ASA"}]}, {"destination": {"icao": "KDTW", "iata": "DTW", "name": "Detroit Metropolitan Wayne County", "shortName": "Metropolitan Wayne County", "municipalityName": "Detroit", "location": {"lat": 42.2124, "lon": -83.3534}, "countryCode": "US"}, "averageDailyFlights": 2.14, "operators": [{"name": "Delta Air Lines", "iata": "DL", "icao": "DAL"}]}, {"destination": {"icao": "KMSP", "iata": "MSP", "name": "Minneapolis Wold-Chamberlain", "shortName": "Wold-Chamberlain", "municipalityName": "Minneapolis", "location": {"lat": 44.882, "lon": -93.2218}, "countryCode": "US"}, "averageDailyFlights": 2.14, "operators": [{"name": "Delta Air Lines", "iata": "DL", "icao": "DAL"}]}, {"destination": {"icao": "KMSY", "iata": "MSY", "name": "New Orleans Louis Armstrong", "shortName": "Louis Armstrong", "municipalityName": "New Orleans", "location": {"lat": 29.9934, "lon": -90.258}, "countryCode": "US"}, "averageDailyFlights": 1.71, "operators": [{"name": "Nolinor", "iata": "N5", "icao": "NRL"}, {"name": "Southwest Airlines", "iata": "WN", "icao": "SWA"}, {"name": "Jet Linx Aviation", "iata": "JL", "icao": "JTL"}, {"name": "NetJets Aviation", "iata": "1I", "icao": "EJA"}]}, {"destination": {"icao": "KDRT", "iata": "DRT", "name": "Del Rio ", "shortName": "Del Rio", "municipalityName": "Del Rio", "location": {"lat": 29.3742, "lon": -100.927}, "countryCode": "US"}, "averageDailyFlights": 1.57, "operators": [{"name": "BVN"}, {"name": "Ameriflight", "iata": "A8", "icao": "AMF"}]}, {"destination": {"icao": "KTPA", "iata": "TPA", "name": "Tampa ", "shortName": "Tampa", "municipalityName": "Tampa", "location": {"lat": 27.9755, "lon": -82.5332}, "countryCode": "US"}, "averageDailyFlights": 1.57, "operators": [{"name": "Southwest Airlines", "iata": "WN", "icao": "SWA"}, {"name": "LXJ"}]}, {"destination": {"icao": "KCRP", "iata": "CRP", "name": "Corpus Christi ", "shortName": "Corpus Christi", "municipalityName": "Corpus Christi", "location": {"lat": 27.7704, "lon": -97.5012}, "countryCode": "US"}, "averageDailyFlights": 1.29, "operators": [{"name": "Ameriflight", "iata": "A8", "icao": "AMF"}, {"name": "Sun Country Airlines", "iata": "SY", "icao": "SCX"}, {"name": "DZR"}]}, {"destination": {"icao": "KFLL", "iata": "FLL", "name": "Fort Lauderdale Hollywood", "shortName": "Hollywood", "municipalityName": "Fort Lauderdale", "location": {"lat": 26.0726, "lon": -80.1527}, "countryCode": "US"}, "averageDailyFlights": 1.29, "operators": [{"name": "Spirit Airlines", "iata": "NK", "icao": "NKS"}, {"name": "Contour Aviation", "iata": "LF", "icao": "VTE"}, {"name": "Southwest Airlines", "iata": "WN", "icao": "SWA"}]}, {"destination": {"icao": "KMIA", "iata": "MIA", "name": "Miami ", "shortName": "Miami", "municipalityName": "Miami", "location": {"lat": 25.7932, "lon": -80.2906}, "countryCode": "US"}, "averageDailyFlights": 1.29, "operators": [{"name": "American Airlines", "iata": "AA", "icao": "AAL"}, {"name": "Envoy Air", "iata": "MQ", "icao": "ENY"}]}, {"destination": {"icao": "KSTL", "iata": "STL", "name": "Saint Louis Lambert St Louis", "shortName": "Lambert St Louis", "municipalityName": "Saint Louis", "location": {"lat": 38.7487, "lon": -90.37}, "countryCode": "US"}, "averageDailyFlights": 1.29, "operators": [{"name": "Southwest Airlines", "iata": "WN", "icao": "SWA"}]}, {"destination": {"icao": "KSAT", "iata": "SAT", "name": "San Antonio ", "shortName": "San Antonio", "municipalityName": "San Antonio", "location": {"lat": 29.5337, "lon": -98.4698}, "countryCode": "US"}, "averageDailyFlights": 1.29, "operators": [{"name": "CXK"}]}, {"destination": {"icao": "KBOS", "iata": "BOS", "name": "Boston General Edward Lawrence Logan", "shortName": "General Edward Lawrence Logan", "municipalityName": "Boston", "location": {"lat": 42.3643, "lon": -71.0052}, "countryCode": "US"}, "averageDailyFlights": 1.14, "operators": [{"name": "JetBlue Airways", "iata": "B6", "icao": "JBU"}]}, {"destination": {"icao": "KMCI", "iata": "MCI", "name": "Kansas City ", "shortName": "Kansas City", "municipalityName": "Kansas City", "location": {"lat": 39.2976, "lon": -94.7139}, "countryCode": "US"}, "averageDailyFlights": 1.14, "operators": [{"name": "Southwest Airlines", "iata": "WN", "icao": "SWA"}]}, {"destination": {"icao": "KSFO", "iata": "SFO", "name": "San Francisco ", "shortName": "San Francisco", "municipalityName": "San Francisco", "location": {"lat": 37.619, "lon": -122.375}, "countryCode": "US"}, "averageDailyFlights": 1.14, "operators": [{"name": "United Airlines", "iata": "UA", "icao": "UAL"}]}, {"destination": {"icao": "KOKC", "iata": "OKC", "name": "Oklahoma City Will Rogers World", "shortName": "Will Rogers World", "municipalityName": "Oklahoma City", "location": {"lat": 35.3931, "lon": -97.6007}, "countryCode": "US"}, "averageDailyFlights": 1.0, "operators": [{"name": "Southwest Airlines", "iata": "WN", "icao": "SWA"}]}, {"destination": {"icao": "KAUS", "iata": "AUS", "name": "Austin Bergstrom", "shortName": "Bergstrom", "municipalityName": "Austin", "location": {"lat": 30.194498, "lon": -97.6699}, "countryCode": "US"}, "averageDailyFlights": 0.86, "operators": [{"name": "iAero Airways", "iata": "WQ", "icao": "SWQ"}, {"name": "Contour Aviation", "iata": "LF", "icao": "VTE"}, {"name": "Jet Linx Aviation", "iata": "JL", "icao": "JTL"}]}, {"destination": {"icao": "KSJT", "iata": "SJT", "name": "San Angelo Regional Mathis Field", "shortName": "Regional Mathis Field", "municipalityName": "San Angelo", "location": {"lat": 31.3577, "lon": -100.496}, "countryCode": "US"}, "averageDailyFlights": 0.86, "operators": [{"name": "EMD"}, {"name": "Ameriflight", "iata": "A8", "icao": "AMF"}]}, {"destination": {"icao": "KMAF", "iata": "MAF", "name": "Midland ", "shortName": "Midland", "municipalityName": "Midland", "location": {"lat": 31.9425, "lon": -102.202}, "countryCode": "US"}, "averageDailyFlights": 0.71, "operators": [{"name": "CYO"}, {"name": "Ameriflight", "iata": "A8", "icao": "AMF"}, {"name": "Iran Airtour", "iata": "B9", "icao": "IRB"}]}, {"destination": {"icao": "KBZN", "iata": "BZN", "name": "Bozeman Gallatin Field", "shortName": "Gallatin Field", "municipalityName": "Bozeman", "location": {"lat": 45.7775, "lon": -111.153}, "countryCode": "US"}, "averageDailyFlights": 0.57, "operators": [{"name": "JRE"}, {"name": "LXJ"}]}, {"destination": {"icao": "KLRD", "iata": "LRD", "name": "Laredo ", "shortName": "Laredo", "municipalityName": "Laredo", "location": {"lat": 27.5438, "lon": -99.4616}, "countryCode": "US"}, "averageDailyFlights": 0.57, "operators": [{"name": "FRG"}, {"name": "Ameriflight", "iata": "A8", "icao": "AMF"}, {"name": "GTX"}, {"name": "CXK"}]}, {"destination": {"icao": "KFTW", "iata": "FTW", "name": "Fort Worth Meacham", "shortName": "Meacham", "municipalityName": "Fort Worth", "location": {"lat": 32.8198, "lon": -97.3624}, "countryCode": "US"}, "averageDailyFlights": 0.43, "operators": [{"name": "Jet Linx Aviation", "iata": "JL", "icao": "JTL"}, {"name": "TWY"}, {"name": "CYC"}]}, {"destination": {"icao": "KSGR", "iata": "SGR", "name": "Houston Sugar Land Regional", "shortName": "Sugar Land Regional", "municipalityName": "Houston", "location": {"lat": 29.6223, "lon": -95.6565}, "countryCode": "US"}, "averageDailyFlights": 0.43, "operators": [{"name": "CWG"}, {"name": "Jet Linx Aviation", "iata": "JL", "icao": "JTL"}]}, {"destination": {"icao": "MMSD", "iata": "SJD", "name": "San Jos\u00e9 del Cabo Los Cabos", "shortName": "Los Cabos", "municipalityName": "San Jos\u00e9 del Cabo", "location": {"lat": 23.1518, "lon": -109.721}, "countryCode": "MX"}, "averageDailyFlights": 0.43, "operators": [{"name": "TWY"}]}, {"destination": {"icao": "MMLO", "iata": "BJX", "name": "Silao Del Baj\u00edo", "shortName": "Del Baj\u00edo", "municipalityName": "Silao", "location": {"lat": 20.9935, "lon": -101.481}, "countryCode": "MX"}, "averageDailyFlights": 0.43, "operators": [{"name": "VivaAerobus", "iata": "VB", "icao": "VIV"}]}, {"destination": {"icao": "KVNY", "iata": "VNY", "name": "Van Nuys ", "shortName": "Van Nuys", "municipalityName": "Van Nuys", "location": {"lat": 34.2098, "lon": -118.49}, "countryCode": "US"}, "averageDailyFlights": 0.43, "operators": [{"name": "SIS"}, {"name": "PEG"}]}, {"destination": {"icao": "KAEX", "iata": "AEX", "name": "Alexandria ", "shortName": "Alexandria", "municipalityName": "Alexandria", "location": {"lat": 31.3274, "lon": -92.5498}, "countryCode": "US"}, "averageDailyFlights": 0.29, "operators": [{"name": "iAero Airways", "iata": "WQ", "icao": "SWQ"}]}, {"destination": {"icao": "KASE", "iata": "ASE", "name": "Aspen Sardy Field", "shortName": "Sardy Field", "municipalityName": "Aspen", "location": {"lat": 39.2232, "lon": -106.869}, "countryCode": "US"}, "averageDailyFlights": 0.29, "operators": [{"name": "JRE"}, {"name": "KFB"}]}, {"destination": {"icao": "KEGE", "iata": "EGE", "name": "Eagle County Regional", "shortName": "County Regional", "municipalityName": "Eagle", "location": {"lat": 39.6426, "lon": -106.918}, "countryCode": "US"}, "averageDailyFlights": 0.29, "operators": [{"name": "Jet Linx Aviation", "iata": "JL", "icao": "JTL"}, {"name": "NetJets Aviation", "iata": "1I", "icao": "EJA"}]}, {"destination": {"icao": "KHRL", "iata": "HRL", "name": "Harlingen Valley", "shortName": "Valley", "municipalityName": "Harlingen", "location": {"lat": 26.2285, "lon": -97.6544}, "countryCode": "US"}, "averageDailyFlights": 0.29, "operators": [{"name": "GXA"}]}, {"destination": {"icao": "MMHO", "iata": "HMO", "name": "Hermosillo General Ignacio P. Garcia", "shortName": "General Ignacio P. Garcia", "municipalityName": "Hermosillo", "location": {"lat": 29.0959, "lon": -111.048}, "countryCode": "MX"}, "averageDailyFlights": 0.29, "operators": [{"name": "LXJ"}, {"name": "DZR"}]}, {"destination": {"icao": "KCXO", "iata": "CXO", "name": "Houston Lone Star Executive", "shortName": "Lone Star Executive", "municipalityName": "Houston", "location": {"lat": 30.3518, "lon": -95.4145}, "countryCode": "US"}, "averageDailyFlights": 0.29, "operators": [{"name": "Nordwind Airlines", "iata": "N4", "icao": "NWS"}]}, {"destination": {"icao": "KJAX", "iata": "JAX", "name": "Jacksonville ", "shortName": "Jacksonville", "municipalityName": "Jacksonville", "location": {"lat": 30.4941, "lon": -81.6879}, "countryCode": "US"}, "averageDailyFlights": 0.29, "operators": [{"name": "Libyan Airlines", "iata": "LN", "icao": "LAA"}]}, {"destination": {"icao": "MHLM", "iata": "SAP", "name": "La Mesa Ram\u00f3n Villeda Morales", "shortName": "Ram\u00f3n Villeda Morales", "municipalityName": "La Mesa", "location": {"lat": 15.452599, "lon": -87.9236}, "countryCode": "HN"}, "averageDailyFlights": 0.29, "operators": [{"name": "iAero Airways", "iata": "WQ", "icao": "SWQ"}]}, {"destination": {"icao": "KMFE", "iata": "MFE", "name": "Mc Allen Miller", "shortName": "Miller", "municipalityName": "Mc Allen", "location": {"lat": 26.1758, "lon": -98.2386}, "countryCode": "US"}, "averageDailyFlights": 0.29, "operators": [{"name": "My Jet Xpress Airlines", "iata": "N7", "icao": "NEP"}, {"name": "JTZ"}]}, {"destination": {"icao": "KOAK", "iata": "OAK", "name": "Oakland Metropolitan", "shortName": "Metropolitan", "municipalityName": "Oakland", "location": {"lat": 37.7213, "lon": -122.221}, "countryCode": "US"}, "averageDailyFlights": 0.29, "operators": [{"name": "PXT"}]}, {"destination": {"icao": "MMQT", "iata": "QRO", "name": "Quer\u00e9taro Intercontinental", "shortName": "Intercontinental", "municipalityName": "Quer\u00e9taro", "location": {"lat": 20.6173, "lon": -100.186}, "countryCode": "MX"}, "averageDailyFlights": 0.29, "operators": [{"name": "VivaAerobus", "iata": "VB", "icao": "VIV"}]}, {"destination": {"icao": "KSNA", "iata": "SNA", "name": "Santa Ana John Wayne -Orange County", "shortName": "John Wayne -Orange County", "municipalityName": "Santa Ana", "location": {"lat": 33.6757, "lon": -117.868}, "countryCode": "US"}, "averageDailyFlights": 0.29, "operators": [{"name": "CBC"}, {"name": "FTH"}]}, {"destination": {"icao": "KSAF", "iata": "SAF", "name": "Santa Fe Municipal", "shortName": "Municipal", "municipalityName": "Santa Fe", "location": {"lat": 35.6171, "lon": -106.089}, "countryCode": "US"}, "averageDailyFlights": 0.29, "operators": [{"name": "NetJets Aviation", "iata": "1I", "icao": "EJA"}]}, {"destination": {"icao": "KSDL", "iata": "SCF", "name": "Scottsdale ", "shortName": "Scottsdale", "municipalityName": "Scottsdale", "location": {"lat": 33.6229, "lon": -111.911}, "countryCode": "US"}, "averageDailyFlights": 0.29, "operators": [{"name": "Jet Linx Aviation", "iata": "JL", "icao": "JTL"}]}, {"destination": {"icao": "KBFI", "iata": "BFI", "name": "Seattle Boeing Field King County", "shortName": "Boeing Field King County", "municipalityName": "Seattle", "location": {"lat": 47.53, "lon": -122.302}, "countryCode": "US"}, "averageDailyFlights": 0.29, "operators": [{"name": "TWY"}]}, {"destination": {"icao": "KTYR", "iata": "TYR", "name": "Tyler Pounds Regional", "shortName": "Pounds Regional", "municipalityName": "Tyler", "location": {"lat": 32.3541, "lon": -95.4024}, "countryCode": "US"}, "averageDailyFlights": 0.29, "operators": [{"name": "NetJets Aviation", "iata": "1I", "icao": "EJA"}]}, {"destination": {"icao": "KNYL", "iata": "YUM", "name": "Yuma ", "shortName": "Yuma", "municipalityName": "Yuma", "location": {"lat": 32.6566, "lon": -114.606}, "countryCode": "US"}, "averageDailyFlights": 0.29, "operators": [{"name": "iAero Airways", "iata": "WQ", "icao": "SWQ"}]}, {"destination": {"icao": "KALS", "iata": "ALS", "name": "Alamosa San Luis Valley Regional Bergman Field", "shortName": "San Luis Valley Regional Bergman Field", "municipalityName": "Alamosa", "location": {"lat": 37.4349, "lon": -105.867}, "countryCode": "US"}, "averageDailyFlights": 0.14, "operators": [{"name": "NetJets Aviation", "iata": "1I", "icao": "EJA"}]}, {"destination": {"icao": "KAMA", "iata": "AMA", "name": "Amarillo Rick Husband", "shortName": "Rick Husband", "municipalityName": "Amarillo", "location": {"lat": 35.2194, "lon": -101.706}, "countryCode": "US"}, "averageDailyFlights": 0.14, "operators": [{"name": "NetJets Aviation", "iata": "1I", "icao": "EJA"}]}, {"destination": {"icao": "KBHM", "iata": "BHM", "name": "Birmingham -Shuttlesworth", "shortName": "-Shuttlesworth", "municipalityName": "Birmingham", "location": {"lat": 33.5629, "lon": -86.7535}, "countryCode": "US"}, "averageDailyFlights": 0.14, "operators": [{"name": "Contour Aviation", "iata": "LF", "icao": "VTE"}]}, {"destination": {"icao": "KBRO", "iata": "BRO", "name": "Brownsville South Padre Island", "shortName": "South Padre Island", "municipalityName": "Brownsville", "location": {"lat": 25.9068, "lon": -97.4259}, "countryCode": "US"}, "averageDailyFlights": 0.14, "operators": [{"name": "Libyan Airlines", "iata": "LN", "icao": "LAA"}]}, {"destination": {"icao": "KIFP", "iata": "IFP", "name": "Bullhead City Laughlin Bullhead", "shortName": "Laughlin Bullhead", "municipalityName": "Bullhead City", "location": {"lat": 35.1574, "lon": -114.56}, "countryCode": "US"}, "averageDailyFlights": 0.14, "operators": [{"name": "Sun Country Airlines", "iata": "SY", "icao": "SCX"}]}, {"destination": {"icao": "MMUN", "iata": "CUN", "name": "Canc\u00fan ", "shortName": "Canc\u00fan", "municipalityName": "Canc\u00fan", "location": {"lat": 21.0365, "lon": -86.8771}, "countryCode": "MX"}, "averageDailyFlights": 0.14, "operators": [{"name": "Southwest Airlines", "iata": "WN", "icao": "SWA"}]}, {"destination": {"icao": "KCNM", "iata": "CNM", "name": "Carlsbad Cavern City Air Terminal", "shortName": "Cavern City Air Terminal", "municipalityName": "Carlsbad", "location": {"lat": 32.3375, "lon": -104.263}, "countryCode": "US"}, "averageDailyFlights": 0.14, "operators": [{"name": "TWY"}]}, {"destination": {"icao": "KCZT", "iata": "CZT", "name": "Carrizo Springs Dimmit County", "shortName": "Dimmit County", "municipalityName": "Carrizo Springs", "location": {"lat": 28.5222, "lon": -99.8236}, "countryCode": "US"}, "averageDailyFlights": 0.14, "operators": [{"name": "Libyan Airlines", "iata": "LN", "icao": "LAA"}]}, {"destination": {"icao": "KCLE", "iata": "CLE", "name": "Cleveland Hopkins", "shortName": "Hopkins", "municipalityName": "Cleveland", "location": {"lat": 41.4117, "lon": -81.8498}, "countryCode": "US"}, "averageDailyFlights": 0.14, "operators": [{"name": "Delta Air Lines", "iata": "DL", "icao": "DAL"}]}, {"destination": {"icao": "KCOS", "iata": "COS", "name": "Colorado Springs City of  Municipal", "shortName": "City of  Municipal", "municipalityName": "Colorado Springs", "location": {"lat": 38.8058, "lon": -104.701}, "countryCode": "US"}, "averageDailyFlights": 0.14, "operators": [{"name": "Southwest Airlines", "iata": "WN", "icao": "SWA"}]}, {"destination": {"icao": "KCOT", "iata": "COT", "name": "Cotulla -La Salle County", "shortName": "-La Salle County", "municipalityName": "Cotulla", "location": {"lat": 28.4567, "lon": -99.2203}, "countryCode": "US"}, "averageDailyFlights": 0.14, "operators": [{"name": "NetJets Aviation", "iata": "1I", "icao": "EJA"}]}, {"destination": {"icao": "KADS", "iata": "ADS", "name": "Dallas Addison", "shortName": "Addison", "municipalityName": "Dallas", "location": {"lat": 32.9686, "lon": -96.8364}, "countryCode": "US"}, "averageDailyFlights": 0.14, "operators": [{"name": "GTX"}]}, {"destination": {"icao": "KDRO", "iata": "DRO", "name": "Durango La Plata County", "shortName": "La Plata County", "municipalityName": "Durango", "location": {"lat": 37.1515, "lon": -107.754}, "countryCode": "US"}, "averageDailyFlights": 0.14, "operators": [{"name": "CWG"}]}, {"destination": {"icao": "KFRG", "iata": "FRG", "name": "Farmingdale Republic", "shortName": "Republic", "municipalityName": "Farmingdale", "location": {"lat": 40.7288, "lon": -73.4134}, "countryCode": "US"}, "averageDailyFlights": 0.14, "operators": [{"name": "RAX"}]}, {"destination": {"icao": "KGUC", "iata": "GUC", "name": "Gunnison Crested Butte Regional", "shortName": "Crested Butte Regional", "municipalityName": "Gunnison", "location": {"lat": 38.5339, "lon": -106.933}, "countryCode": "US"}, "averageDailyFlights": 0.14, "operators": [{"name": "NetJets Aviation", "iata": "1I", "icao": "EJA"}]}, {"destination": {"icao": "KLFT", "iata": "LFT", "name": "Lafayette Regional", "shortName": "Regional", "municipalityName": "Lafayette", "location": {"lat": 30.2053, "lon": -91.9876}, "countryCode": "US"}, "averageDailyFlights": 0.14, "operators": [{"name": "FRG"}]}, {"destination": {"icao": "KLIT", "iata": "LIT", "name": "Little Rock Adams Field", "shortName": "Adams Field", "municipalityName": "Little Rock", "location": {"lat": 34.7294, "lon": -92.2243}, "countryCode": "US"}, "averageDailyFlights": 0.14, "operators": [{"name": "DCM"}]}, {"destination": {"icao": "KONT", "iata": "ONT", "name": "Ontario ", "shortName": "Ontario", "municipalityName": "Ontario", "location": {"lat": 34.056, "lon": -117.601}, "countryCode": "US"}, "averageDailyFlights": 0.14, "operators": [{"name": "NetJets Aviation", "iata": "1I", "icao": "EJA"}]}, {"destination": {"icao": "KTRM", "iata": "TRM", "name": "Palm Springs Jacqueline Cochran Regional", "shortName": "Jacqueline Cochran Regional", "municipalityName": "Palm Springs", "location": {"lat": 33.6267, "lon": -116.16}, "countryCode": "US"}, "averageDailyFlights": 0.14, "operators": [{"name": "LXJ"}]}, {"destination": {"icao": "KIWA", "iata": "AZA", "name": "Phoenix -Mesa-Gateway", "shortName": "-Mesa-Gateway", "municipalityName": "Phoenix", "location": {"lat": 33.3078, "lon": -111.655}, "countryCode": "US"}, "averageDailyFlights": 0.14, "operators": [{"name": "GXA"}]}, {"destination": {"icao": "MMPR", "iata": "PVR", "name": "Puerto Vallarta Licenciado Gustavo D\u00edaz Ordaz", "shortName": "Licenciado Gustavo D\u00edaz Ordaz", "municipalityName": "Puerto Vallarta", "location": {"lat": 20.6801, "lon": -105.254}, "countryCode": "MX"}, "averageDailyFlights": 0.14, "operators": [{"name": "Jet Linx Aviation", "iata": "JL", "icao": "JTL"}]}, {"destination": {"icao": "SULS", "iata": "PDP", "name": "Punta del Este Capitan Corbeta CA Curbelo", "shortName": "Capitan Corbeta CA Curbelo", "municipalityName": "Punta del Este", "location": {"lat": -34.8551, "lon": -55.0943}, "countryCode": "UY"}, "averageDailyFlights": 0.14, "operators": [{"name": "LVKAX"}]}, {"destination": {"icao": "CYQR", "iata": "YQR", "name": "Regina ", "shortName": "Regina", "municipalityName": "Regina", "location": {"lat": 50.4319, "lon": -104.666}, "countryCode": "CA"}, "averageDailyFlights": 0.14, "operators": [{"name": "Libyan Airlines", "iata": "LN", "icao": "LAA"}]}, {"destination": {"icao": "TJSJ", "iata": "SJU", "name": "San Juan Luis Munoz Marin", "shortName": "Luis Munoz Marin", "municipalityName": "San Juan", "location": {"lat": 18.4394, "lon": -66.0018}, "countryCode": "PR"}, "averageDailyFlights": 0.14, "operators": [{"name": "Contour Aviation", "iata": "LF", "icao": "VTE"}]}, {"destination": {"icao": "KTEB", "iata": "TEB", "name": "Teterboro ", "shortName": "Teterboro", "municipalityName": "Teterboro", "location": {"lat": 40.8501, "lon": -74.0608}, "countryCode": "US"}, "averageDailyFlights": 0.14, "operators": [{"name": "EJM"}]}, {"destination": {"icao": "KTXK", "iata": "TXK", "name": "Texarkana Regional Webb Field", "shortName": "Regional Webb Field", "municipalityName": "Texarkana", "location": {"lat": 33.4537, "lon": -93.991}, "countryCode": "US"}, "averageDailyFlights": 0.14, "operators": [{"name": "TCA", "iata": "N6", "icao": "TZS"}]}, {"destination": {"icao": "KTUS", "iata": "TUS", "name": "Tucson ", "shortName": "Tucson", "municipalityName": "Tucson", "location": {"lat": 32.1161, "lon": -110.941}, "countryCode": "US"}, "averageDailyFlights": 0.14, "operators": [{"name": "iAero Airways", "iata": "WQ", "icao": "SWQ"}]}, {"destination": {"icao": "KUVA", "iata": "UVA", "name": "Uvalde Garner Field", "shortName": "Garner Field", "municipalityName": "Uvalde", "location": {"lat": 29.2113, "lon": -99.7436}, "countryCode": "US"}, "averageDailyFlights": 0.14, "operators": [{"name": "Libyan Airlines", "iata": "LN", "icao": "LAA"}]}, {"destination": {"icao": "KPBI", "iata": "PBI", "name": "West Palm Beach Palm Beach", "shortName": "Palm Beach", "municipalityName": "West Palm Beach", "location": {"lat": 26.6832, "lon": -80.0956}, "countryCode": "US"}, "averageDailyFlights": 0.14, "operators": [{"name": "NetJets Aviation", "iata": "1I", "icao": "EJA"}]}, {"destination": {"icao": "KICT", "iata": "ICT", "name": "Wichita Mid Continent", "shortName": "Mid Continent", "municipalityName": "Wichita", "location": {"lat": 37.6499, "lon": -97.4331}, "countryCode": "US"}, "averageDailyFlights": 0.14, "operators": [{"name": "SCW"}]}]}