{"routes": [{"destination": {"icao": "KDEN", "iata": "DEN", "name": "Denver ", "shortName": "Denver", "municipalityName": "Denver", "location": {"lat": 39.8617, "lon": -104.673}, "countryCode": "US"}, "averageDailyFlights": 4.57, "operators": [{"name": "United Airlines", "iata": "UA", "icao": "UAL"}, {"name": "Southwest Airlines", "iata": "WN", "icao": "SWA"}]}, {"destination": {"icao": "KLAS", "iata": "LAS", "name": "Las Vegas McCarran", "shortName": "McCarran", "municipalityName": "Las Vegas", "location": {"lat": 36.0801, "lon": -115.152}, "countryCode": "US"}, "averageDailyFlights": 4.14, "operators": [{"name": "NetJets Aviation", "iata": "1I", "icao": "EJA"}, {"name": "Southwest Airlines", "iata": "WN", "icao": "SWA"}, {"name": "CYC"}, {"name": "DJR"}]}, {"destination": {"icao": "KPHX", "iata": "PHX", "name": "Phoenix Sky Harbor", "shortName": "Sky Harbor", "municipalityName": "Phoenix", "location": {"lat": 33.4343, "lon": -112.012}, "countryCode": "US"}, "averageDailyFlights": 3.57, "operators": [{"name": "American Airlines", "iata": "AA", "icao": "AAL"}, {"name": "CTF"}]}, {"destination": {"icao": "KSFO", "iata": "SFO", "name": "San Francisco ", "shortName": "San Francisco", "municipalityName": "San Francisco", "location": {"lat": 37.619, "lon": -122.375}, "countryCode": "US"}, "averageDailyFlights": 3.14, "operators": [{"name": "United Airlines", "iata": "UA", "icao": "UAL"}]}, {"destination": {"icao": "KOAK", "iata": "OAK", "name": "Oakland Metropolitan", "shortName": "Metropolitan", "municipalityName": "Oakland", "location": {"lat": 37.7213, "lon": -122.221}, "countryCode": "US"}, "averageDailyFlights": 2.57, "operators": [{"name": "VJA"}, {"name": "PXT"}, {"name": "Southwest Airlines", "iata": "WN", "icao": "SWA"}, {"name": "NetJets Aviation", "iata": "1I", "icao": "EJA"}, {"name": "PRE"}]}, {"destination": {"icao": "KONT", "iata": "ONT", "name": "Ontario ", "shortName": "Ontario", "municipalityName": "Ontario", "location": {"lat": 34.056, "lon": -117.601}, "countryCode": "US"}, "averageDailyFlights": 1.71, "operators": [{"name": "PCM"}, {"name": "Empire Airlines", "iata": "EM", "icao": "CFS"}]}, {"destination": {"icao": "KSQL", "iata": "SQL", "name": "San Carlos ", "shortName": "San Carlos", "municipalityName": "San Carlos", "location": {"lat": 37.5119, "lon": -122.25}, "countryCode": "US"}, "averageDailyFlights": 1.71, "operators": [{"name": "Southern Airways Express", "iata": "9X", "icao": "FDY"}]}, {"destination": {"icao": "KDFW", "iata": "DFW", "name": "Dallas-Fort Worth ", "shortName": "Dallas-Fort Worth", "municipalityName": "Dallas-Fort Worth", "location": {"lat": 32.8968, "lon": -97.038}, "countryCode": "US"}, "averageDailyFlights": 1.14, "operators": [{"name": "American Airlines", "iata": "AA", "icao": "AAL"}]}, {"destination": {"icao": "KLAX", "iata": "LAX", "name": "Los Angeles ", "shortName": "Los Angeles", "municipalityName": "Los Angeles", "location": {"lat": 33.9425, "lon": -118.408}, "countryCode": "US"}, "averageDailyFlights": 1.14, "operators": [{"name": "United Airlines", "iata": "UA", "icao": "UAL"}]}, {"destination": {"icao": "KSMF", "iata": "SMF", "name": "Sacramento ", "shortName": "Sacramento", "municipalityName": "Sacramento", "location": {"lat": 38.6954, "lon": -121.591}, "countryCode": "US"}, "averageDailyFlights": 1.14, "operators": [{"name": "Southwest Airlines", "iata": "WN", "icao": "SWA"}]}, {"destination": {"icao": "KSNA", "iata": "SNA", "name": "Santa Ana John Wayne -Orange County", "shortName": "John Wayne -Orange County", "municipalityName": "Santa Ana", "location": {"lat": 33.6757, "lon": -117.868}, "countryCode": "US"}, "averageDailyFlights": 1.14, "operators": [{"name": "NetJets Aviation", "iata": "1I", "icao": "EJA"}, {"name": "LXJ"}, {"name": "XSN"}]}, {"destination": {"icao": "KSEA", "iata": "SEA", "name": "Seattle Tacoma", "shortName": "Tacoma", "municipalityName": "Seattle", "location": {"lat": 47.449, "lon": -122.309}, "countryCode": "US"}, "averageDailyFlights": 1.14, "operators": [{"name": "Alaska Airlines", "iata": "AS", "icao": "ASA"}]}, {"destination": {"icao": "KASE", "iata": "ASE", "name": "Aspen Sardy Field", "shortName": "Sardy Field", "municipalityName": "Aspen", "location": {"lat": 39.2232, "lon": -106.869}, "countryCode": "US"}, "averageDailyFlights": 1.0, "operators": [{"name": "XLJ"}, {"name": "VJA"}, {"name": "NetJets Aviation", "iata": "1I", "icao": "EJA"}, {"name": "XOJ"}, {"name": "KOW"}]}, {"destination": {"icao": "KBUR", "iata": "BUR", "name": "Burbank Bob Hope", "shortName": "Bob Hope", "municipalityName": "Burbank", "location": {"lat": 34.2007, "lon": -118.359}, "countryCode": "US"}, "averageDailyFlights": 1.0, "operators": [{"name": "NetJets Aviation", "iata": "1I", "icao": "EJA"}, {"name": "Ameriflight", "iata": "A8", "icao": "AMF"}]}, {"destination": {"icao": "KPDX", "iata": "PDX", "name": "Portland ", "shortName": "Portland", "municipalityName": "Portland", "location": {"lat": 45.5887, "lon": -122.598}, "countryCode": "US"}, "averageDailyFlights": 1.0, "operators": [{"name": "Alaska Airlines", "iata": "AS", "icao": "ASA"}]}, {"destination": {"icao": "KVNY", "iata": "VNY", "name": "Van Nuys ", "shortName": "Van Nuys", "municipalityName": "Van Nuys", "location": {"lat": 34.2098, "lon": -118.49}, "countryCode": "US"}, "averageDailyFlights": 0.71, "operators": [{"name": "MVJ"}, {"name": "LXJ"}, {"name": "VJA"}, {"name": "NetJets Aviation", "iata": "1I", "icao": "EJA"}]}, {"destination": {"icao": "KSLC", "iata": "SLC", "name": "Salt Lake City ", "shortName": "Salt Lake City", "municipalityName": "Salt Lake City", "location": {"lat": 40.7884, "lon": -111.978}, "countryCode": "US"}, "averageDailyFlights": 0.57, "operators": [{"name": "VJA"}, {"name": "LXJ"}, {"name": "JRE"}]}, {"destination": {"icao": "KSUN", "iata": "SUN", "name": "Hailey Friedman Memorial", "shortName": "Friedman Memorial", "municipalityName": "Hailey", "location": {"lat": 43.5044, "lon": -114.296}, "countryCode": "US"}, "averageDailyFlights": 0.43, "operators": [{"name": "NetJets Aviation", "iata": "1I", "icao": "EJA"}, {"name": "RGY"}, {"name": "JRE"}]}, {"destination": {"icao": "KHWD", "iata": "HWD", "name": "Hayward Executive", "shortName": "Executive", "municipalityName": "Hayward", "location": {"lat": 37.6592, "lon": -122.122}, "countryCode": "US"}, "averageDailyFlights": 0.43, "operators": [{"name": "Jet Linx Aviation", "iata": "JL", "icao": "JTL"}, {"name": "FTH"}]}, {"destination": {"icao": "KJAC", "iata": "JAC", "name": "Jackson Hole", "shortName": "Hole", "municipalityName": "Jackson", "location": {"lat": 43.6073, "lon": -110.738}, "countryCode": "US"}, "averageDailyFlights": 0.43, "operators": [{"name": "CBC"}, {"name": "NetJets Aviation", "iata": "1I", "icao": "EJA"}]}, {"destination": {"icao": "KMMH", "iata": "MMH", "name": "Mammoth Lakes Mammoth Yosemite", "shortName": "Mammoth Yosemite", "municipalityName": "Mammoth Lakes", "location": {"lat": 37.6241, "lon": -118.838}, "countryCode": "US"}, "averageDailyFlights": 0.43, "operators": [{"name": "MVJ"}, {"name": "Southern Airways Express", "iata": "9X", "icao": "FDY"}, {"name": "NetJets Aviation", "iata": "1I", "icao": "EJA"}]}, {"destination": {"icao": "KRDM", "iata": "RDM", "name": "Redmond Roberts Field", "shortName": "Roberts Field", "municipalityName": "Redmond", "location": {"lat": 44.2541, "lon": -121.15}, "countryCode": "US"}, "averageDailyFlights": 0.43, "operators": [{"name": "XOJ"}, {"name": "NetJets Aviation", "iata": "1I", "icao": "EJA"}]}, {"destination": {"icao": "KSJC", "iata": "SJC", "name": "San Jose Norman Y. Mineta", "shortName": "Norman Y. Mineta", "municipalityName": "San Jose", "location": {"lat": 37.3626, "lon": -121.929}, "countryCode": "US"}, "averageDailyFlights": 0.43, "operators": [{"name": "NetJets Aviation", "iata": "1I", "icao": "EJA"}, {"name": "VJA"}]}, {"destination": {"icao": "TVSA", "iata": "SVD", "name": "Argyle ", "shortName": "Argyle", "municipalityName": "Argyle", "location": {"lat": 13.156389, "lon": -61.150276}, "countryCode": "VC"}, "averageDailyFlights": 0.29, "operators": [{"name": "KAY"}]}, {"destination": {"icao": "CYYC", "iata": "YYC", "name": "Calgary ", "shortName": "Calgary", "municipalityName": "Calgary", "location": {"lat": 51.1139, "lon": -114.02}, "countryCode": "CA"}, "averageDailyFlights": 0.29, "operators": [{"name": "NetJets Aviation", "iata": "1I", "icao": "EJA"}, {"name": "ASP"}]}, {"destination": {"icao": "KGYR", "iata": "GYR", "name": "Goodyear Phoenix", "shortName": "Phoenix", "municipalityName": "Goodyear", "location": {"lat": 33.4225, "lon": -112.376}, "countryCode": "US"}, "averageDailyFlights": 0.29, "operators": [{"name": "VECA", "iata": "VU", "icao": "VAR"}]}, {"destination": {"icao": "KSGR", "iata": "SGR", "name": "Houston Sugar Land Regional", "shortName": "Sugar Land Regional", "municipalityName": "Houston", "location": {"lat": 29.6223, "lon": -95.6565}, "countryCode": "US"}, "averageDailyFlights": 0.29, "operators": [{"name": "FFL"}, {"name": "NetJets Aviation", "iata": "1I", "icao": "EJA"}]}, {"destination": {"icao": "KLIT", "iata": "LIT", "name": "Little Rock Adams Field", "shortName": "Adams Field", "municipalityName": "Little Rock", "location": {"lat": 34.7294, "lon": -92.2243}, "countryCode": "US"}, "averageDailyFlights": 0.29, "operators": [{"name": "RKK"}]}, {"destination": {"icao": "KLGB", "iata": "LGB", "name": "Long Beach Daugherty Field/", "shortName": "Daugherty Field/", "municipalityName": "Long Beach", "location": {"lat": 33.8177, "lon": -118.152}, "countryCode": "US"}, "averageDailyFlights": 0.29, "operators": [{"name": "Southern Airways Express", "iata": "9X", "icao": "FDY"}, {"name": "CXK"}]}, {"destination": {"icao": "KMFR", "iata": "MFR", "name": "Medford Rogue Valley", "shortName": "Rogue Valley", "municipalityName": "Medford", "location": {"lat": 42.3742, "lon": -122.873}, "countryCode": "US"}, "averageDailyFlights": 0.29, "operators": [{"name": "LFG"}]}, {"destination": {"icao": "KRAL", "iata": "RAL", "name": "Riverside Municipal", "shortName": "Municipal", "municipalityName": "Riverside", "location": {"lat": 33.9519, "lon": -117.445}, "countryCode": "US"}, "averageDailyFlights": 0.29, "operators": [{"name": "CXK"}]}, {"destination": {"icao": "MMSD", "iata": "SJD", "name": "San Jos\u00e9 del Cabo Los Cabos", "shortName": "Los Cabos", "municipalityName": "San Jos\u00e9 del Cabo", "location": {"lat": 23.1518, "lon": -109.721}, "countryCode": "MX"}, "averageDailyFlights": 0.29, "operators": [{"name": "JRE"}]}, {"destination": {"icao": "KILG", "iata": "ILG", "name": "Wilmington New Castle", "shortName": "New Castle", "municipalityName": "Wilmington", "location": {"lat": 39.6787, "lon": -75.6065}, "countryCode": "US"}, "averageDailyFlights": 0.29, "operators": [{"name": "TWY"}]}, {"destination": {"icao": "KBFL", "iata": "BFL", "name": "Bakersfield Meadows Field", "shortName": "Meadows Field", "municipalityName": "Bakersfield", "location": {"lat": 35.4336, "lon": -119.057}, "countryCode": "US"}, "averageDailyFlights": 0.14, "operators": [{"name": "Empire Airlines", "iata": "EM", "icao": "CFS"}]}, {"destination": {"icao": "KTRI", "iata": "TRI", "name": "Bristol/Johnson/Kingsport Tri Cities Regional Tn Va", "shortName": "Tri Cities Regional Tn Va", "municipalityName": "Bristol/Johnson/Kingsport", "location": {"lat": 36.4752, "lon": -82.4074}, "countryCode": "US"}, "averageDailyFlights": 0.14, "operators": [{"name": "WWI"}]}, {"destination": {"icao": "KCOE", "iata": "COE", "name": "Coeur d'Alene - Pappy Boyington Field", "shortName": "- Pappy Boyington Field", "municipalityName": "Coeur d'Alene", "location": {"lat": 47.7743, "lon": -116.82}, "countryCode": "US"}, "averageDailyFlights": 0.14, "operators": [{"name": "LXJ"}]}, {"destination": {"icao": "KAPA", "iata": "APA", "name": "Denver Centennial", "shortName": "Centennial", "municipalityName": "Denver", "location": {"lat": 39.5701, "lon": -104.849}, "countryCode": "US"}, "averageDailyFlights": 0.14, "operators": [{"name": "NetJets Aviation", "iata": "1I", "icao": "EJA"}]}, {"destination": {"icao": "KEGE", "iata": "EGE", "name": "Eagle County Regional", "shortName": "County Regional", "municipalityName": "Eagle", "location": {"lat": 39.6426, "lon": -106.918}, "countryCode": "US"}, "averageDailyFlights": 0.14, "operators": [{"name": "LXJ"}]}, {"destination": {"icao": "KIPL", "iata": "IPL", "name": "Imperial County", "shortName": "County", "municipalityName": "Imperial", "location": {"lat": 32.8342, "lon": -115.579}, "countryCode": "US"}, "averageDailyFlights": 0.14, "operators": [{"name": "Southern Airways Express", "iata": "9X", "icao": "FDY"}]}, {"destination": {"icao": "KJLN", "iata": "JLN", "name": "Joplin Regional", "shortName": "Regional", "municipalityName": "Joplin", "location": {"lat": 37.1518, "lon": -94.4983}, "countryCode": "US"}, "averageDailyFlights": 0.14, "operators": [{"name": "NetJets Aviation", "iata": "1I", "icao": "EJA"}]}, {"destination": {"icao": "PHKO", "iata": "KOA", "name": "Kailua/Kona Kona  At Keahole", "shortName": "Kona  At Keahole", "municipalityName": "Kailua/Kona", "location": {"lat": 19.7388, "lon": -156.046}, "countryCode": "US"}, "averageDailyFlights": 0.14, "operators": [{"name": "EJM"}]}, {"destination": {"icao": "KMRY", "iata": "MRY", "name": "Monterey Peninsula", "shortName": "Peninsula", "municipalityName": "Monterey", "location": {"lat": 36.587, "lon": -121.843}, "countryCode": "US"}, "averageDailyFlights": 0.14, "operators": [{"name": "FTH"}]}, {"destination": {"icao": "KMTJ", "iata": "MTJ", "name": "Montrose Regional", "shortName": "Regional", "municipalityName": "Montrose", "location": {"lat": 38.5098, "lon": -107.894}, "countryCode": "US"}, "averageDailyFlights": 0.14, "operators": [{"name": "LXJ"}]}, {"destination": {"icao": "KPSP", "iata": "PSP", "name": "Palm Springs ", "shortName": "Palm Springs", "municipalityName": "Palm Springs", "location": {"lat": 33.8297, "lon": -116.507}, "countryCode": "US"}, "averageDailyFlights": 0.14, "operators": [{"name": "FTH"}]}, {"destination": {"icao": "KDVT", "iata": "DVT", "name": "Phoenix Deer Valley", "shortName": "Deer Valley", "municipalityName": "Phoenix", "location": {"lat": 33.6883, "lon": -112.083}, "countryCode": "US"}, "averageDailyFlights": 0.14, "operators": [{"name": "Kabo Air", "iata": "N9", "icao": "QNK"}]}, {"destination": {"icao": "KRNO", "iata": "RNO", "name": "Reno Tahoe", "shortName": "Tahoe", "municipalityName": "Reno", "location": {"lat": 39.4991, "lon": -119.768}, "countryCode": "US"}, "averageDailyFlights": 0.14, "operators": [{"name": "NetJets Aviation", "iata": "1I", "icao": "EJA"}]}, {"destination": {"icao": "KSBP", "iata": "SBP", "name": "San Luis Obispo San Luis County Regional", "shortName": "San Luis County Regional", "municipalityName": "San Luis Obispo", "location": {"lat": 35.2368, "lon": -120.642}, "countryCode": "US"}, "averageDailyFlights": 0.14, "operators": [{"name": "Kabo Air", "iata": "N9", "icao": "QNK"}]}, {"destination": {"icao": "KSAF", "iata": "SAF", "name": "Santa Fe Municipal", "shortName": "Municipal", "municipalityName": "Santa Fe", "location": {"lat": 35.6171, "lon": -106.089}, "countryCode": "US"}, "averageDailyFlights": 0.14, "operators": [{"name": "VJA"}]}, {"destination": {"icao": "KSTS", "iata": "STS", "name": "Santa Rosa Charles M. Schulz Sonoma County", "shortName": "Charles M. Schulz Sonoma County", "municipalityName": "Santa Rosa", "location": {"lat": 38.509, "lon": -122.813}, "countryCode": "US"}, "averageDailyFlights": 0.14, "operators": [{"name": "KPO"}]}, {"destination": {"icao": "KSDL", "iata": "SCF", "name": "Scottsdale ", "shortName": "Scottsdale", "municipalityName": "Scottsdale", "location": {"lat": 33.6229, "lon": -111.911}, "countryCode": "US"}, "averageDailyFlights": 0.14, "operators": [{"name": "JRE"}]}, {"destination": {"icao": "KSUA", "iata": "SUA", "name": "Stuart Witham Field", "shortName": "Witham Field", "municipalityName": "Stuart", "location": {"lat": 27.1817, "lon": -80.2211}, "countryCode": "US"}, "averageDailyFlights": 0.14, "operators": [{"name": "TWY"}]}, {"destination": {"icao": "KSKX", "iata": "TSM", "name": "Taos Regional", "shortName": "Regional", "municipalityName": "Taos", "location": {"lat": 36.4582, "lon": -105.672}, "countryCode": "US"}, "averageDailyFlights": 0.14, "operators": [{"name": "NetJets Aviation", "iata": "1I", "icao": "EJA"}]}, {"destination": {"icao": "KTTN", "iata": "TTN", "name": "Trenton Mercer", "shortName": "Mercer", "municipalityName": "Trenton", "location": {"lat": 40.2767, "lon": -74.8135}, "countryCode": "US"}, "averageDailyFlights": 0.14, "operators": [{"name": "VJA"}]}, {"destination": {"icao": "KTRK", "iata": "TKF", "name": "Truckee Tahoe", "shortName": "Tahoe", "municipalityName": "Truckee", "location": {"lat": 39.32, "lon": -120.14}, "countryCode": "US"}, "averageDailyFlights": 0.14, "operators": [{"name": "SIS"}]}, {"destination": {"icao": "CYVR", "iata": "YVR", "name": "Vancouver ", "shortName": "Vancouver", "municipalityName": "Vancouver", "location": {"lat": 49.1939, "lon": -123.184}, "countryCode": "CA"}, "averageDailyFlights": 0.14, "operators": [{"name": "NetJets Aviation", "iata": "1I", "icao": "EJA"}]}]}