{"routes": [{"destination": {"icao": "KLAS", "iata": "LAS", "name": "Las Vegas McCarran", "shortName": "McCarran", "municipalityName": "Las Vegas", "location": {"lat": 36.0801, "lon": -115.152}, "countryCode": "US"}, "averageDailyFlights": 15.0, "operators": [{"name": "JRE"}, {"name": "Southwest Airlines", "iata": "WN", "icao": "SWA"}, {"name": "Spirit Airlines", "iata": "NK", "icao": "NKS"}, {"name": "RKS"}, {"name": "LXJ"}, {"name": "Delta Air Lines", "iata": "DL", "icao": "DAL"}]}, {"destination": {"icao": "KLAX", "iata": "LAX", "name": "Los Angeles ", "shortName": "Los Angeles", "municipalityName": "Los Angeles", "location": {"lat": 33.9425, "lon": -118.408}, "countryCode": "US"}, "averageDailyFlights": 14.86, "operators": [{"name": "Southwest Airlines", "iata": "WN", "icao": "SWA"}, {"name": "Alaska Airlines", "iata": "AS", "icao": "ASA"}, {"name": "Delta Air Lines", "iata": "DL", "icao": "DAL"}, {"name": "SCW"}, {"name": "Air Canada", "iata": "AC", "icao": "ACA"}, {"name": "NetJets Aviation", "iata": "1I", "icao": "EJA"}, {"name": "BLK"}, {"name": "LXJ"}, {"name": "American Airlines", "iata": "AA", "icao": "AAL"}]}, {"destination": {"icao": "KPDX", "iata": "PDX", "name": "Portland ", "shortName": "Portland", "municipalityName": "Portland", "location": {"lat": 45.5887, "lon": -122.598}, "countryCode": "US"}, "averageDailyFlights": 11.57, "operators": [{"name": "Alaska Airlines", "iata": "AS", "icao": "ASA"}, {"name": "Southwest Airlines", "iata": "WN", "icao": "SWA"}, {"name": "LXJ"}, {"name": "TWY"}]}, {"destination": {"icao": "KSEA", "iata": "SEA", "name": "Seattle Tacoma", "shortName": "Tacoma", "municipalityName": "Seattle", "location": {"lat": 47.449, "lon": -122.309}, "countryCode": "US"}, "averageDailyFlights": 11.29, "operators": [{"name": "Alaska Airlines", "iata": "AS", "icao": "ASA"}, {"name": "Southwest Airlines", "iata": "WN", "icao": "SWA"}, {"name": "Delta Air Lines", "iata": "DL", "icao": "DAL"}, {"name": "XAJTM"}]}, {"destination": {"icao": "KSNA", "iata": "SNA", "name": "Santa Ana John Wayne -Orange County", "shortName": "John Wayne -Orange County", "municipalityName": "Santa Ana", "location": {"lat": 33.6757, "lon": -117.868}, "countryCode": "US"}, "averageDailyFlights": 10.57, "operators": [{"name": "Southwest Airlines", "iata": "WN", "icao": "SWA"}, {"name": "NetJets Aviation", "iata": "1I", "icao": "EJA"}, {"name": "XOJ"}, {"name": "LXJ"}, {"name": "VJA"}, {"name": "PFT"}]}, {"destination": {"icao": "KPHX", "iata": "PHX", "name": "Phoenix Sky Harbor", "shortName": "Sky Harbor", "municipalityName": "Phoenix", "location": {"lat": 33.4343, "lon": -112.012}, "countryCode": "US"}, "averageDailyFlights": 9.43, "operators": [{"name": "Envoy Air", "iata": "MQ", "icao": "ENY"}, {"name": "Southwest Airlines", "iata": "WN", "icao": "SWA"}, {"name": "SkyWest Airlines", "iata": "OO", "icao": "SKW"}, {"name": "NetJets Aviation", "iata": "1I", "icao": "EJA"}, {"name": "LXJ"}, {"name": "American Airlines", "iata": "AA", "icao": "AAL"}]}, {"destination": {"icao": "KDEN", "iata": "DEN", "name": "Denver ", "shortName": "Denver", "municipalityName": "Denver", "location": {"lat": 39.8617, "lon": -104.673}, "countryCode": "US"}, "averageDailyFlights": 9.0, "operators": [{"name": "Southwest Airlines", "iata": "WN", "icao": "SWA"}, {"name": "United Airlines", "iata": "UA", "icao": "UAL"}, {"name": "NetJets Aviation", "iata": "1I", "icao": "EJA"}]}, {"destination": {"icao": "KBUR", "iata": "BUR", "name": "Burbank Bob Hope", "shortName": "Bob Hope", "municipalityName": "Burbank", "location": {"lat": 34.2007, "lon": -118.359}, "countryCode": "US"}, "averageDailyFlights": 8.71, "operators": [{"name": "NetJets Aviation", "iata": "1I", "icao": "EJA"}, {"name": "Southwest Airlines", "iata": "WN", "icao": "SWA"}, {"name": "KPO"}, {"name": "EJM"}, {"name": "LXJ"}, {"name": "JCY"}]}, {"destination": {"icao": "KSLC", "iata": "SLC", "name": "Salt Lake City ", "shortName": "Salt Lake City", "municipalityName": "Salt Lake City", "location": {"lat": 40.7884, "lon": -111.978}, "countryCode": "US"}, "averageDailyFlights": 6.57, "operators": [{"name": "NetJets Aviation", "iata": "1I", "icao": "EJA"}, {"name": "Delta Air Lines", "iata": "DL", "icao": "DAL"}, {"name": "Southwest Airlines", "iata": "WN", "icao": "SWA"}, {"name": "EJM"}, {"name": "VJA"}, {"name": "LXJ"}]}, {"destination": {"icao": "KAUS", "iata": "AUS", "name": "Austin Bergstrom", "shortName": "Bergstrom", "municipalityName": "Austin", "location": {"lat": 30.194498, "lon": -97.6699}, "countryCode": "US"}, "averageDailyFlights": 5.57, "operators": [{"name": "Alaska Airlines", "iata": "AS", "icao": "ASA"}, {"name": "Southwest Airlines", "iata": "WN", "icao": "SWA"}]}, {"destination": {"icao": "KLGB", "iata": "LGB", "name": "Long Beach Daugherty Field/", "shortName": "Daugherty Field/", "municipalityName": "Long Beach", "location": {"lat": 33.8177, "lon": -118.152}, "countryCode": "US"}, "averageDailyFlights": 5.0, "operators": [{"name": "Southwest Airlines", "iata": "WN", "icao": "SWA"}, {"name": "NetJets Aviation", "iata": "1I", "icao": "EJA"}]}, {"destination": {"icao": "KSAN", "iata": "SAN", "name": "San Diego ", "shortName": "San Diego", "municipalityName": "San Diego", "location": {"lat": 32.7336, "lon": -117.19}, "countryCode": "US"}, "averageDailyFlights": 5.0, "operators": [{"name": "Alaska Airlines", "iata": "AS", "icao": "ASA"}, {"name": "Spirit Airlines", "iata": "NK", "icao": "NKS"}, {"name": "NetJets Aviation", "iata": "1I", "icao": "EJA"}, {"name": "EJM"}, {"name": "NJM"}, {"name": "PXT"}, {"name": "LXJ"}]}, {"destination": {"icao": "KONT", "iata": "ONT", "name": "Ontario ", "shortName": "Ontario", "municipalityName": "Ontario", "location": {"lat": 34.056, "lon": -117.601}, "countryCode": "US"}, "averageDailyFlights": 4.57, "operators": [{"name": "Southwest Airlines", "iata": "WN", "icao": "SWA"}, {"name": "Libyan Airlines", "iata": "LN", "icao": "LAA"}]}, {"destination": {"icao": "KDFW", "iata": "DFW", "name": "Dallas-Fort Worth ", "shortName": "Dallas-Fort Worth", "municipalityName": "Dallas-Fort Worth", "location": {"lat": 32.8968, "lon": -97.038}, "countryCode": "US"}, "averageDailyFlights": 4.29, "operators": [{"name": "American Airlines", "iata": "AA", "icao": "AAL"}, {"name": "Spirit Airlines", "iata": "NK", "icao": "NKS"}]}, {"destination": {"icao": "PHNL", "iata": "HNL", "name": "Honolulu ", "shortName": "Honolulu", "municipalityName": "Honolulu", "location": {"lat": 21.3187, "lon": -157.922}, "countryCode": "US"}, "averageDailyFlights": 3.57, "operators": [{"name": "Hawaiian Airlines", "iata": "HA", "icao": "HAL"}, {"name": "Alaska Airlines", "iata": "AS", "icao": "ASA"}, {"name": "Southwest Airlines", "iata": "WN", "icao": "SWA"}, {"name": "VJT"}]}, {"destination": {"icao": "MMGL", "iata": "GDL", "name": "Guadalajara Don Miguel Hidalgo Y Costilla", "shortName": "Don Miguel Hidalgo Y Costilla", "municipalityName": "Guadalajara", "location": {"lat": 20.5218, "lon": -103.311}, "countryCode": "MX"}, "averageDailyFlights": 3.14, "operators": [{"name": "Volaris", "iata": "Y4", "icao": "VOI"}, {"name": "Alaska Airlines", "iata": "AS", "icao": "ASA"}]}, {"destination": {"icao": "PHOG", "iata": "OGG", "name": "Kahului ", "shortName": "Kahului", "municipalityName": "Kahului", "location": {"lat": 20.8986, "lon": -156.43}, "countryCode": "US"}, "averageDailyFlights": 3.14, "operators": [{"name": "Southwest Airlines", "iata": "WN", "icao": "SWA"}, {"name": "Hawaiian Airlines", "iata": "HA", "icao": "HAL"}, {"name": "Alaska Airlines", "iata": "AS", "icao": "ASA"}, {"name": "VJA"}]}, {"destination": {"icao": "KVNY", "iata": "VNY", "name": "Van Nuys ", "shortName": "Van Nuys", "municipalityName": "Van Nuys", "location": {"lat": 34.2098, "lon": -118.49}, "countryCode": "US"}, "averageDailyFlights": 2.86, "operators": [{"name": "DLX"}, {"name": "VNT"}, {"name": "Southwest Airlines", "iata": "WN", "icao": "SWA"}, {"name": "XOJ"}, {"name": "NetJets Aviation", "iata": "1I", "icao": "EJA"}, {"name": "TMB"}, {"name": "LXJ"}, {"name": "EDG"}]}, {"destination": {"icao": "KPSP", "iata": "PSP", "name": "Palm Springs ", "shortName": "Palm Springs", "municipalityName": "Palm Springs", "location": {"lat": 33.8297, "lon": -116.507}, "countryCode": "US"}, "averageDailyFlights": 2.43, "operators": [{"name": "Southwest Airlines", "iata": "WN", "icao": "SWA"}, {"name": "NetJets Aviation", "iata": "1I", "icao": "EJA"}, {"name": "EJM"}, {"name": "TWY"}, {"name": "N2N"}, {"name": "LXJ"}]}, {"destination": {"icao": "KATL", "iata": "ATL", "name": "Atlanta Hartsfield Jackson", "shortName": "Hartsfield Jackson", "municipalityName": "Atlanta", "location": {"lat": 33.6367, "lon": -84.4281}, "countryCode": "US"}, "averageDailyFlights": 2.29, "operators": [{"name": "Delta Air Lines", "iata": "DL", "icao": "DAL"}]}, {"destination": {"icao": "KDAL", "iata": "DAL", "name": "Dallas Love Field", "shortName": "Love Field", "municipalityName": "Dallas", "location": {"lat": 32.8471, "lon": -96.8518}, "countryCode": "US"}, "averageDailyFlights": 2.14, "operators": [{"name": "Southwest Airlines", "iata": "WN", "icao": "SWA"}]}, {"destination": {"icao": "MMSD", "iata": "SJD", "name": "San Jos\u00e9 del Cabo Los Cabos", "shortName": "Los Cabos", "municipalityName": "San Jos\u00e9 del Cabo", "location": {"lat": 23.1518, "lon": -109.721}, "countryCode": "MX"}, "averageDailyFlights": 2.0, "operators": [{"name": "Alaska Airlines", "iata": "AS", "icao": "ASA"}, {"name": "XAAAL"}, {"name": "LXJ"}, {"name": "TWY"}]}, {"destination": {"icao": "KRNO", "iata": "RNO", "name": "Reno Tahoe", "shortName": "Tahoe", "municipalityName": "Reno", "location": {"lat": 39.4991, "lon": -119.768}, "countryCode": "US"}, "averageDailyFlights": 1.86, "operators": [{"name": "TOG"}, {"name": "Southwest Airlines", "iata": "WN", "icao": "SWA"}, {"name": "KOW"}, {"name": "NetJets Aviation", "iata": "1I", "icao": "EJA"}]}, {"destination": {"icao": "PHKO", "iata": "KOA", "name": "Kailua/Kona Kona  At Keahole", "shortName": "Kona  At Keahole", "municipalityName": "Kailua/Kona", "location": {"lat": 19.7388, "lon": -156.046}, "countryCode": "US"}, "averageDailyFlights": 1.71, "operators": [{"name": "Alaska Airlines", "iata": "AS", "icao": "ASA"}, {"name": "TWY"}, {"name": "Southwest Airlines", "iata": "WN", "icao": "SWA"}, {"name": "LXJ"}]}, {"destination": {"icao": "KOAK", "iata": "OAK", "name": "Oakland Metropolitan", "shortName": "Metropolitan", "municipalityName": "Oakland", "location": {"lat": 37.7213, "lon": -122.221}, "countryCode": "US"}, "averageDailyFlights": 1.57, "operators": [{"name": "RKS"}, {"name": "KAI"}, {"name": "TWY"}, {"name": "PXT"}, {"name": "LXJ"}, {"name": "NetJets Aviation", "iata": "1I", "icao": "EJA"}]}, {"destination": {"icao": "KBOI", "iata": "BOI", "name": "Boise Gowen field", "shortName": "Gowen field", "municipalityName": "Boise", "location": {"lat": 43.5644, "lon": -116.223}, "countryCode": "US"}, "averageDailyFlights": 1.43, "operators": [{"name": "Southwest Airlines", "iata": "WN", "icao": "SWA"}, {"name": "NetJets Aviation", "iata": "1I", "icao": "EJA"}, {"name": "SCW"}]}, {"destination": {"icao": "KHOU", "iata": "HOU", "name": "Houston William P Hobby", "shortName": "William P Hobby", "municipalityName": "Houston", "location": {"lat": 29.6454, "lon": -95.2789}, "countryCode": "US"}, "averageDailyFlights": 1.43, "operators": [{"name": "Southwest Airlines", "iata": "WN", "icao": "SWA"}, {"name": "VJA"}]}, {"destination": {"icao": "MMPR", "iata": "PVR", "name": "Puerto Vallarta Licenciado Gustavo D\u00edaz Ordaz", "shortName": "Licenciado Gustavo D\u00edaz Ordaz", "municipalityName": "Puerto Vallarta", "location": {"lat": 20.6801, "lon": -105.254}, "countryCode": "MX"}, "averageDailyFlights": 1.43, "operators": [{"name": "Alaska Airlines", "iata": "AS", "icao": "ASA"}, {"name": "VJA"}]}, {"destination": {"icao": "KSFO", "iata": "SFO", "name": "San Francisco ", "shortName": "San Francisco", "municipalityName": "San Francisco", "location": {"lat": 37.619, "lon": -122.375}, "countryCode": "US"}, "averageDailyFlights": 1.43, "operators": [{"name": "NetJets Aviation", "iata": "1I", "icao": "EJA"}, {"name": "United Airlines", "iata": "UA", "icao": "UAL"}, {"name": "XOJ"}, {"name": "Alaska Airlines", "iata": "AS", "icao": "ASA"}]}, {"destination": {"icao": "KASE", "iata": "ASE", "name": "Aspen Sardy Field", "shortName": "Sardy Field", "municipalityName": "Aspen", "location": {"lat": 39.2232, "lon": -106.869}, "countryCode": "US"}, "averageDailyFlights": 1.29, "operators": [{"name": "NetJets Aviation", "iata": "1I", "icao": "EJA"}, {"name": "JRE"}, {"name": "XOJ"}, {"name": "EJM"}]}, {"destination": {"icao": "KMDW", "iata": "MDW", "name": "Chicago Midway", "shortName": "Midway", "municipalityName": "Chicago", "location": {"lat": 41.786, "lon": -87.7524}, "countryCode": "US"}, "averageDailyFlights": 1.29, "operators": [{"name": "Southwest Airlines", "iata": "WN", "icao": "SWA"}, {"name": "LXJ"}]}, {"destination": {"icao": "KEUG", "iata": "EUG", "name": "Eugene Mahlon Sweet Field", "shortName": "Mahlon Sweet Field", "municipalityName": "Eugene", "location": {"lat": 44.1246, "lon": -123.212}, "countryCode": "US"}, "averageDailyFlights": 1.29, "operators": [{"name": "Southwest Airlines", "iata": "WN", "icao": "SWA"}]}, {"destination": {"icao": "KBZN", "iata": "BZN", "name": "Bozeman Gallatin Field", "shortName": "Gallatin Field", "municipalityName": "Bozeman", "location": {"lat": 45.7775, "lon": -111.153}, "countryCode": "US"}, "averageDailyFlights": 1.14, "operators": [{"name": "VJA"}, {"name": "NetJets Aviation", "iata": "1I", "icao": "EJA"}, {"name": "LXJ"}, {"name": "TWY"}]}, {"destination": {"icao": "KMSP", "iata": "MSP", "name": "Minneapolis Wold-Chamberlain", "shortName": "Wold-Chamberlain", "municipalityName": "Minneapolis", "location": {"lat": 44.882, "lon": -93.2218}, "countryCode": "US"}, "averageDailyFlights": 1.14, "operators": [{"name": "Delta Air Lines", "iata": "DL", "icao": "DAL"}]}, {"destination": {"icao": "KBNA", "iata": "BNA", "name": "Nashville ", "shortName": "Nashville", "municipalityName": "Nashville", "location": {"lat": 36.1245, "lon": -86.6782}, "countryCode": "US"}, "averageDailyFlights": 1.14, "operators": [{"name": "Southwest Airlines", "iata": "WN", "icao": "SWA"}]}, {"destination": {"icao": "KSTL", "iata": "STL", "name": "Saint Louis Lambert St Louis", "shortName": "Lambert St Louis", "municipalityName": "Saint Louis", "location": {"lat": 38.7487, "lon": -90.37}, "countryCode": "US"}, "averageDailyFlights": 1.14, "operators": [{"name": "Southwest Airlines", "iata": "WN", "icao": "SWA"}]}, {"destination": {"icao": "KGEG", "iata": "GEG", "name": "Spokane ", "shortName": "Spokane", "municipalityName": "Spokane", "location": {"lat": 47.6199, "lon": -117.534}, "countryCode": "US"}, "averageDailyFlights": 1.14, "operators": [{"name": "Southwest Airlines", "iata": "WN", "icao": "SWA"}]}, {"destination": {"icao": "KORD", "iata": "ORD", "name": "Chicago O'Hare", "shortName": "O'Hare", "municipalityName": "Chicago", "location": {"lat": 41.9786, "lon": -87.9048}, "countryCode": "US"}, "averageDailyFlights": 1.0, "operators": [{"name": "United Airlines", "iata": "UA", "icao": "UAL"}]}, {"destination": {"icao": "KJAC", "iata": "JAC", "name": "Jackson Hole", "shortName": "Hole", "municipalityName": "Jackson", "location": {"lat": 43.6073, "lon": -110.738}, "countryCode": "US"}, "averageDailyFlights": 1.0, "operators": [{"name": "NetJets Aviation", "iata": "1I", "icao": "EJA"}, {"name": "Vuela El Salvador", "iata": "N3", "icao": "VOS"}, {"name": "KPO"}, {"name": "FTH"}]}, {"destination": {"icao": "KSBA", "iata": "SBA", "name": "Santa Barbara Municipal", "shortName": "Municipal", "municipalityName": "Santa Barbara", "location": {"lat": 34.4262, "lon": -119.84}, "countryCode": "US"}, "averageDailyFlights": 1.0, "operators": [{"name": "NetJets Aviation", "iata": "1I", "icao": "EJA"}, {"name": "PXT"}, {"name": "My Jet Xpress Airlines", "iata": "N7", "icao": "NEP"}, {"name": "JRE"}]}, {"destination": {"icao": "KBFI", "iata": "BFI", "name": "Seattle Boeing Field King County", "shortName": "Boeing Field King County", "municipalityName": "Seattle", "location": {"lat": 47.53, "lon": -122.302}, "countryCode": "US"}, "averageDailyFlights": 1.0, "operators": [{"name": "NetJets Aviation", "iata": "1I", "icao": "EJA"}, {"name": "SCW"}, {"name": "Advanced Air", "iata": "AN", "icao": "WSN"}]}, {"destination": {"icao": "RJAA", "iata": "NRT", "name": "Tokyo Narita", "shortName": "Narita", "municipalityName": "Tokyo", "location": {"lat": 35.7647, "lon": 140.386}, "countryCode": "JP"}, "averageDailyFlights": 0.86, "operators": [{"name": "ZIPAIR Tokyo", "iata": "ZG", "icao": "TZP"}]}, {"destination": {"icao": "KEGE", "iata": "EGE", "name": "Eagle County Regional", "shortName": "County Regional", "municipalityName": "Eagle", "location": {"lat": 39.6426, "lon": -106.918}, "countryCode": "US"}, "averageDailyFlights": 0.71, "operators": [{"name": "FTH"}, {"name": "NetJets Aviation", "iata": "1I", "icao": "EJA"}, {"name": "LXJ"}]}, {"destination": {"icao": "KFAT", "iata": "FAT", "name": "Fresno Yosemite", "shortName": "Yosemite", "municipalityName": "Fresno", "location": {"lat": 36.7762, "lon": -119.718}, "countryCode": "US"}, "averageDailyFlights": 0.71, "operators": [{"name": "TOG"}]}, {"destination": {"icao": "KSUN", "iata": "SUN", "name": "Hailey Friedman Memorial", "shortName": "Friedman Memorial", "municipalityName": "Hailey", "location": {"lat": 43.5044, "lon": -114.296}, "countryCode": "US"}, "averageDailyFlights": 0.71, "operators": [{"name": "My Jet Xpress Airlines", "iata": "N7", "icao": "NEP"}, {"name": "NetJets Aviation", "iata": "1I", "icao": "EJA"}, {"name": "LXJ"}, {"name": "Nordwind Airlines", "iata": "N4", "icao": "NWS"}]}, {"destination": {"icao": "KTEB", "iata": "TEB", "name": "Teterboro ", "shortName": "Teterboro", "municipalityName": "Teterboro", "location": {"lat": 40.8501, "lon": -74.0608}, "countryCode": "US"}, "averageDailyFlights": 0.71, "operators": [{"name": "NetJets Aviation", "iata": "1I", "icao": "EJA"}, {"name": "EJM"}, {"name": "TWY"}, {"name": "JRE"}]}, {"destination": {"icao": "PHLI", "iata": "LIH", "name": "Lihue ", "shortName": "Lihue", "municipalityName": "Lihue", "location": {"lat": 21.976, "lon": -159.339}, "countryCode": "US"}, "averageDailyFlights": 0.57, "operators": [{"name": "N1"}, {"name": "Southwest Airlines", "iata": "WN", "icao": "SWA"}, {"name": "Alaska Airlines", "iata": "AS", "icao": "ASA"}]}, {"destination": {"icao": "KAPA", "iata": "APA", "name": "Denver Centennial", "shortName": "Centennial", "municipalityName": "Denver", "location": {"lat": 39.5701, "lon": -104.849}, "countryCode": "US"}, "averageDailyFlights": 0.43, "operators": [{"name": "JRE"}, {"name": "CBC"}]}, {"destination": {"icao": "KHDN", "iata": "HDN", "name": "Hayden Yampa Valley", "shortName": "Yampa Valley", "municipalityName": "Hayden", "location": {"lat": 40.4812, "lon": -107.218}, "countryCode": "US"}, "averageDailyFlights": 0.43, "operators": [{"name": "LFG"}, {"name": "LXJ"}]}, {"destination": {"icao": "MMMM", "iata": "MLM", "name": "Morelia General Francisco J. Mujica", "shortName": "General Francisco J. Mujica", "municipalityName": "Morelia", "location": {"lat": 19.8499, "lon": -101.025}, "countryCode": "MX"}, "averageDailyFlights": 0.43, "operators": [{"name": "Volaris", "iata": "Y4", "icao": "VOI"}]}, {"destination": {"icao": "KMHR", "iata": "MHR", "name": "Sacramento Mather", "shortName": "Mather", "municipalityName": "Sacramento", "location": {"lat": 38.5539, "lon": -121.298}, "countryCode": "US"}, "averageDailyFlights": 0.43, "operators": [{"name": "TMB"}, {"name": "Nordwind Airlines", "iata": "N4", "icao": "NWS"}]}, {"destination": {"icao": "KSTS", "iata": "STS", "name": "Santa Rosa Charles M. Schulz Sonoma County", "shortName": "Charles M. Schulz Sonoma County", "municipalityName": "Santa Rosa", "location": {"lat": 38.509, "lon": -122.813}, "countryCode": "US"}, "averageDailyFlights": 0.43, "operators": [{"name": "NetJets Aviation", "iata": "1I", "icao": "EJA"}, {"name": "CMD"}, {"name": "LXJ"}]}, {"destination": {"icao": "MMZC", "iata": "ZCL", "name": "Zacatecas City General Leobardo C. Ruiz", "shortName": "General Leobardo C. Ruiz", "municipalityName": "Zacatecas City", "location": {"lat": 22.8971, "lon": -102.687}, "countryCode": "MX"}, "averageDailyFlights": 0.43, "operators": [{"name": "Volaris", "iata": "Y4", "icao": "VOI"}]}, {"destination": {"icao": "TVSA", "iata": "SVD", "name": "Argyle ", "shortName": "Argyle", "municipalityName": "Argyle", "location": {"lat": 13.156389, "lon": -61.150276}, "countryCode": "VC"}, "averageDailyFlights": 0.29, "operators": [{"name": "KAY"}]}, {"destination": {"icao": "KEKO", "iata": "EKO", "name": "Elko Regional", "shortName": "Regional", "municipalityName": "Elko", "location": {"lat": 40.8249, "lon": -115.792}, "countryCode": "US"}, "averageDailyFlights": 0.29, "operators": [{"name": "Nordwind Airlines", "iata": "N4", "icao": "NWS"}]}, {"destination": {"icao": "KFTW", "iata": "FTW", "name": "Fort Worth Meacham", "shortName": "Meacham", "municipalityName": "Fort Worth", "location": {"lat": 32.8198, "lon": -97.3624}, "countryCode": "US"}, "averageDailyFlights": 0.29, "operators": [{"name": "GHA"}]}, {"destination": {"icao": "MRLB", "iata": "LIR", "name": "Liberia Daniel Oduber Quiros", "shortName": "Daniel Oduber Quiros", "municipalityName": "Liberia", "location": {"lat": 10.593299, "lon": -85.5444}, "countryCode": "CR"}, "averageDailyFlights": 0.29, "operators": [{"name": "TWY"}]}, {"destination": {"icao": "KMRY", "iata": "MRY", "name": "Monterey Peninsula", "shortName": "Peninsula", "municipalityName": "Monterey", "location": {"lat": 36.587, "lon": -121.843}, "countryCode": "US"}, "averageDailyFlights": 0.29, "operators": [{"name": "TWY"}, {"name": "LXJ"}]}, {"destination": {"icao": "KRDD", "iata": "RDD", "name": "Redding Municipal", "shortName": "Municipal", "municipalityName": "Redding", "location": {"lat": 40.509, "lon": -122.293}, "countryCode": "US"}, "averageDailyFlights": 0.29, "operators": [{"name": "TOG"}, {"name": "Nolinor", "iata": "N5", "icao": "NRL"}]}, {"destination": {"icao": "KMCC", "iata": "MCC", "name": "Sacramento Mc Clellan Airfield", "shortName": "Mc Clellan Airfield", "municipalityName": "Sacramento", "location": {"lat": 38.6676, "lon": -121.401}, "countryCode": "US"}, "averageDailyFlights": 0.29, "operators": [{"name": "TWY"}]}, {"destination": {"icao": "KNZY", "iata": "NZY", "name": "San Diego North Island Naval Air Station-Halsey Field", "shortName": "North Island Naval Air Station-Halsey Field", "municipalityName": "San Diego", "location": {"lat": 32.6992, "lon": -117.215}, "countryCode": "US"}, "averageDailyFlights": 0.29, "operators": [{"name": "Southwest Airlines", "iata": "WN", "icao": "SWA"}]}, {"destination": {"icao": "KSBP", "iata": "SBP", "name": "San Luis Obispo San Luis County Regional", "shortName": "San Luis County Regional", "municipalityName": "San Luis Obispo", "location": {"lat": 35.2368, "lon": -120.642}, "countryCode": "US"}, "averageDailyFlights": 0.29, "operators": [{"name": "Alaska Airlines", "iata": "AS", "icao": "ASA"}, {"name": "Nordwind Airlines", "iata": "N4", "icao": "NWS"}]}, {"destination": {"icao": "KSDL", "iata": "SCF", "name": "Scottsdale ", "shortName": "Scottsdale", "municipalityName": "Scottsdale", "location": {"lat": 33.6229, "lon": -111.911}, "countryCode": "US"}, "averageDailyFlights": 0.29, "operators": [{"name": "EJM"}, {"name": "NetJets Aviation", "iata": "1I", "icao": "EJA"}]}, {"destination": {"icao": "MMLO", "iata": "BJX", "name": "Silao Del Baj\u00edo", "shortName": "Del Baj\u00edo", "municipalityName": "Silao", "location": {"lat": 20.9935, "lon": -101.481}, "countryCode": "MX"}, "averageDailyFlights": 0.29, "operators": [{"name": "Volaris", "iata": "Y4", "icao": "VOI"}]}, {"destination": {"icao": "KTRK", "iata": "TKF", "name": "Truckee Tahoe", "shortName": "Tahoe", "municipalityName": "Truckee", "location": {"lat": 39.32, "lon": -120.14}, "countryCode": "US"}, "averageDailyFlights": 0.29, "operators": [{"name": "NetJets Aviation", "iata": "1I", "icao": "EJA"}]}, {"destination": {"icao": "KTUS", "iata": "TUS", "name": "Tucson ", "shortName": "Tucson", "municipalityName": "Tucson", "location": {"lat": 32.1161, "lon": -110.941}, "countryCode": "US"}, "averageDailyFlights": 0.29, "operators": [{"name": "Sun Country Airlines", "iata": "SY", "icao": "SCX"}, {"name": "NetJets Aviation", "iata": "1I", "icao": "EJA"}]}, {"destination": {"icao": "MMUN", "iata": "CUN", "name": "Canc\u00fan ", "shortName": "Canc\u00fan", "municipalityName": "Canc\u00fan", "location": {"lat": 21.0365, "lon": -86.8771}, "countryCode": "MX"}, "averageDailyFlights": 0.14, "operators": [{"name": "VJT"}]}, {"destination": {"icao": "KCRQ", "iata": "CLD", "name": "Carlsbad Mc Clellan-Palomar", "shortName": "Mc Clellan-Palomar", "municipalityName": "Carlsbad", "location": {"lat": 33.1283, "lon": -117.28}, "countryCode": "US"}, "averageDailyFlights": 0.14, "operators": [{"name": "NetJets Aviation", "iata": "1I", "icao": "EJA"}]}, {"destination": {"icao": "KCXP", "iata": "CSN", "name": "Carson City Carson", "shortName": "Carson", "municipalityName": "Carson City", "location": {"lat": 39.1922, "lon": -119.734}, "countryCode": "US"}, "averageDailyFlights": 0.14, "operators": [{"name": "Nordwind Airlines", "iata": "N4", "icao": "NWS"}]}, {"destination": {"icao": "KCMH", "iata": "CMH", "name": "Columbus Port", "shortName": "Port", "municipalityName": "Columbus", "location": {"lat": 39.998, "lon": -82.8919}, "countryCode": "US"}, "averageDailyFlights": 0.14, "operators": [{"name": "SDU"}]}, {"destination": {"icao": "KCCR", "iata": "CCR", "name": "Concord Buchanan Field", "shortName": "Buchanan Field", "municipalityName": "Concord", "location": {"lat": 37.9897, "lon": -122.057}, "countryCode": "US"}, "averageDailyFlights": 0.14, "operators": [{"name": "NetJets Aviation", "iata": "1I", "icao": "EJA"}]}, {"destination": {"icao": "KPAE", "iata": "PAE", "name": "Everett Snohomish County (Paine Field)", "shortName": "Snohomish County (Paine Field)", "municipalityName": "Everett", "location": {"lat": 47.9063, "lon": -122.282}, "countryCode": "US"}, "averageDailyFlights": 0.14, "operators": [{"name": "LXJ"}]}, {"destination": {"icao": "KHNB", "iata": "HNB", "name": "Huntingburg ", "shortName": "Huntingburg", "municipalityName": "Huntingburg", "location": {"lat": 38.249, "lon": -86.9537}, "countryCode": "US"}, "averageDailyFlights": 0.14, "operators": [{"name": "COL"}]}, {"destination": {"icao": "KIDA", "iata": "IDA", "name": "Idaho Falls Regional", "shortName": "Regional", "municipalityName": "Idaho Falls", "location": {"lat": 43.5146, "lon": -112.071}, "countryCode": "US"}, "averageDailyFlights": 0.14, "operators": [{"name": "LXJ"}]}, {"destination": {"icao": "CYKA", "iata": "YKA", "name": "Kamloops ", "shortName": "Kamloops", "municipalityName": "Kamloops", "location": {"lat": 50.7022, "lon": -120.444}, "countryCode": "CA"}, "averageDailyFlights": 0.14, "operators": [{"name": "TCA", "iata": "N6", "icao": "TZS"}]}, {"destination": {"icao": "KLAR", "iata": "LAR", "name": "Laramie Regional", "shortName": "Regional", "municipalityName": "Laramie", "location": {"lat": 41.3121, "lon": -105.675}, "countryCode": "US"}, "averageDailyFlights": 0.14, "operators": [{"name": "NetJets Aviation", "iata": "1I", "icao": "EJA"}]}, {"destination": {"icao": "KHND", "iata": "HSH", "name": "Las Vegas Henderson Executive", "shortName": "Henderson Executive", "municipalityName": "Las Vegas", "location": {"lat": 35.9728, "lon": -115.134}, "countryCode": "US"}, "averageDailyFlights": 0.14, "operators": [{"name": "DHR"}]}, {"destination": {"icao": "CYUL", "iata": "YUL", "name": "Montreal Trudeau", "shortName": "Trudeau", "municipalityName": "Montreal", "location": {"lat": 45.4706, "lon": -73.7408}, "countryCode": "CA"}, "averageDailyFlights": 0.14, "operators": [{"name": "NetJets Aviation", "iata": "1I", "icao": "EJA"}]}, {"destination": {"icao": "KMTJ", "iata": "MTJ", "name": "Montrose Regional", "shortName": "Regional", "municipalityName": "Montrose", "location": {"lat": 38.5098, "lon": -107.894}, "countryCode": "US"}, "averageDailyFlights": 0.14, "operators": [{"name": "LXJ"}]}, {"destination": {"icao": "KAPC", "iata": "APC", "name": "Napa County", "shortName": "County", "municipalityName": "Napa", "location": {"lat": 38.2132, "lon": -122.281}, "countryCode": "US"}, "averageDailyFlights": 0.14, "operators": [{"name": "NetJets Aviation", "iata": "1I", "icao": "EJA"}]}, {"destination": {"icao": "KHVN", "iata": "HVN", "name": "New Haven Tweed", "shortName": "Tweed", "municipalityName": "New Haven", "location": {"lat": 41.2637, "lon": -72.8868}, "countryCode": "US"}, "averageDailyFlights": 0.14, "operators": [{"name": "EDG"}]}, {"destination": {"icao": "KOGD", "iata": "OGD", "name": "Ogden Hinckley", "shortName": "Hinckley", "municipalityName": "Ogden", "location": {"lat": 41.1959, "lon": -112.012}, "countryCode": "US"}, "averageDailyFlights": 0.14, "operators": [{"name": "NetJets Aviation", "iata": "1I", "icao": "EJA"}]}, {"destination": {"icao": "KPIT", "iata": "PIT", "name": "Pittsburgh ", "shortName": "Pittsburgh", "municipalityName": "Pittsburgh", "location": {"lat": 40.4915, "lon": -80.2329}, "countryCode": "US"}, "averageDailyFlights": 0.14, "operators": [{"name": "XOJ"}]}, {"destination": {"icao": "KMYF", "iata": "MYF", "name": "San Diego Montgomery Field", "shortName": "Montgomery Field", "municipalityName": "San Diego", "location": {"lat": 32.8157, "lon": -117.14}, "countryCode": "US"}, "averageDailyFlights": 0.14, "operators": [{"name": "N6AK"}]}, {"destination": {"icao": "KSAF", "iata": "SAF", "name": "Santa Fe Municipal", "shortName": "Municipal", "municipalityName": "Santa Fe", "location": {"lat": 35.6171, "lon": -106.089}, "countryCode": "US"}, "averageDailyFlights": 0.14, "operators": [{"name": "National Airlines", "iata": "N8", "icao": "NCR"}]}, {"destination": {"icao": "KSMX", "iata": "SMX", "name": "Santa Maria Capt G Allan Hancock Field", "shortName": "Capt G Allan Hancock Field", "municipalityName": "Santa Maria", "location": {"lat": 34.8989, "lon": -120.457}, "countryCode": "US"}, "averageDailyFlights": 0.14, "operators": [{"name": "My Jet Xpress Airlines", "iata": "N7", "icao": "NEP"}]}, {"destination": {"icao": "KSMO", "iata": "SMO", "name": "Santa Monica Municipal", "shortName": "Municipal", "municipalityName": "Santa Monica", "location": {"lat": 34.0158, "lon": -118.451}, "countryCode": "US"}, "averageDailyFlights": 0.14, "operators": [{"name": "National Airlines", "iata": "N8", "icao": "NCR"}]}, {"destination": {"icao": "KSRQ", "iata": "SRQ", "name": "Sarasota/Bradenton Sarasota Bradenton", "shortName": "Sarasota Bradenton", "municipalityName": "Sarasota/Bradenton", "location": {"lat": 27.3954, "lon": -82.5544}, "countryCode": "US"}, "averageDailyFlights": 0.14, "operators": [{"name": "LXJ"}]}, {"destination": {"icao": "KSTP", "iata": "STP", "name": "St Paul Downtown Holman Field", "shortName": "Downtown Holman Field", "municipalityName": "St Paul", "location": {"lat": 44.9345, "lon": -93.06}, "countryCode": "US"}, "averageDailyFlights": 0.14, "operators": [{"name": "NetJets Aviation", "iata": "1I", "icao": "EJA"}]}, {"destination": {"icao": "KSGU", "iata": "SGU", "name": "St. George St George Municipal", "shortName": "St George Municipal", "municipalityName": "St. George", "location": {"lat": 37.03639, "lon": -113.51031}, "countryCode": "US"}, "averageDailyFlights": 0.14, "operators": [{"name": "ELZ"}]}, {"destination": {"icao": "KTEX", "iata": "TEX", "name": "Telluride Regional", "shortName": "Regional", "municipalityName": "Telluride", "location": {"lat": 37.9538, "lon": -107.908}, "countryCode": "US"}, "averageDailyFlights": 0.14, "operators": [{"name": "LXJ"}]}, {"destination": {"icao": "TQPF", "iata": "AXA", "name": "The Valley Wallblake", "shortName": "Wallblake", "municipalityName": "The Valley", "location": {"lat": 18.2048, "lon": -63.0551}, "countryCode": "AI"}, "averageDailyFlights": 0.14, "operators": [{"name": "VJT"}]}, {"destination": {"icao": "RJGG", "iata": "NGO", "name": "Tokoname Chubu Centrair", "shortName": "Chubu Centrair", "municipalityName": "Tokoname", "location": {"lat": 34.8584, "lon": 136.805}, "countryCode": "JP"}, "averageDailyFlights": 0.14, "operators": [{"name": "TAG"}]}, {"destination": {"icao": "CYYZ", "iata": "YYZ", "name": "Toronto Pearson", "shortName": "Pearson", "municipalityName": "Toronto", "location": {"lat": 43.6772, "lon": -79.6306}, "countryCode": "CA"}, "averageDailyFlights": 0.14, "operators": [{"name": "Air Canada", "iata": "AC", "icao": "ACA"}]}, {"destination": {"icao": "CYVR", "iata": "YVR", "name": "Vancouver ", "shortName": "Vancouver", "municipalityName": "Vancouver", "location": {"lat": 49.1939, "lon": -123.184}, "countryCode": "CA"}, "averageDailyFlights": 0.14, "operators": [{"name": "ASP"}]}]}