{"routes": [{"destination": {"icao": "KJFK", "iata": "JFK", "name": "New York John F Kennedy", "shortName": "John F Kennedy", "municipalityName": "New York", "location": {"lat": 40.6398, "lon": -73.7789}, "countryCode": "US"}, "averageDailyFlights": 0.86, "operators": [{"name": "Cape Air", "iata": "9K", "icao": "KAP"}]}, {"destination": {"icao": "KBLM", "iata": "BLM", "name": "Belmar/Farmingdale Monmouth Executive", "shortName": "Monmouth Executive", "municipalityName": "Belmar/Farmingdale", "location": {"lat": 40.1869, "lon": -74.1249}, "countryCode": "US"}, "averageDailyFlights": 0.43, "operators": [{"name": "CYC"}]}, {"destination": {"icao": "KSWF", "iata": "SWF", "name": "Newburgh Stewart", "shortName": "Stewart", "municipalityName": "Newburgh", "location": {"lat": 41.5041, "lon": -74.1048}, "countryCode": "US"}, "averageDailyFlights": 0.43, "operators": [{"name": "CYC"}]}, {"destination": {"icao": "KRKD", "iata": "RKD", "name": "Rockland Knox County Regional", "shortName": "Knox County Regional", "municipalityName": "Rockland", "location": {"lat": 44.0601, "lon": -69.0992}, "countryCode": "US"}, "averageDailyFlights": 0.43, "operators": [{"name": "CYC"}]}, {"destination": {"icao": "KSUA", "iata": "SUA", "name": "Stuart Witham Field", "shortName": "Witham Field", "municipalityName": "Stuart", "location": {"lat": 27.1817, "lon": -80.2211}, "countryCode": "US"}, "averageDailyFlights": 0.43, "operators": [{"name": "NJM"}]}, {"destination": {"icao": "KITH", "iata": "ITH", "name": "Ithaca Tompkins Regional", "shortName": "Tompkins Regional", "municipalityName": "Ithaca", "location": {"lat": 42.491, "lon": -76.4584}, "countryCode": "US"}, "averageDailyFlights": 0.29, "operators": [{"name": "FLC"}]}, {"destination": {"icao": "KMDW", "iata": "MDW", "name": "Chicago Midway", "shortName": "Midway", "municipalityName": "Chicago", "location": {"lat": 41.786, "lon": -87.7524}, "countryCode": "US"}, "averageDailyFlights": 0.14, "operators": [{"name": "LXJ"}]}, {"destination": {"icao": "KMDT", "iata": "MDT", "name": "Harrisburg ", "shortName": "Harrisburg", "municipalityName": "Harrisburg", "location": {"lat": 40.1935, "lon": -76.7634}, "countryCode": "US"}, "averageDailyFlights": 0.14, "operators": [{"name": "TEK"}]}, {"destination": {"icao": "KHYA", "iata": "HYA", "name": "Hyannis Barnstable Municipal Boardman Polando Field", "shortName": "Barnstable Municipal Boardman Polando Field", "municipalityName": "Hyannis", "location": {"lat": 41.6693, "lon": -70.2804}, "countryCode": "US"}, "averageDailyFlights": 0.14, "operators": [{"name": "Cape Air", "iata": "9K", "icao": "KAP"}]}, {"destination": {"icao": "KAPF", "iata": "APF", "name": "Naples Municipal", "shortName": "Municipal", "municipalityName": "Naples", "location": {"lat": 26.1526, "lon": -81.7753}, "countryCode": "US"}, "averageDailyFlights": 0.14, "operators": [{"name": "LXJ"}]}, {"destination": {"icao": "KPHL", "iata": "PHL", "name": "Philadelphia ", "shortName": "Philadelphia", "municipalityName": "Philadelphia", "location": {"lat": 39.8719, "lon": -75.2411}, "countryCode": "US"}, "averageDailyFlights": 0.14, "operators": [{"name": "CNS"}]}, {"destination": {"name": "Boston"}, "averageDailyFlights": 0.14, "operators": [{"name": "Cape Air", "iata": "9K", "icao": "KAP"}]}]}