{"routes": [{"destination": {"icao": "KDFW", "iata": "DFW", "name": "Dallas-Fort Worth ", "shortName": "Dallas-Fort Worth", "municipalityName": "Dallas-Fort Worth", "location": {"lat": 32.8968, "lon": -97.038}, "countryCode": "US"}, "averageDailyFlights": 2.29, "operators": [{"name": "American Airlines", "iata": "AA", "icao": "AAL"}]}, {"destination": {"icao": "KSWO", "iata": "SWO", "name": "Stillwater Regional", "shortName": "Regional", "municipalityName": "Stillwater", "location": {"lat": 36.1612, "lon": -97.0857}, "countryCode": "US"}, "averageDailyFlights": 1.14, "operators": [{"name": "OST"}]}, {"destination": {"icao": "KDAL", "iata": "DAL", "name": "Dallas Love Field", "shortName": "Love Field", "municipalityName": "Dallas", "location": {"lat": 32.8471, "lon": -96.8518}, "countryCode": "US"}, "averageDailyFlights": 0.71, "operators": [{"name": "TWY"}]}, {"destination": {"icao": "KOKC", "iata": "OKC", "name": "Oklahoma City Will Rogers World", "shortName": "Will Rogers World", "municipalityName": "Oklahoma City", "location": {"lat": 35.3931, "lon": -97.6007}, "countryCode": "US"}, "averageDailyFlights": 0.14, "operators": [{"name": "SCW"}]}, {"destination": {"icao": "KSFB", "iata": "SFB", "name": "Orlando Sanford", "shortName": "Sanford", "municipalityName": "Orlando", "location": {"lat": 28.7776, "lon": -81.2375}, "countryCode": "US"}, "averageDailyFlights": 0.14, "operators": [{"name": "HWA"}]}, {"destination": {"icao": "KSAF", "iata": "SAF", "name": "Santa Fe Municipal", "shortName": "Municipal", "municipalityName": "Santa Fe", "location": {"lat": 35.6171, "lon": -106.089}, "countryCode": "US"}, "averageDailyFlights": 0.14, "operators": [{"name": "NetJets Aviation", "iata": "1I", "icao": "EJA"}]}, {"destination": {"icao": "KACT", "iata": "ACT", "name": "Waco Regional", "shortName": "Regional", "municipalityName": "Waco", "location": {"lat": 31.6113, "lon": -97.2305}, "countryCode": "US"}, "averageDailyFlights": 0.14, "operators": [{"name": "SCW"}]}, {"destination": {"icao": "KPBI", "iata": "PBI", "name": "West Palm Beach Palm Beach", "shortName": "Palm Beach", "municipalityName": "West Palm Beach", "location": {"lat": 26.6832, "lon": -80.0956}, "countryCode": "US"}, "averageDailyFlights": 0.14, "operators": [{"name": "SDU"}]}]}