{"routes": [{"destination": {"icao": "KORD", "iata": "ORD", "name": "Chicago O'Hare", "shortName": "O'Hare", "municipalityName": "Chicago", "location": {"lat": 41.9786, "lon": -87.9048}, "countryCode": "US"}, "averageDailyFlights": 2.57, "operators": [{"name": "Southern Airways Express", "iata": "9X", "icao": "FDY"}, {"name": "Thai AirAsia", "iata": "FD", "icao": "AIQ"}]}, {"destination": {"icao": "KSTL", "iata": "STL", "name": "Saint Louis Lambert St Louis", "shortName": "Lambert St Louis", "municipalityName": "Saint Louis", "location": {"lat": 38.7487, "lon": -90.37}, "countryCode": "US"}, "averageDailyFlights": 2.0, "operators": [{"name": "Southern Airways Express", "iata": "9X", "icao": "FDY"}]}, {"destination": {"icao": "KFWA", "iata": "FWA", "name": "Fort Wayne ", "shortName": "Fort Wayne", "municipalityName": "Fort Wayne", "location": {"lat": 40.9785, "lon": -85.1951}, "countryCode": "US"}, "averageDailyFlights": 0.29, "operators": [{"name": "Nolinor", "iata": "N5", "icao": "NRL"}]}, {"destination": {"icao": "KAPF", "iata": "APF", "name": "Naples Municipal", "shortName": "Municipal", "municipalityName": "Naples", "location": {"lat": 26.1526, "lon": -81.7753}, "countryCode": "US"}, "averageDailyFlights": 0.29, "operators": [{"name": "DCM"}]}, {"destination": {"icao": "KSBN", "iata": "SBN", "name": "South Bend Regional", "shortName": "Regional", "municipalityName": "South Bend", "location": {"lat": 41.7087, "lon": -86.3173}, "countryCode": "US"}, "averageDailyFlights": 0.29, "operators": [{"name": "Nolinor", "iata": "N5", "icao": "NRL"}]}, {"destination": {"icao": "KEYW", "iata": "EYW", "name": "Key West ", "shortName": "Key West", "municipalityName": "Key West", "location": {"lat": 24.5561, "lon": -81.7596}, "countryCode": "US"}, "averageDailyFlights": 0.14, "operators": [{"name": "DCM"}]}, {"destination": {"icao": "KSVH", "iata": "SVH", "name": "Statesville Regional", "shortName": "Regional", "municipalityName": "Statesville", "location": {"lat": 35.7653, "lon": -80.9539}, "countryCode": "US"}, "averageDailyFlights": 0.14, "operators": [{"name": "DCM"}]}, {"destination": {"icao": "KISW", "iata": "ISW", "name": "Wisconsin Rapids Alexander Field South Wood County", "shortName": "Alexander Field South Wood County", "municipalityName": "Wisconsin Rapids", "location": {"lat": 44.3603, "lon": -89.839}, "countryCode": "US"}, "averageDailyFlights": 0.14, "operators": [{"name": "LXJ"}]}]}