{"routes": [{"destination": {"icao": "LFLL", "iata": "LYS", "name": "Lyon Saint-Exup\u00e9ry", "shortName": "Saint-Exup\u00e9ry", "municipalityName": "Lyon", "location": {"lat": 45.7264, "lon": 5.090829}, "countryCode": "FR"}, "averageDailyFlights": 1.57, "operators": [{"name": "Volotea", "iata": "V7", "icao": "VOE"}, {"name": "Air France", "iata": "AF", "icao": "AFR"}]}, {"destination": {"icao": "LFML", "iata": "MRS", "name": "Marseille Provence", "shortName": "Provence", "municipalityName": "Marseille", "location": {"lat": 43.43927, "lon": 5.221424}, "countryCode": "FR"}, "averageDailyFlights": 1.14, "operators": [{"name": "Volotea", "iata": "V7", "icao": "VOE"}]}, {"destination": {"icao": "LFMN", "iata": "NCE", "name": "Nice -C\u00f4te d'Azur", "shortName": "-C\u00f4te d'Azur", "municipalityName": "Nice", "location": {"lat": 43.6584, "lon": 7.215869}, "countryCode": "FR"}, "averageDailyFlights": 1.0, "operators": [{"name": "Volotea", "iata": "V7", "icao": "VOE"}]}, {"destination": {"icao": "LFMT", "iata": "MPL", "name": "Montpellier/M\u00e9diterran\u00e9e Montpellier-M\u00e9diterran\u00e9e", "shortName": "Montpellier-M\u00e9diterran\u00e9e", "municipalityName": "Montpellier/M\u00e9diterran\u00e9e", "location": {"lat": 43.5762, "lon": 3.96301}, "countryCode": "FR"}, "averageDailyFlights": 0.71, "operators": [{"name": "Volotea", "iata": "V7", "icao": "VOE"}]}, {"destination": {"icao": "LFBO", "iata": "TLS", "name": "Toulouse-Blagnac ", "shortName": "Toulouse-Blagnac", "municipalityName": "Toulouse-Blagnac", "location": {"lat": 43.6291, "lon": 1.363819}, "countryCode": "FR"}, "averageDailyFlights": 0.71, "operators": [{"name": "Volotea", "iata": "V7", "icao": "VOE"}]}]}