{"routes": [{"destination": {"icao": "LCLK", "iata": "LCA", "name": "Larnarca Larnaca", "shortName": "Larnaca", "municipalityName": "Larnarca", "location": {"lat": 34.8751, "lon": 33.6249}, "countryCode": "CY"}, "averageDailyFlights": 13.29, "operators": [{"name": "Aegean Airlines", "iata": "A3", "icao": "AEE"}, {"name": "CYP"}, {"name": "Sky Express", "iata": "GQ", "icao": "SEH"}, {"name": "Wizz Air", "iata": "W6", "icao": "WZZ"}, {"name": "Cyprus Airways", "iata": "CY"}, {"name": "Gulf Air", "iata": "GF", "icao": "GFA"}, {"name": "ASL Airlines Belgium", "iata": "3V", "icao": "TAY"}, {"name": "EAT Leipzig", "iata": "QY", "icao": "BCS"}, {"name": "Cyprus Airways Ltd"}]}, {"destination": {"icao": "LGRP", "iata": "RHO", "name": "Rodes Island Diagoras", "shortName": "Diagoras", "municipalityName": "Rodes Island", "location": {"lat": 36.4054, "lon": 28.0862}, "countryCode": "GR"}, "averageDailyFlights": 10.0, "operators": [{"name": "Sky Express", "iata": "GQ", "icao": "SEH"}, {"name": "Aegean Airlines", "iata": "A3", "icao": "AEE"}]}, {"destination": {"icao": "LGTS", "iata": "SKG", "name": "Thessaloniki Macedonia", "shortName": "Macedonia", "municipalityName": "Thessaloniki", "location": {"lat": 40.5197, "lon": 22.9709}, "countryCode": "GR"}, "averageDailyFlights": 9.3, "operators": [{"name": "Sky Express", "iata": "GQ", "icao": "SEH"}, {"name": "EAT Leipzig", "iata": "QY", "icao": "BCS"}, {"name": "Aegean Airlines", "iata": "A3", "icao": "AEE"}]}, {"destination": {"icao": "LGIR", "iata": "HER", "name": "Heraklion Nikos Kazantzakis", "shortName": "Nikos Kazantzakis", "municipalityName": "Heraklion", "location": {"lat": 35.3397, "lon": 25.1803}, "countryCode": "GR"}, "averageDailyFlights": 9.11, "operators": [{"name": "Sky Express", "iata": "GQ", "icao": "SEH"}, {"name": "Volotea", "iata": "V7", "icao": "VOE"}, {"name": "Aegean Airlines", "iata": "A3", "icao": "AEE"}, {"name": "Bluebird Airways"}]}, {"destination": {"icao": "LIRF", "iata": "FCO", "name": "Rome Leonardo da Vinci\u2013Fiumicino", "shortName": "Leonardo da Vinci\u2013Fiumicino", "municipalityName": "Rome", "location": {"lat": 41.8045, "lon": 12.2508}, "countryCode": "IT"}, "averageDailyFlights": 8.29, "operators": [{"name": "ITA Airways", "iata": "AZ", "icao": "ITY"}, {"name": "Aegean Airlines", "iata": "A3", "icao": "AEE"}, {"name": "Sky Express", "iata": "GQ", "icao": "SEH"}, {"name": "Ryanair", "iata": "FR", "icao": "RYR"}, {"name": "ASL Airlines Belgium", "iata": "3V", "icao": "TAY"}, {"name": "Wizz Air Malta", "iata": "W4", "icao": "WMT"}]}, {"destination": {"icao": "LTFM", "iata": "IST", "name": "Istanbul ", "shortName": "Istanbul", "municipalityName": "Istanbul", "location": {"lat": 41.275276, "lon": 28.751944}, "countryCode": "TR"}, "averageDailyFlights": 6.86, "operators": [{"name": "Turkish Airlines", "iata": "TK", "icao": "THY"}, {"name": "Aegean Airlines", "iata": "A3", "icao": "AEE"}]}, {"destination": {"icao": "EDDF", "iata": "FRA", "name": "Frankfurt-am-Main ", "shortName": "Frankfurt-am-Main", "municipalityName": "Frankfurt-am-Main", "location": {"lat": 50.0264, "lon": 8.543129}, "countryCode": "DE"}, "averageDailyFlights": 6.71, "operators": [{"name": "Lufthansa", "iata": "LH", "icao": "DLH"}, {"name": "Aegean Airlines", "iata": "A3", "icao": "AEE"}, {"name": "Sky Express", "iata": "GQ", "icao": "SEH"}, {"name": "GEC"}]}, {"destination": {"icao": "EGLL", "iata": "LHR", "name": "London Heathrow", "shortName": "Heathrow", "municipalityName": "London", "location": {"lat": 51.4706, "lon": -0.461941}, "countryCode": "GB"}, "averageDailyFlights": 6.43, "operators": [{"name": "British Airways", "iata": "BA", "icao": "BAW"}, {"name": "Aegean Airlines", "iata": "A3", "icao": "AEE"}]}, {"destination": {"icao": "EDDM", "iata": "MUC", "name": "Munich ", "shortName": "Munich", "municipalityName": "Munich", "location": {"lat": 48.3538, "lon": 11.7861}, "countryCode": "DE"}, "averageDailyFlights": 6.29, "operators": [{"name": "Lufthansa", "iata": "LH", "icao": "DLH"}, {"name": "Aegean Airlines", "iata": "A3", "icao": "AEE"}, {"name": "Sky Express", "iata": "GQ", "icao": "SEH"}, {"name": "Star Air A/S", "iata": "DJ", "icao": "SRR"}]}, {"destination": {"icao": "LIMC", "iata": "MXP", "name": "Milan Malpensa", "shortName": "Malpensa", "municipalityName": "Milan", "location": {"lat": 45.6306, "lon": 8.72811}, "countryCode": "IT"}, "averageDailyFlights": 5.87, "operators": [{"name": "Aegean Airlines", "iata": "A3", "icao": "AEE"}, {"name": "Wizz Air Malta", "iata": "W4", "icao": "WMT"}, {"name": "easyJet", "iata": "U2", "icao": "EZY"}, {"name": "Sky Express", "iata": "GQ", "icao": "SEH"}, {"name": "Ryanair", "iata": "FR", "icao": "RYR"}, {"name": "Air Horizont", "iata": "HT", "icao": "HAT"}]}, {"destination": {"icao": "EHAM", "iata": "AMS", "name": "Amsterdam Schiphol", "shortName": "Schiphol", "municipalityName": "Amsterdam", "location": {"lat": 52.3086, "lon": 4.763889}, "countryCode": "NL"}, "averageDailyFlights": 5.43, "operators": [{"name": "KLM", "iata": "KL", "icao": "KLM"}, {"name": "Aegean Airlines", "iata": "A3", "icao": "AEE"}, {"name": "Transavia", "iata": "HV", "icao": "TRA"}]}, {"destination": {"icao": "LFPG", "iata": "CDG", "name": "Paris Charles de Gaulle", "shortName": "Charles de Gaulle", "municipalityName": "Paris", "location": {"lat": 49.0128, "lon": 2.549999}, "countryCode": "FR"}, "averageDailyFlights": 5.14, "operators": [{"name": "Aegean Airlines", "iata": "A3", "icao": "AEE"}, {"name": "Sky Express", "iata": "GQ", "icao": "SEH"}, {"name": "Air France", "iata": "AF", "icao": "AFR"}, {"name": "VJH"}]}, {"destination": {"icao": "LGSA", "iata": "CHQ", "name": "Souda Chania", "shortName": "Chania", "municipalityName": "Souda", "location": {"lat": 35.5317, "lon": 24.1497}, "countryCode": "GR"}, "averageDailyFlights": 4.71, "operators": [{"name": "Aegean Airlines", "iata": "A3", "icao": "AEE"}, {"name": "Sky Express", "iata": "GQ", "icao": "SEH"}]}, {"destination": {"icao": "LSZH", "iata": "ZRH", "name": "Zurich Kloten", "shortName": "Kloten", "municipalityName": "Zurich", "location": {"lat": 47.4647, "lon": 8.549169}, "countryCode": "CH"}, "averageDailyFlights": 4.71, "operators": [{"name": "SWISS", "iata": "LX", "icao": "SWR"}, {"name": "Aegean Airlines", "iata": "A3", "icao": "AEE"}]}, {"destination": {"icao": "LOWW", "iata": "VIE", "name": "Vienna Schwechat", "shortName": "Schwechat", "municipalityName": "Vienna", "location": {"lat": 48.1103, "lon": 16.5697}, "countryCode": "AT"}, "averageDailyFlights": 4.58, "operators": [{"name": "Aegean Airlines", "iata": "A3", "icao": "AEE"}, {"name": "Austrian", "iata": "OS", "icao": "AUA"}, {"name": "Ryanair", "iata": "FR", "icao": "RYR"}, {"name": "Sky Express", "iata": "GQ", "icao": "SEH"}, {"name": "Bluebird Airways"}]}, {"destination": {"icao": "HECA", "iata": "CAI", "name": "Cairo ", "shortName": "Cairo", "municipalityName": "Cairo", "location": {"lat": 30.1219, "lon": 31.4056}, "countryCode": "EG"}, "averageDailyFlights": 4.29, "operators": [{"name": "Aegean Airlines", "iata": "A3", "icao": "AEE"}, {"name": "EgyptAir", "iata": "MS", "icao": "MSR"}]}, {"destination": {"icao": "LLBG", "iata": "TLV", "name": "Tel Aviv Yafo Ben Gurion", "shortName": "Ben Gurion", "municipalityName": "Tel Aviv Yafo", "location": {"lat": 32.0114, "lon": 34.8867}, "countryCode": "IL"}, "averageDailyFlights": 4.29, "operators": [{"name": "El Al", "iata": "LY", "icao": "ELY"}, {"name": "Israir Airlines", "iata": "6H", "icao": "ISR"}, {"name": "Arkia Israeli Airlines", "iata": "IZ", "icao": "AIZ"}]}, {"destination": {"icao": "LGSR", "iata": "JTR", "name": "Santorini Island Santorini", "shortName": "Santorini", "municipalityName": "Santorini Island", "location": {"lat": 36.3992, "lon": 25.4793}, "countryCode": "GR"}, "averageDailyFlights": 3.86, "operators": [{"name": "Aegean Airlines", "iata": "A3", "icao": "AEE"}, {"name": "Volotea", "iata": "V7", "icao": "VOE"}]}, {"destination": {"icao": "EGKK", "iata": "LGW", "name": "London Gatwick", "shortName": "Gatwick", "municipalityName": "London", "location": {"lat": 51.1481, "lon": -0.190277}, "countryCode": "GB"}, "averageDailyFlights": 3.71, "operators": [{"name": "Sky Express", "iata": "GQ", "icao": "SEH"}, {"name": "easyJet", "iata": "U2", "icao": "EZY"}, {"name": "Wizz Air UK", "iata": "W9", "icao": "WUK"}]}, {"destination": {"icao": "LROP", "iata": "OTP", "name": "Bucharest Henri Coand\u0103", "shortName": "Henri Coand\u0103", "municipalityName": "Bucharest", "location": {"lat": 44.5722, "lon": 26.1022}, "countryCode": "RO"}, "averageDailyFlights": 3.57, "operators": [{"name": "Aegean Airlines", "iata": "A3", "icao": "AEE"}, {"name": "Wizz Air Malta", "iata": "W4", "icao": "WMT"}, {"name": "TAROM", "iata": "RO", "icao": "ROT"}]}, {"destination": {"icao": "EDDB", "iata": "BER", "name": "Berlin Brandenburg", "shortName": "Brandenburg", "municipalityName": "Berlin", "location": {"lat": 52.35139, "lon": 13.493889}, "countryCode": "DE"}, "averageDailyFlights": 3.29, "operators": [{"name": "Scoot", "iata": "TR", "icao": "TGW"}, {"name": "Aegean Airlines", "iata": "A3", "icao": "AEE"}, {"name": "Bluebird Airways"}, {"name": "Tibet Airlines", "iata": "TV", "icao": "TBA"}]}, {"destination": {"icao": "EBBR", "iata": "BRU", "name": "Brussels ", "shortName": "Brussels", "municipalityName": "Brussels", "location": {"lat": 50.9014, "lon": 4.484439}, "countryCode": "BE"}, "averageDailyFlights": 3.14, "operators": [{"name": "Aegean Airlines", "iata": "A3", "icao": "AEE"}, {"name": "Sky Express", "iata": "GQ", "icao": "SEH"}]}, {"destination": {"icao": "LHBP", "iata": "BUD", "name": "Budapest Ferenc Liszt", "shortName": "Ferenc Liszt", "municipalityName": "Budapest", "location": {"lat": 47.4369, "lon": 19.255598}, "countryCode": "HU"}, "averageDailyFlights": 3.14, "operators": [{"name": "Ryanair", "iata": "FR", "icao": "RYR"}, {"name": "Wizz Air", "iata": "W6", "icao": "WZZ"}, {"name": "Aegean Airlines", "iata": "A3", "icao": "AEE"}, {"name": "Bluebird Airways"}, {"name": "Sky Express", "iata": "GQ", "icao": "SEH"}]}, {"destination": {"icao": "LGHI", "iata": "JKH", "name": "Chios Island National", "shortName": "National", "municipalityName": "Chios Island", "location": {"lat": 38.3432, "lon": 26.1406}, "countryCode": "GR"}, "averageDailyFlights": 3.02, "operators": [{"name": "Sky Express", "iata": "GQ", "icao": "SEH"}, {"name": "Aegean Airlines", "iata": "A3", "icao": "AEE"}]}, {"destination": {"icao": "LEBL", "iata": "BCN", "name": "Barcelona ", "shortName": "Barcelona", "municipalityName": "Barcelona", "location": {"lat": 41.2971, "lon": 2.078459}, "countryCode": "ES"}, "averageDailyFlights": 2.86, "operators": [{"name": "Aegean Airlines", "iata": "A3", "icao": "AEE"}, {"name": "Vueling", "iata": "VY", "icao": "VLG"}]}, {"destination": {"icao": "LGMT", "iata": "MJT", "name": "Mytilene ", "shortName": "Mytilene", "municipalityName": "Mytilene", "location": {"lat": 39.0567, "lon": 26.5983}, "countryCode": "GR"}, "averageDailyFlights": 2.86, "operators": [{"name": "Aegean Airlines", "iata": "A3", "icao": "AEE"}, {"name": "Sky Express", "iata": "GQ", "icao": "SEH"}]}, {"destination": {"name": "Chania"}, "averageDailyFlights": 2.86, "operators": [{"name": "Aegean Airlines", "iata": "A3", "icao": "AEE"}]}, {"destination": {"icao": "LYBE", "iata": "BEG", "name": "Belgrade Nikola Tesla", "shortName": "Nikola Tesla", "municipalityName": "Belgrade", "location": {"lat": 44.8184, "lon": 20.3091}, "countryCode": "RS"}, "averageDailyFlights": 2.68, "operators": [{"name": "Air Serbia", "iata": "JU", "icao": "ASL"}, {"name": "Aegean Airlines", "iata": "A3", "icao": "AEE"}, {"name": "JetSMART", "iata": "JA", "icao": "JAT"}]}, {"destination": {"icao": "LEMD", "iata": "MAD", "name": "Madrid Adolfo Su\u00e1rez \u2013Barajas", "shortName": "Adolfo Su\u00e1rez \u2013Barajas", "municipalityName": "Madrid", "location": {"lat": 40.4936, "lon": -3.56676}, "countryCode": "ES"}, "averageDailyFlights": 2.57, "operators": [{"name": "Aegean Airlines", "iata": "A3", "icao": "AEE"}, {"name": "Iberia", "iata": "IB", "icao": "IBE"}]}, {"destination": {"icao": "LATI", "iata": "TIA", "name": "Tirana Mother Teresa", "shortName": "Mother Teresa", "municipalityName": "Tirana", "location": {"lat": 41.4147, "lon": 19.7206}, "countryCode": "AL"}, "averageDailyFlights": 2.57, "operators": [{"name": "Aegean Airlines", "iata": "A3", "icao": "AEE"}, {"name": "Wizz Air Malta", "iata": "W4", "icao": "WMT"}]}, {"destination": {"icao": "LSGG", "iata": "GVA", "name": "Geneva Cointrin", "shortName": "Cointrin", "municipalityName": "Geneva", "location": {"lat": 46.2381, "lon": 6.10895}, "countryCode": "CH"}, "averageDailyFlights": 2.43, "operators": [{"name": "Aegean Airlines", "iata": "A3", "icao": "AEE"}, {"name": "SWISS", "iata": "LX", "icao": "SWR"}]}, {"destination": {"name": "Mitilini"}, "averageDailyFlights": 2.43, "operators": [{"name": "Aegean Airlines", "iata": "A3", "icao": "AEE"}]}, {"destination": {"icao": "EGSS", "iata": "STN", "name": "London Stansted", "shortName": "Stansted", "municipalityName": "London", "location": {"lat": 51.885, "lon": 0.234999}, "countryCode": "GB"}, "averageDailyFlights": 2.38, "operators": [{"name": "Ryanair", "iata": "FR", "icao": "RYR"}, {"name": "Wizz Air UK", "iata": "W9", "icao": "WUK"}]}, {"destination": {"icao": "EDDL", "iata": "DUS", "name": "Duesseldorf D\u00fcsseldorf", "shortName": "D\u00fcsseldorf", "municipalityName": "Duesseldorf", "location": {"lat": 51.2895, "lon": 6.766779}, "countryCode": "DE"}, "averageDailyFlights": 2.29, "operators": [{"name": "Aegean Airlines", "iata": "A3", "icao": "AEE"}, {"name": "Sky Express", "iata": "GQ", "icao": "SEH"}, {"name": "Eurowings", "iata": "EW", "icao": "EWG"}]}, {"destination": {"icao": "LGKR", "iata": "CFU", "name": "Kerkyra Island Ioannis Kapodistrias", "shortName": "Ioannis Kapodistrias", "municipalityName": "Kerkyra Island", "location": {"lat": 39.6019, "lon": 19.9117}, "countryCode": "GR"}, "averageDailyFlights": 2.29, "operators": [{"name": "Aegean Airlines", "iata": "A3", "icao": "AEE"}, {"name": "Sky Express", "iata": "GQ", "icao": "SEH"}]}, {"destination": {"icao": "LGKO", "iata": "KGS", "name": "Kos Island Kos", "shortName": "Kos", "municipalityName": "Kos Island", "location": {"lat": 36.7933, "lon": 27.0917}, "countryCode": "GR"}, "averageDailyFlights": 2.24, "operators": [{"name": "Aegean Airlines", "iata": "A3", "icao": "AEE"}, {"name": "Sky Express", "iata": "GQ", "icao": "SEH"}]}, {"destination": {"icao": "LGAL", "iata": "AXD", "name": "Alexandroupolis Dimokritos", "shortName": "Dimokritos", "municipalityName": "Alexandroupolis", "location": {"lat": 40.8559, "lon": 25.9563}, "countryCode": "GR"}, "averageDailyFlights": 2.14, "operators": [{"name": "Aegean Airlines", "iata": "A3", "icao": "AEE"}]}, {"destination": {"icao": "OTHH", "iata": "DOH", "name": "Doha Hamad", "shortName": "Hamad", "municipalityName": "Doha", "location": {"lat": 25.273056, "lon": 51.608055}, "countryCode": "QA"}, "averageDailyFlights": 2.14, "operators": [{"name": "Qatar Airways", "iata": "QR", "icao": "QTR"}]}, {"destination": {"icao": "LGIO", "iata": "IOA", "name": "Ioannina ", "shortName": "Ioannina", "municipalityName": "Ioannina", "location": {"lat": 39.6964, "lon": 20.8225}, "countryCode": "GR"}, "averageDailyFlights": 2.14, "operators": [{"name": "Aegean Airlines", "iata": "A3", "icao": "AEE"}]}, {"destination": {"icao": "LGPA", "iata": "PAS", "name": "Paros Island Paros", "shortName": "Paros", "municipalityName": "Paros Island", "location": {"lat": 37.0103, "lon": 25.1281}, "countryCode": "GR"}, "averageDailyFlights": 2.14, "operators": [{"name": "Aegean Airlines", "iata": "A3", "icao": "AEE"}]}, {"destination": {"icao": "OMDB", "iata": "DXB", "name": "Dubai ", "shortName": "Dubai", "municipalityName": "Dubai", "location": {"lat": 25.252798, "lon": 55.3644}, "countryCode": "AE"}, "averageDailyFlights": 2.0, "operators": [{"name": "Emirates", "iata": "EK", "icao": "UAE"}, {"name": "Aegean Airlines", "iata": "A3", "icao": "AEE"}]}, {"destination": {"icao": "LKPR", "iata": "PRG", "name": "Prague Ruzyn\u011b", "shortName": "Ruzyn\u011b", "municipalityName": "Prague", "location": {"lat": 50.1008, "lon": 14.26}, "countryCode": "CZ"}, "averageDailyFlights": 2.0, "operators": [{"name": "Aegean Airlines", "iata": "A3", "icao": "AEE"}, {"name": "Bluebird Airways"}, {"name": "Sky Express", "iata": "GQ", "icao": "SEH"}, {"name": "SmartWings", "iata": "QS", "icao": "TVS"}]}, {"destination": {"icao": "LGSM", "iata": "SMI", "name": "Samos Island Samos", "shortName": "Samos", "municipalityName": "Samos Island", "location": {"lat": 37.69, "lon": 26.9117}, "countryCode": "GR"}, "averageDailyFlights": 2.0, "operators": [{"name": "Aegean Airlines", "iata": "A3", "icao": "AEE"}]}, {"destination": {"name": "Corfu"}, "averageDailyFlights": 2.0, "operators": [{"name": "Aegean Airlines", "iata": "A3", "icao": "AEE"}]}, {"destination": {"icao": "LGMK", "iata": "JMK", "name": "Mykonos Island Mikonos", "shortName": "Mikonos", "municipalityName": "Mykonos Island", "location": {"lat": 37.4351, "lon": 25.3481}, "countryCode": "GR"}, "averageDailyFlights": 1.89, "operators": [{"name": "Aegean Airlines", "iata": "A3", "icao": "AEE"}]}, {"destination": {"icao": "LIPE", "iata": "BLQ", "name": "Bologna Guglielmo Marconi", "shortName": "Guglielmo Marconi", "municipalityName": "Bologna", "location": {"lat": 44.5354, "lon": 11.2887}, "countryCode": "IT"}, "averageDailyFlights": 1.86, "operators": [{"name": "Ryanair", "iata": "FR", "icao": "RYR"}, {"name": "Aegean Airlines", "iata": "A3", "icao": "AEE"}]}, {"destination": {"icao": "EPWA", "iata": "WAW", "name": "Warsaw Chopin", "shortName": "Chopin", "municipalityName": "Warsaw", "location": {"lat": 52.1657, "lon": 20.9671}, "countryCode": "PL"}, "averageDailyFlights": 1.86, "operators": [{"name": "Sky Express", "iata": "GQ", "icao": "SEH"}, {"name": "Aegean Airlines", "iata": "A3", "icao": "AEE"}]}, {"destination": {"icao": "EKCH", "iata": "CPH", "name": "Copenhagen Kastrup", "shortName": "Kastrup", "municipalityName": "Copenhagen", "location": {"lat": 55.6179, "lon": 12.656}, "countryCode": "DK"}, "averageDailyFlights": 1.71, "operators": [{"name": "Aegean Airlines", "iata": "A3", "icao": "AEE"}, {"name": "SAS", "iata": "SK", "icao": "SAS"}]}, {"destination": {"icao": "LTFJ", "iata": "SAW", "name": "Istanbul Sabiha G\u00f6k\u00e7en", "shortName": "Sabiha G\u00f6k\u00e7en", "municipalityName": "Istanbul", "location": {"lat": 40.8986, "lon": 29.3092}, "countryCode": "TR"}, "averageDailyFlights": 1.71, "operators": [{"name": "Pegasus", "iata": "PC", "icao": "PGT"}]}, {"destination": {"icao": "LPPT", "iata": "LIS", "name": "Lisbon Portela", "shortName": "Portela", "municipalityName": "Lisbon", "location": {"lat": 38.7813, "lon": -9.135919}, "countryCode": "PT"}, "averageDailyFlights": 1.71, "operators": [{"name": "Aegean Airlines", "iata": "A3", "icao": "AEE"}, {"name": "easyJet", "iata": "U2", "icao": "EZY"}]}, {"destination": {"icao": "EPKT", "iata": "KTW", "name": "Katowice ", "shortName": "Katowice", "municipalityName": "Katowice", "location": {"lat": 50.4743, "lon": 19.08}, "countryCode": "PL"}, "averageDailyFlights": 1.57, "operators": [{"name": "Wizz Air", "iata": "W6", "icao": "WZZ"}, {"name": "Ryanair", "iata": "FR", "icao": "RYR"}]}, {"destination": {"icao": "ESSA", "iata": "ARN", "name": "Stockholm -Arlanda", "shortName": "-Arlanda", "municipalityName": "Stockholm", "location": {"lat": 59.6519, "lon": 17.9186}, "countryCode": "SE"}, "averageDailyFlights": 1.57, "operators": [{"name": "Aegean Airlines", "iata": "A3", "icao": "AEE"}, {"name": "SAS", "iata": "SK", "icao": "SAS"}]}, {"destination": {"icao": "LGKF", "iata": "EFL", "name": "Kefallinia Island Kefallinia", "shortName": "Kefallinia", "municipalityName": "Kefallinia Island", "location": {"lat": 38.1201, "lon": 20.5005}, "countryCode": "GR"}, "averageDailyFlights": 1.43, "operators": [{"name": "Aegean Airlines", "iata": "A3", "icao": "AEE"}]}, {"destination": {"icao": "LFPO", "iata": "ORY", "name": "Paris -Orly", "shortName": "-Orly", "municipalityName": "Paris", "location": {"lat": 48.7253, "lon": 2.35944}, "countryCode": "FR"}, "averageDailyFlights": 1.43, "operators": [{"name": "Transavia France", "iata": "TO", "icao": "TVF"}]}, {"destination": {"icao": "LIME", "iata": "BGY", "name": "Bergamo Orio al Serio", "shortName": "Orio al Serio", "municipalityName": "Bergamo", "location": {"lat": 45.6739, "lon": 9.70417}, "countryCode": "IT"}, "averageDailyFlights": 1.29, "operators": [{"name": "Ryanair", "iata": "FR", "icao": "RYR"}]}, {"destination": {"icao": "EBCI", "iata": "CRL", "name": "Brussels South Charleroi", "shortName": "South Charleroi", "municipalityName": "Brussels", "location": {"lat": 50.4592, "lon": 4.45382}, "countryCode": "BE"}, "averageDailyFlights": 1.29, "operators": [{"name": "Ryanair", "iata": "FR", "icao": "RYR"}]}, {"destination": {"icao": "OBBI", "iata": "BAH", "name": "Manama Bahrain", "shortName": "Bahrain", "municipalityName": "Manama", "location": {"lat": 26.2708, "lon": 50.6336}, "countryCode": "BH"}, "averageDailyFlights": 1.29, "operators": [{"name": "Gulf Air", "iata": "GF", "icao": "GFA"}, {"name": "Gulf Air Company Gsc"}]}, {"destination": {"icao": "EGCC", "iata": "MAN", "name": "Manchester ", "shortName": "Manchester", "municipalityName": "Manchester", "location": {"lat": 53.3537, "lon": -2.27495}, "countryCode": "GB"}, "averageDailyFlights": 1.29, "operators": [{"name": "Jet2", "iata": "LS", "icao": "EXS"}, {"name": "easyJet", "iata": "U2", "icao": "EZY"}, {"name": "Aegean Airlines", "iata": "A3", "icao": "AEE"}]}, {"destination": {"icao": "LBSF", "iata": "SOF", "name": "Sofia ", "shortName": "Sofia", "municipalityName": "Sofia", "location": {"lat": 42.696693, "lon": 23.411436}, "countryCode": "BG"}, "averageDailyFlights": 1.29, "operators": [{"name": "Aegean Airlines", "iata": "A3", "icao": "AEE"}, {"name": "Bulgaria Air", "iata": "FB", "icao": "LZB"}]}, {"destination": {"icao": "EHEH", "iata": "EIN", "name": "Eindhoven ", "shortName": "Eindhoven", "municipalityName": "Eindhoven", "location": {"lat": 51.4501, "lon": 5.374529}, "countryCode": "NL"}, "averageDailyFlights": 1.14, "operators": [{"name": "Aegean Airlines", "iata": "A3", "icao": "AEE"}, {"name": "Transavia", "iata": "HV", "icao": "TRA"}]}, {"destination": {"icao": "LGKV", "iata": "KVA", "name": "Kavala Alexander the Great", "shortName": "Alexander the Great", "municipalityName": "Kavala", "location": {"lat": 40.9133, "lon": 24.6192}, "countryCode": "GR"}, "averageDailyFlights": 1.14, "operators": [{"name": "Aegean Airlines", "iata": "A3", "icao": "AEE"}]}, {"destination": {"icao": "KEWR", "iata": "EWR", "name": "Newark Liberty", "shortName": "Liberty", "municipalityName": "Newark", "location": {"lat": 40.6925, "lon": -74.1687}, "countryCode": "US"}, "averageDailyFlights": 1.14, "operators": [{"name": "Emirates", "iata": "EK", "icao": "UAE"}]}, {"destination": {"icao": "LWSK", "iata": "SKP", "name": "Skopje Alexander the Great", "shortName": "Alexander the Great", "municipalityName": "Skopje", "location": {"lat": 41.9616, "lon": 21.6214}, "countryCode": "MK"}, "averageDailyFlights": 1.14, "operators": [{"name": "EAT Leipzig", "iata": "QY", "icao": "BCS"}, {"name": "Aegean Airlines", "iata": "A3", "icao": "AEE"}]}, {"destination": {"icao": "LIPZ", "iata": "VCE", "name": "Venice Marco Polo", "shortName": "Marco Polo", "municipalityName": "Venice", "location": {"lat": 45.5053, "lon": 12.3519}, "countryCode": "IT"}, "averageDailyFlights": 1.14, "operators": [{"name": "Aegean Airlines", "iata": "A3", "icao": "AEE"}, {"name": "Volotea", "iata": "V7", "icao": "VOE"}]}, {"destination": {"icao": "OMAA", "iata": "AUH", "name": "Abu Dhabi Island and Internal Islands City Abu Dhabi", "shortName": "Abu Dhabi", "municipalityName": "Abu Dhabi Island and Internal Islands City", "location": {"lat": 24.433, "lon": 54.6511}, "countryCode": "AE"}, "averageDailyFlights": 1.0, "operators": [{"name": "Etihad Airways", "iata": "EY", "icao": "ETD"}, {"name": "Wizz Air Abu Dhabi", "iata": "5W", "icao": "WAZ"}]}, {"destination": {"icao": "LFSB", "iata": "BSL", "name": "B\u00e2le/Mulhouse Euro Basel-Mulhouse-Freiburg", "shortName": "Euro Basel-Mulhouse-Freiburg", "municipalityName": "B\u00e2le/Mulhouse", "location": {"lat": 47.5896, "lon": 7.52991}, "countryCode": "FR"}, "averageDailyFlights": 1.0, "operators": [{"name": "Aegean Airlines", "iata": "A3", "icao": "AEE"}, {"name": "easyJet", "iata": "U2", "icao": "EZY"}]}, {"destination": {"icao": "LGST", "iata": "JSH", "name": "Crete Island Sitia", "shortName": "Sitia", "municipalityName": "Crete Island", "location": {"lat": 35.2161, "lon": 26.1013}, "countryCode": "GR"}, "averageDailyFlights": 1.0, "operators": [{"name": "Aegean Airlines", "iata": "A3", "icao": "AEE"}]}, {"destination": {"icao": "LGNX", "iata": "JNX", "name": "Naxos Island Naxos", "shortName": "Naxos", "municipalityName": "Naxos Island", "location": {"lat": 37.0811, "lon": 25.3681}, "countryCode": "GR"}, "averageDailyFlights": 1.0, "operators": [{"name": "Aegean Airlines", "iata": "A3", "icao": "AEE"}]}, {"destination": {"icao": "UGKO", "iata": "KUT", "name": "Kutaisi Kopitnari", "shortName": "Kopitnari", "municipalityName": "Kutaisi", "location": {"lat": 42.1767, "lon": 42.4826}, "countryCode": "GE"}, "averageDailyFlights": 0.86, "operators": [{"name": "Wizz Air", "iata": "W6", "icao": "WZZ"}]}, {"destination": {"icao": "LMML", "iata": "MLA", "name": "Luqa Malta", "shortName": "Malta", "municipalityName": "Luqa", "location": {"lat": 35.8575, "lon": 14.4775}, "countryCode": "MT"}, "averageDailyFlights": 0.86, "operators": [{"name": "Ryanair", "iata": "FR", "icao": "RYR"}, {"name": "Aegean Airlines", "iata": "A3", "icao": "AEE"}]}, {"destination": {"icao": "KJFK", "iata": "JFK", "name": "New York John F Kennedy", "shortName": "John F Kennedy", "municipalityName": "New York", "location": {"lat": 40.6398, "lon": -73.7789}, "countryCode": "US"}, "averageDailyFlights": 0.86, "operators": [{"name": "Delta Air Lines", "iata": "DL", "icao": "DAL"}]}, {"destination": {"icao": "EDDS", "iata": "STR", "name": "Stuttgart ", "shortName": "Stuttgart", "municipalityName": "Stuttgart", "location": {"lat": 48.6899, "lon": 9.22196}, "countryCode": "DE"}, "averageDailyFlights": 0.86, "operators": [{"name": "Eurowings", "iata": "EW", "icao": "EWG"}, {"name": "Aegean Airlines", "iata": "A3", "icao": "AEE"}]}, {"destination": {"icao": "LGZA", "iata": "ZTH", "name": "Zakynthos Island Dionysios Solomos", "shortName": "Dionysios Solomos", "municipalityName": "Zakynthos Island", "location": {"lat": 37.7509, "lon": 20.8843}, "countryCode": "GR"}, "averageDailyFlights": 0.86, "operators": [{"name": "Aegean Airlines", "iata": "A3", "icao": "AEE"}]}, {"destination": {"icao": "LGLM", "iata": "LXS", "name": "Limnos Island Limnos", "shortName": "Limnos", "municipalityName": "Limnos Island", "location": {"lat": 39.9171, "lon": 25.2363}, "countryCode": "GR"}, "averageDailyFlights": 0.82, "operators": [{"name": "Aegean Airlines", "iata": "A3", "icao": "AEE"}]}, {"destination": {"icao": "LFMN", "iata": "NCE", "name": "Nice -C\u00f4te d'Azur", "shortName": "-C\u00f4te d'Azur", "municipalityName": "Nice", "location": {"lat": 43.6584, "lon": 7.215869}, "countryCode": "FR"}, "averageDailyFlights": 0.73, "operators": [{"name": "Aegean Airlines", "iata": "A3", "icao": "AEE"}, {"name": "FLJ"}, {"name": "Azman Air", "iata": "ZQ", "icao": "AZM"}]}, {"destination": {"icao": "EIDW", "iata": "DUB", "name": "Dublin ", "shortName": "Dublin", "municipalityName": "Dublin", "location": {"lat": 53.4213, "lon": -6.27007}, "countryCode": "IE"}, "averageDailyFlights": 0.71, "operators": [{"name": "Aegean Airlines", "iata": "A3", "icao": "AEE"}, {"name": "Ryanair", "iata": "FR", "icao": "RYR"}]}, {"destination": {"icao": "LGLE", "iata": "LRS", "name": "Leros Island Leros", "shortName": "Leros", "municipalityName": "Leros Island", "location": {"lat": 37.1849, "lon": 26.8003}, "countryCode": "GR"}, "averageDailyFlights": 0.71, "operators": [{"name": "Aegean Airlines", "iata": "A3", "icao": "AEE"}]}, {"destination": {"icao": "ELLX", "iata": "LUX", "name": "Luxembourg -Findel", "shortName": "-Findel", "municipalityName": "Luxembourg", "location": {"lat": 49.6266, "lon": 6.21152}, "countryCode": "LU"}, "averageDailyFlights": 0.71, "operators": [{"name": "Aegean Airlines", "iata": "A3", "icao": "AEE"}]}, {"destination": {"icao": "LFLL", "iata": "LYS", "name": "Lyon Saint-Exup\u00e9ry", "shortName": "Saint-Exup\u00e9ry", "municipalityName": "Lyon", "location": {"lat": 45.7264, "lon": 5.090829}, "countryCode": "FR"}, "averageDailyFlights": 0.71, "operators": [{"name": "Volotea", "iata": "V7", "icao": "VOE"}, {"name": "Transavia France", "iata": "TO", "icao": "TVF"}]}, {"destination": {"icao": "LGML", "iata": "MLO", "name": "Milos Island Milos", "shortName": "Milos", "municipalityName": "Milos Island", "location": {"lat": 36.6969, "lon": 24.4769}, "countryCode": "GR"}, "averageDailyFlights": 0.71, "operators": [{"name": "Aegean Airlines", "iata": "A3", "icao": "AEE"}]}, {"destination": {"icao": "LIRN", "iata": "NAP", "name": "N\u00e1poli Naples", "shortName": "Naples", "municipalityName": "N\u00e1poli", "location": {"lat": 40.886, "lon": 14.2908}, "countryCode": "IT"}, "averageDailyFlights": 0.71, "operators": [{"name": "easyJet", "iata": "U2", "icao": "EZY"}, {"name": "Aegean Airlines", "iata": "A3", "icao": "AEE"}]}, {"destination": {"icao": "EVRA", "iata": "RIX", "localCode": "\u0420\u0418\u0425", "name": "Riga ", "shortName": "Riga", "municipalityName": "Riga", "location": {"lat": 56.9236, "lon": 23.9711}, "countryCode": "LV"}, "averageDailyFlights": 0.71, "operators": [{"name": "Aegean Airlines", "iata": "A3", "icao": "AEE"}, {"name": "airBaltic", "iata": "BT", "icao": "BTI"}]}, {"destination": {"icao": "WSSS", "iata": "SIN", "name": "Singapore Changi", "shortName": "Changi", "municipalityName": "Singapore", "location": {"lat": 1.35019, "lon": 103.994}, "countryCode": "SG"}, "averageDailyFlights": 0.71, "operators": [{"name": "Scoot", "iata": "TR", "icao": "TGW"}, {"name": "Tibet Airlines", "iata": "TV", "icao": "TBA"}]}, {"destination": {"icao": "LZIB", "iata": "BTS", "name": "Bratislava M. R. \u0160tef\u00e1nik", "shortName": "M. R. \u0160tef\u00e1nik", "municipalityName": "Bratislava", "location": {"lat": 48.1702, "lon": 17.2127}, "countryCode": "SK"}, "averageDailyFlights": 0.7, "operators": [{"name": "Aegean Airlines", "iata": "A3", "icao": "AEE"}, {"name": "Sky Express", "iata": "GQ", "icao": "SEH"}, {"name": "Air Explore", "iata": "ED", "icao": "AXE"}]}, {"destination": {"icao": "HAAB", "iata": "ADD", "name": "Addis Ababa Bole", "shortName": "Bole", "municipalityName": "Addis Ababa", "location": {"lat": 8.97789, "lon": 38.7993}, "countryCode": "ET"}, "averageDailyFlights": 0.57, "operators": [{"name": "Ethiopian Airlines", "iata": "ET", "icao": "ETH"}]}, {"destination": {"icao": "OJAI", "iata": "AMM", "name": "Amman Queen Alia", "shortName": "Queen Alia", "municipalityName": "Amman", "location": {"lat": 31.7226, "lon": 35.9932}, "countryCode": "JO"}, "averageDailyFlights": 0.57, "operators": [{"name": "Royal Jordanian", "iata": "RJ", "icao": "RJA"}, {"name": "Aegean Airlines", "iata": "A3", "icao": "AEE"}]}, {"destination": {"icao": "OLBA", "iata": "BEY", "name": "Beirut Rafic Hariri", "shortName": "Rafic Hariri", "municipalityName": "Beirut", "location": {"lat": 33.8209, "lon": 35.4884}, "countryCode": "LB"}, "averageDailyFlights": 0.57, "operators": [{"name": "Middle East Airlines", "iata": "ME", "icao": "MEA"}]}, {"destination": {"icao": "EGPH", "iata": "EDI", "name": "Edinburgh ", "shortName": "Edinburgh", "municipalityName": "Edinburgh", "location": {"lat": 55.95, "lon": -3.372499}, "countryCode": "GB"}, "averageDailyFlights": 0.57, "operators": [{"name": "Aegean Airlines", "iata": "A3", "icao": "AEE"}]}, {"destination": {"icao": "EDDH", "iata": "HAM", "name": "Hamburg ", "shortName": "Hamburg", "municipalityName": "Hamburg", "location": {"lat": 53.6304, "lon": 9.988229}, "countryCode": "DE"}, "averageDailyFlights": 0.57, "operators": [{"name": "Aegean Airlines", "iata": "A3", "icao": "AEE"}]}, {"destination": {"icao": "OEJN", "iata": "JED", "name": "Jeddah King Abdulaziz", "shortName": "King Abdulaziz", "municipalityName": "Jeddah", "location": {"lat": 21.6796, "lon": 39.1565}, "countryCode": "SA"}, "averageDailyFlights": 0.57, "operators": [{"name": "Aegean Airlines", "iata": "A3", "icao": "AEE"}]}, {"destination": {"icao": "LGKP", "iata": "AOK", "name": "Karpathos Island Karpathos", "shortName": "Karpathos", "municipalityName": "Karpathos Island", "location": {"lat": 35.4214, "lon": 27.146}, "countryCode": "GR"}, "averageDailyFlights": 0.57, "operators": [{"name": "Aegean Airlines", "iata": "A3", "icao": "AEE"}, {"name": "Olympic Air", "iata": "OA", "icao": "OAL"}]}, {"destination": {"icao": "EDDP", "iata": "LEJ", "name": "Leipzig Halle", "shortName": "Halle", "municipalityName": "Leipzig", "location": {"lat": 51.4324, "lon": 12.2416}, "countryCode": "DE"}, "averageDailyFlights": 0.57, "operators": [{"name": "EAT Leipzig", "iata": "QY", "icao": "BCS"}]}, {"destination": {"icao": "LFML", "iata": "MRS", "name": "Marseille Provence", "shortName": "Provence", "municipalityName": "Marseille", "location": {"lat": 43.43927, "lon": 5.221424}, "countryCode": "FR"}, "averageDailyFlights": 0.57, "operators": [{"name": "Transavia France", "iata": "TO", "icao": "TVF"}, {"name": "Volotea", "iata": "V7", "icao": "VOE"}]}, {"destination": {"icao": "BIKF", "iata": "KEF", "name": "Reykjavik Keflavik", "shortName": "Keflavik", "municipalityName": "Reykjavik", "location": {"lat": 63.985, "lon": -22.6056}, "countryCode": "IS"}, "averageDailyFlights": 0.57, "operators": [{"name": "FPY"}, {"name": "Ghodawat Enterprises", "iata": "OG", "icao": "SDG"}]}, {"destination": {"icao": "UDYZ", "iata": "EVN", "localCode": "\u0417\u0412\u0420", "name": "Yerevan Zvartnots", "shortName": "Zvartnots", "municipalityName": "Yerevan", "location": {"lat": 40.1473, "lon": 44.3959}, "countryCode": "AM"}, "averageDailyFlights": 0.57, "operators": [{"name": "Aegean Airlines", "iata": "A3", "icao": "AEE"}]}, {"destination": {"icao": "LGIK", "iata": "JIK", "name": "Ikaria Island Ikaria", "shortName": "Ikaria", "municipalityName": "Ikaria Island", "location": {"lat": 37.6827, "lon": 26.3471}, "countryCode": "GR"}, "averageDailyFlights": 0.43, "operators": [{"name": "Aegean Airlines", "iata": "A3", "icao": "AEE"}]}, {"destination": {"icao": "LTBJ", "iata": "ADB", "name": "\u0130zmir Adnan Menderes", "shortName": "Adnan Menderes", "municipalityName": "\u0130zmir", "location": {"lat": 38.2924, "lon": 27.157}, "countryCode": "TR"}, "averageDailyFlights": 0.43, "operators": [{"name": "Aegean Airlines", "iata": "A3", "icao": "AEE"}]}, {"destination": {"icao": "LFRS", "iata": "NTE", "name": "Nantes Atlantique", "shortName": "Atlantique", "municipalityName": "Nantes", "location": {"lat": 47.1532, "lon": -1.61073}, "countryCode": "FR"}, "averageDailyFlights": 0.43, "operators": [{"name": "Volotea", "iata": "V7", "icao": "VOE"}]}, {"destination": {"icao": "ENGM", "iata": "OSL", "name": "Oslo Gardermoen", "shortName": "Gardermoen", "municipalityName": "Oslo", "location": {"lat": 60.1939, "lon": 11.100399}, "countryCode": "NO"}, "averageDailyFlights": 0.43, "operators": [{"name": "Aegean Airlines", "iata": "A3", "icao": "AEE"}]}, {"destination": {"icao": "LCPH", "iata": "PFO", "name": "Paphos ", "shortName": "Paphos", "municipalityName": "Paphos", "location": {"lat": 34.718, "lon": 32.4857}, "countryCode": "CY"}, "averageDailyFlights": 0.43, "operators": [{"name": "Ryanair", "iata": "FR", "icao": "RYR"}]}, {"destination": {"icao": "LGSY", "iata": "SKU", "name": "Skiros Island Skiros", "shortName": "Skiros", "municipalityName": "Skiros Island", "location": {"lat": 38.9676, "lon": 24.4872}, "countryCode": "GR"}, "averageDailyFlights": 0.43, "operators": [{"name": "Aegean Airlines", "iata": "A3", "icao": "AEE"}]}, {"destination": {"icao": "UGTB", "iata": "TBS", "name": "Tbilisi ", "shortName": "Tbilisi", "municipalityName": "Tbilisi", "location": {"lat": 41.6692, "lon": 44.9547}, "countryCode": "GE"}, "averageDailyFlights": 0.43, "operators": [{"name": "Aegean Airlines", "iata": "A3", "icao": "AEE"}]}, {"destination": {"icao": "LEBB", "iata": "BIO", "name": "Bilbao ", "shortName": "Bilbao", "municipalityName": "Bilbao", "location": {"lat": 43.3011, "lon": -2.910609}, "countryCode": "ES"}, "averageDailyFlights": 0.29, "operators": [{"name": "Aegean Airlines", "iata": "A3", "icao": "AEE"}]}, {"destination": {"icao": "EGBB", "iata": "BHX", "name": "Birmingham ", "shortName": "Birmingham", "municipalityName": "Birmingham", "location": {"lat": 52.4539, "lon": -1.748029}, "countryCode": "GB"}, "averageDailyFlights": 0.29, "operators": [{"name": "Aegean Airlines", "iata": "A3", "icao": "AEE"}]}, {"destination": {"icao": "LFBD", "iata": "BOD", "name": "Bordeaux/M\u00e9rignac Bordeaux-M\u00e9rignac", "shortName": "Bordeaux-M\u00e9rignac", "municipalityName": "Bordeaux/M\u00e9rignac", "location": {"lat": 44.8283, "lon": -0.715556}, "countryCode": "FR"}, "averageDailyFlights": 0.29, "operators": [{"name": "Volotea", "iata": "V7", "icao": "VOE"}]}, {"destination": {"icao": "EGGD", "iata": "BRS", "name": "Bristol ", "shortName": "Bristol", "municipalityName": "Bristol", "location": {"lat": 51.3827, "lon": -2.719089}, "countryCode": "GB"}, "averageDailyFlights": 0.29, "operators": [{"name": "Aegean Airlines", "iata": "A3", "icao": "AEE"}]}, {"destination": {"icao": "LUKK", "iata": "KIV", "localCode": "\u041a\u0428\u041d", "name": "Chi\u015fin\u0103u ", "shortName": "Chi\u015fin\u0103u", "municipalityName": "Chi\u015fin\u0103u", "location": {"lat": 46.9277, "lon": 28.931}, "countryCode": "MD"}, "averageDailyFlights": 0.29, "operators": [{"name": "Aegean Airlines", "iata": "A3", "icao": "AEE"}]}, {"destination": {"icao": "EDDK", "iata": "CGN", "name": "Cologne Bonn", "shortName": "Bonn", "municipalityName": "Cologne", "location": {"lat": 50.8659, "lon": 7.142739}, "countryCode": "DE"}, "averageDailyFlights": 0.29, "operators": [{"name": "Aegean Airlines", "iata": "A3", "icao": "AEE"}]}, {"destination": {"icao": "LIRQ", "iata": "FLR", "name": "Firenze Peretola", "shortName": "Peretola", "municipalityName": "Firenze", "location": {"lat": 43.81, "lon": 11.2051}, "countryCode": "IT"}, "averageDailyFlights": 0.29, "operators": [{"name": "Aegean Airlines", "iata": "A3", "icao": "AEE"}]}, {"destination": {"icao": "EFHK", "iata": "HEL", "name": "Helsinki Vantaa", "shortName": "Vantaa", "municipalityName": "Helsinki", "location": {"lat": 60.3172, "lon": 24.9633}, "countryCode": "FI"}, "averageDailyFlights": 0.29, "operators": [{"name": "Aegean Airlines", "iata": "A3", "icao": "AEE"}]}, {"destination": {"icao": "EPKK", "iata": "KRK", "name": "Krak\u00f3w John Paul II   -Balice", "shortName": "John Paul II   -Balice", "municipalityName": "Krak\u00f3w", "location": {"lat": 50.0777, "lon": 19.7848}, "countryCode": "PL"}, "averageDailyFlights": 0.29, "operators": [{"name": "Aegean Airlines", "iata": "A3", "icao": "AEE"}]}, {"destination": {"icao": "OKBK", "iata": "KWI", "name": "Kuwait City Kuwait", "shortName": "Kuwait", "municipalityName": "Kuwait City", "location": {"lat": 29.2266, "lon": 47.9689}, "countryCode": "KW"}, "averageDailyFlights": 0.29, "operators": [{"name": "Kuwait Airways", "iata": "KU", "icao": "KAC"}]}, {"destination": {"icao": "GMMX", "iata": "RAK", "name": "Marrakech Menara", "shortName": "Menara", "municipalityName": "Marrakech", "location": {"lat": 31.6069, "lon": -8.036299}, "countryCode": "MA"}, "averageDailyFlights": 0.29, "operators": [{"name": "Aegean Airlines", "iata": "A3", "icao": "AEE"}]}, {"destination": {"icao": "EGNT", "iata": "NCL", "name": "Newcastle upon Tyne Newcastle", "shortName": "Newcastle", "municipalityName": "Newcastle upon Tyne", "location": {"lat": 55.0375, "lon": -1.691669}, "countryCode": "GB"}, "averageDailyFlights": 0.29, "operators": [{"name": "Aegean Airlines", "iata": "A3", "icao": "AEE"}]}, {"destination": {"icao": "LPPR", "iata": "OPO", "name": "Porto Francisco de S\u00e1 Carneiro", "shortName": "Francisco de S\u00e1 Carneiro", "municipalityName": "Porto", "location": {"lat": 41.2481, "lon": -8.681389}, "countryCode": "PT"}, "averageDailyFlights": 0.29, "operators": [{"name": "Aegean Airlines", "iata": "A3", "icao": "AEE"}]}, {"destination": {"icao": "OERK", "iata": "RUH", "name": "Riyadh King Khaled", "shortName": "King Khaled", "municipalityName": "Riyadh", "location": {"lat": 24.9576, "lon": 46.6988}, "countryCode": "SA"}, "averageDailyFlights": 0.29, "operators": [{"name": "Aegean Airlines", "iata": "A3", "icao": "AEE"}]}, {"destination": {"icao": "LGSK", "iata": "JSI", "name": "Skiathos Island National", "shortName": "Island National", "municipalityName": "Skiathos", "location": {"lat": 39.1771, "lon": 23.5037}, "countryCode": "GR"}, "averageDailyFlights": 0.29, "operators": [{"name": "Aegean Airlines", "iata": "A3", "icao": "AEE"}]}, {"destination": {"icao": "EETN", "iata": "TLL", "localCode": "TLL", "name": "Tallinn Lennart Meri", "shortName": "Lennart Meri", "municipalityName": "Tallinn", "location": {"lat": 59.4133, "lon": 24.8328}, "countryCode": "EE"}, "averageDailyFlights": 0.29, "operators": [{"name": "Aegean Airlines", "iata": "A3", "icao": "AEE"}]}, {"destination": {"icao": "DTTA", "iata": "TUN", "name": "Tunis Carthage", "shortName": "Carthage", "municipalityName": "Tunis", "location": {"lat": 36.851, "lon": 10.227199}, "countryCode": "TN"}, "averageDailyFlights": 0.29, "operators": [{"name": "Aegean Airlines", "iata": "A3", "icao": "AEE"}]}, {"destination": {"icao": "LDZA", "iata": "ZAG", "name": "Zagreb ", "shortName": "Zagreb", "municipalityName": "Zagreb", "location": {"lat": 45.7429, "lon": 16.068798}, "countryCode": "HR"}, "averageDailyFlights": 0.29, "operators": [{"name": "Aegean Airlines", "iata": "A3", "icao": "AEE"}]}, {"destination": {"icao": "UBBB", "iata": "GYD", "localCode": "\u0411\u0410\u041a", "name": "Baku Heydar Aliyev", "shortName": "Heydar Aliyev", "municipalityName": "Baku", "location": {"lat": 40.4675, "lon": 50.0467}, "countryCode": "AZ"}, "averageDailyFlights": 0.14, "operators": [{"name": "Aegean Airlines", "iata": "A3", "icao": "AEE"}]}, {"destination": {"icao": "LOWI", "iata": "INN", "name": "Innsbruck ", "shortName": "Innsbruck", "municipalityName": "Innsbruck", "location": {"lat": 47.2602, "lon": 11.343999}, "countryCode": "AT"}, "averageDailyFlights": 0.14, "operators": [{"name": "Aegean Airlines", "iata": "A3", "icao": "AEE"}]}, {"destination": {"icao": "OMDW", "iata": "DWC", "name": "Jebel Ali Al Maktoum", "shortName": "Al Maktoum", "municipalityName": "Jebel Ali", "location": {"lat": 24.896666, "lon": 55.16139}, "countryCode": "AE"}, "averageDailyFlights": 0.14, "operators": [{"name": "AXY"}]}, {"destination": {"icao": "LGKC", "iata": "KIT", "name": "Kithira Island Kithira", "shortName": "Kithira", "municipalityName": "Kithira Island", "location": {"lat": 36.2743, "lon": 23.017}, "countryCode": "GR"}, "averageDailyFlights": 0.14, "operators": [{"name": "Aegean Airlines", "iata": "A3", "icao": "AEE"}]}, {"destination": {"icao": "EFRO", "iata": "RVN", "name": "Rovaniemi ", "shortName": "Rovaniemi", "municipalityName": "Rovaniemi", "location": {"lat": 66.5648, "lon": 25.8304}, "countryCode": "FI"}, "averageDailyFlights": 0.14, "operators": [{"name": "Aegean Airlines", "iata": "A3", "icao": "AEE"}]}, {"destination": {"icao": "LFBO", "iata": "TLS", "name": "Toulouse-Blagnac ", "shortName": "Toulouse-Blagnac", "municipalityName": "Toulouse-Blagnac", "location": {"lat": 43.6291, "lon": 1.363819}, "countryCode": "FR"}, "averageDailyFlights": 0.14, "operators": [{"name": "Volotea", "iata": "V7", "icao": "VOE"}]}, {"destination": {"name": "Benghazi"}, "averageDailyFlights": 0.14, "operators": [{"name": "EgyptAir", "iata": "MS", "icao": "MSR"}]}, {"destination": {"name": "Craiova"}, "averageDailyFlights": 0.14, "operators": [{"name": "Bluebird Airways"}]}, {"destination": {"name": "Lecce"}, "averageDailyFlights": 0.14, "operators": [{"name": "Astra Airlines"}]}, {"destination": {"name": "Vitoria"}, "averageDailyFlights": 0.14, "operators": [{"name": "Corendon Airlines Europe", "iata": "XR", "icao": "CXI"}]}]}