{"routes": [{"destination": {"icao": "LPPT", "iata": "LIS", "name": "Lisbon Portela", "shortName": "Portela", "municipalityName": "Lisbon", "location": {"lat": 38.7813, "lon": -9.135919}, "countryCode": "PT"}, "averageDailyFlights": 2.43, "operators": [{"name": "TAP Air Portugal", "iata": "TP", "icao": "TAP"}, {"name": "Azores Airlines", "iata": "S4", "icao": "RZO"}, {"name": "Ryanair", "iata": "FR", "icao": "RYR"}]}, {"destination": {"icao": "LPGR", "iata": "GRW", "name": "Santa Cruz da Graciosa Graciosa", "shortName": "Graciosa", "municipalityName": "Santa Cruz da Graciosa", "location": {"lat": 39.0922, "lon": -28.0298}, "countryCode": "PT"}, "averageDailyFlights": 1.86, "operators": [{"name": "SATA Air Acores", "iata": "SP", "icao": "SAT"}]}, {"destination": {"icao": "LPSJ", "iata": "SJZ", "name": "Velas S\u00e3o Jorge", "shortName": "S\u00e3o Jorge", "municipalityName": "Velas", "location": {"lat": 38.6655, "lon": -28.1758}, "countryCode": "PT"}, "averageDailyFlights": 1.43, "operators": [{"name": "SATA Air Acores", "iata": "SP", "icao": "SAT"}]}, {"destination": {"icao": "LPHR", "iata": "HOR", "name": "Horta ", "shortName": "Horta", "municipalityName": "Horta", "location": {"lat": 38.5199, "lon": -28.7159}, "countryCode": "PT"}, "averageDailyFlights": 1.29, "operators": [{"name": "SATA Air Acores", "iata": "SP", "icao": "SAT"}]}, {"destination": {"icao": "LPPI", "iata": "PIX", "name": "Pico Island Pico", "shortName": "Pico", "municipalityName": "Pico Island", "location": {"lat": 38.5543, "lon": -28.4413}, "countryCode": "PT"}, "averageDailyFlights": 1.14, "operators": [{"name": "SATA Air Acores", "iata": "SP", "icao": "SAT"}]}, {"destination": {"icao": "LPPR", "iata": "OPO", "name": "Porto Francisco de S\u00e1 Carneiro", "shortName": "Francisco de S\u00e1 Carneiro", "municipalityName": "Porto", "location": {"lat": 41.2481, "lon": -8.681389}, "countryCode": "PT"}, "averageDailyFlights": 0.86, "operators": [{"name": "Ryanair", "iata": "FR", "icao": "RYR"}, {"name": "Azores Airlines", "iata": "S4", "icao": "RZO"}]}, {"destination": {"icao": "LPFL", "iata": "FLW", "name": "Santa Cruz das Flores Flores", "shortName": "Flores", "municipalityName": "Santa Cruz das Flores", "location": {"lat": 39.4553, "lon": -31.1314}, "countryCode": "PT"}, "averageDailyFlights": 0.29, "operators": [{"name": "SATA Air Acores", "iata": "SP", "icao": "SAT"}]}, {"destination": {"name": "Orta"}, "averageDailyFlights": 0.29, "operators": [{"name": "SATA Air Acores", "iata": "SP", "icao": "SAT"}]}, {"destination": {"name": "Ponta Delgada"}, "averageDailyFlights": 0.29, "operators": [{"name": "SATA Air Acores", "iata": "SP", "icao": "SAT"}]}, {"destination": {"icao": "KBOS", "iata": "BOS", "name": "Boston General Edward Lawrence Logan", "shortName": "General Edward Lawrence Logan", "municipalityName": "Boston", "location": {"lat": 42.3643, "lon": -71.0052}, "countryCode": "US"}, "averageDailyFlights": 0.14, "operators": [{"name": "Azores Airlines", "iata": "S4", "icao": "RZO"}]}]}