{"routes": [{"destination": {"icao": "OERK", "iata": "RUH", "name": "Riyadh King Khaled", "shortName": "King Khaled", "municipalityName": "Riyadh", "location": {"lat": 24.9576, "lon": 46.6988}, "countryCode": "SA"}, "averageDailyFlights": 20.71, "operators": [{"name": "Saudi Arabian Airlines", "iata": "SV", "icao": "SVA"}, {"name": "flyadeal", "iata": "F3", "icao": "FAD"}, {"name": "flynas", "iata": "XY", "icao": "KNE"}]}, {"destination": {"icao": "OEJN", "iata": "JED", "name": "Jeddah King Abdulaziz", "shortName": "King Abdulaziz", "municipalityName": "Jeddah", "location": {"lat": 21.6796, "lon": 39.1565}, "countryCode": "SA"}, "averageDailyFlights": 16.86, "operators": [{"name": "flynas", "iata": "XY", "icao": "KNE"}, {"name": "Saudi Arabian Airlines", "iata": "SV", "icao": "SVA"}, {"name": "flyadeal", "iata": "F3", "icao": "FAD"}]}, {"destination": {"icao": "OEDF", "iata": "DMM", "name": "Ad Dammam King Fahd", "shortName": "King Fahd", "municipalityName": "Ad Dammam", "location": {"lat": 26.4712, "lon": 49.7979}, "countryCode": "SA"}, "averageDailyFlights": 4.57, "operators": [{"name": "flynas", "iata": "XY", "icao": "KNE"}, {"name": "flyadeal", "iata": "F3", "icao": "FAD"}]}, {"destination": {"icao": "HECA", "iata": "CAI", "name": "Cairo ", "shortName": "Cairo", "municipalityName": "Cairo", "location": {"lat": 30.1219, "lon": 31.4056}, "countryCode": "EG"}, "averageDailyFlights": 2.0, "operators": [{"name": "Air Cairo", "iata": "SM", "icao": "MSC"}, {"name": "Nile Air", "iata": "NP", "icao": "NIA"}, {"name": "Air Arabia Egypt", "iata": "E5", "icao": "RBG"}]}, {"destination": {"icao": "OMDB", "iata": "DXB", "name": "Dubai ", "shortName": "Dubai", "municipalityName": "Dubai", "location": {"lat": 25.252798, "lon": 55.3644}, "countryCode": "AE"}, "averageDailyFlights": 1.14, "operators": [{"name": "flydubai", "iata": "FZ", "icao": "FDB"}]}, {"destination": {"icao": "OEMA", "iata": "MED", "name": "Medina Prince Mohammad Bin Abdulaziz", "shortName": "Prince Mohammad Bin Abdulaziz", "municipalityName": "Medina", "location": {"lat": 24.5534, "lon": 39.7051}, "countryCode": "SA"}, "averageDailyFlights": 0.57, "operators": [{"name": "flynas", "iata": "XY", "icao": "KNE"}]}, {"destination": {"icao": "OMSJ", "iata": "SHJ", "name": "Sharjah ", "shortName": "Sharjah", "municipalityName": "Sharjah", "location": {"lat": 25.3286, "lon": 55.5172}, "countryCode": "AE"}, "averageDailyFlights": 0.57, "operators": [{"name": "Air Arabia", "iata": "G9", "icao": "ABY"}]}, {"destination": {"icao": "HEMK", "iata": "HMB", "name": "Sohag ", "shortName": "Sohag", "municipalityName": "Sohag", "location": {"lat": 26.342777, "lon": 31.742777}, "countryCode": "EG"}, "averageDailyFlights": 0.14, "operators": [{"name": "Air Cairo", "iata": "SM", "icao": "MSC"}]}]}