{"routes": [{"destination": {"icao": "OIII", "iata": "THR", "name": "Tehran Mehrabad", "shortName": "Mehrabad", "municipalityName": "Tehran", "location": {"lat": 35.6892, "lon": 51.3134}, "countryCode": "IR"}, "averageDailyFlights": 5.0, "operators": [{"name": "Qeshm Air", "iata": "QB", "icao": "QSM"}, {"name": "Mahan Air", "iata": "W5", "icao": "IRM"}, {"name": "Iran Airtour", "iata": "B9", "icao": "IRB"}, {"name": "Iran Air", "iata": "IR", "icao": "IRA"}, {"name": "Iran Aseman Airlines", "iata": "EP", "icao": "IRC"}]}, {"destination": {"icao": "OIMM", "iata": "MHD", "name": "Mashhad ", "shortName": "Mashhad", "municipalityName": "Mashhad", "location": {"lat": 36.2352, "lon": 59.641}, "countryCode": "IR"}, "averageDailyFlights": 1.29, "operators": [{"name": "Iran Airtour", "iata": "B9", "icao": "IRB"}, {"name": "Sepehran Airlines", "iata": "IS", "icao": "SHI"}]}, {"destination": {"icao": "OISS", "iata": "SYZ", "name": "Shiraz Shahid Dastghaib", "shortName": "Shahid Dastghaib", "municipalityName": "Shiraz", "location": {"lat": 29.5392, "lon": 52.5898}, "countryCode": "IR"}, "averageDailyFlights": 0.71, "operators": [{"name": "Iran Aseman Airlines", "iata": "EP", "icao": "IRC"}, {"name": "Qeshm Air", "iata": "QB", "icao": "QSM"}]}, {"destination": {"icao": "LTFJ", "iata": "SAW", "name": "Istanbul Sabiha G\u00f6k\u00e7en", "shortName": "Sabiha G\u00f6k\u00e7en", "municipalityName": "Istanbul", "location": {"lat": 40.8986, "lon": 29.3092}, "countryCode": "TR"}, "averageDailyFlights": 0.45, "operators": [{"name": "Pegasus", "iata": "PC", "icao": "PGT"}, {"name": "Turkish Airlines", "iata": "TK", "icao": "THY"}]}, {"destination": {"icao": "OIKB", "iata": "BND", "name": "Bandar Abbas ", "shortName": "Bandar Abbas", "municipalityName": "Bandar Abbas", "location": {"lat": 27.2183, "lon": 56.3778}, "countryCode": "IR"}, "averageDailyFlights": 0.29, "operators": [{"name": "Qeshm Air", "iata": "QB", "icao": "QSM"}]}, {"destination": {"icao": "LTFM", "iata": "IST", "name": "Istanbul ", "shortName": "Istanbul", "municipalityName": "Istanbul", "location": {"lat": 41.275276, "lon": 28.751944}, "countryCode": "TR"}, "averageDailyFlights": 0.29, "operators": [{"name": "Iran Airtour", "iata": "B9", "icao": "IRB"}]}, {"destination": {"icao": "OICC", "iata": "KSH", "name": "Kermanshah Shahid Ashrafi Esfahani", "shortName": "Shahid Ashrafi Esfahani", "municipalityName": "Kermanshah", "location": {"lat": 34.3459, "lon": 47.1581}, "countryCode": "IR"}, "averageDailyFlights": 0.29, "operators": [{"name": "Mahan Air", "iata": "W5", "icao": "IRM"}]}, {"destination": {"name": "Hamburg"}, "averageDailyFlights": 0.14, "operators": [{"name": "Qeshm Air", "iata": "QB", "icao": "QSM"}]}]}