{"routes": [{"destination": {"icao": "SAEZ", "iata": "EZE", "name": "Buenos Aires Ministro Pistarini", "shortName": "Ministro Pistarini", "municipalityName": "Buenos Aires", "location": {"lat": -34.8222, "lon": -58.5358}, "countryCode": "AR"}, "averageDailyFlights": 3.14, "operators": [{"name": "Aerolineas Argentinas", "iata": "AR", "icao": "ARG"}, {"name": "Air Labrador", "iata": "WJ", "icao": "LAL"}]}, {"destination": {"icao": "SAWC", "iata": "FTE", "name": "El Calafate ", "shortName": "El Calafate", "municipalityName": "El Calafate", "location": {"lat": -50.2803, "lon": -72.0531}, "countryCode": "AR"}, "averageDailyFlights": 2.86, "operators": [{"name": "Aerolineas Argentinas", "iata": "AR", "icao": "ARG"}]}, {"destination": {"icao": "SACO", "iata": "COR", "name": "C\u00f3rdoba Ingeniero Ambrosio Taravella", "shortName": "Ingeniero Ambrosio Taravella", "municipalityName": "C\u00f3rdoba", "location": {"lat": -31.3236, "lon": -64.208}, "countryCode": "AR"}, "averageDailyFlights": 0.57, "operators": [{"name": "Aerolineas Argentinas", "iata": "AR", "icao": "ARG"}]}, {"destination": {"icao": "SAVT", "iata": "REL", "name": "Rawson Almirante Marco Andres Zar", "shortName": "Almirante Marco Andres Zar", "municipalityName": "Rawson", "location": {"lat": -43.2105, "lon": -65.2703}, "countryCode": "AR"}, "averageDailyFlights": 0.43, "operators": [{"name": "Aerolineas Argentinas", "iata": "AR", "icao": "ARG"}]}, {"destination": {"icao": "SCEL", "iata": "SCL", "name": "Santiago Comodoro Arturo Merino Ben\u00edtez", "shortName": "Comodoro Arturo Merino Ben\u00edtez", "municipalityName": "Santiago", "location": {"lat": -33.393, "lon": -70.7858}, "countryCode": "CL"}, "averageDailyFlights": 0.14, "operators": [{"name": "LATAM", "iata": "LA", "icao": "LAN"}]}]}