{"routes": [{"destination": {"icao": "SBCF", "iata": "CNF", "name": "Belo Horizonte Tancredo Neves", "shortName": "Tancredo Neves", "municipalityName": "Belo Horizonte", "location": {"lat": -19.624443, "lon": -43.971943}, "countryCode": "BR"}, "averageDailyFlights": 9.14, "operators": [{"name": "Azul", "iata": "AD", "icao": "AZU"}]}, {"destination": {"icao": "SBGL", "iata": "GIG", "name": "Rio de Janeiro RIOgale\u00e3o \u2013 Tom Jobim", "shortName": "RIOgale\u00e3o \u2013 Tom Jobim", "municipalityName": "Rio de Janeiro", "location": {"lat": -22.81, "lon": -43.250557}, "countryCode": "BR"}, "averageDailyFlights": 9.0, "operators": [{"name": "Azul", "iata": "AD", "icao": "AZU"}, {"name": "Gol", "iata": "G3", "icao": "GLO"}]}, {"destination": {"icao": "SBCT", "iata": "CWB", "name": "Curitiba Afonso Pena", "shortName": "Afonso Pena", "municipalityName": "Curitiba", "location": {"lat": -25.5285, "lon": -49.1758}, "countryCode": "BR"}, "averageDailyFlights": 7.86, "operators": [{"name": "Azul", "iata": "AD", "icao": "AZU"}]}, {"destination": {"icao": "SBPA", "iata": "POA", "name": "Porto Alegre Salgado Filho", "shortName": "Salgado Filho", "municipalityName": "Porto Alegre", "location": {"lat": -29.9944, "lon": -51.1714}, "countryCode": "BR"}, "averageDailyFlights": 7.29, "operators": [{"name": "Azul", "iata": "AD", "icao": "AZU"}]}, {"destination": {"icao": "SBRF", "iata": "REC", "name": "Recife Guararapes - Gilberto Freyre", "shortName": "Guararapes - Gilberto Freyre", "municipalityName": "Recife", "location": {"lat": -8.126489, "lon": -34.9236}, "countryCode": "BR"}, "averageDailyFlights": 6.71, "operators": [{"name": "Azul", "iata": "AD", "icao": "AZU"}]}, {"destination": {"icao": "SBSV", "iata": "SSA", "name": "Salvador Deputado Luiz Eduardo Magalh\u00e3es", "shortName": "Deputado Luiz Eduardo Magalh\u00e3es", "municipalityName": "Salvador", "location": {"lat": -12.908611, "lon": -38.3225}, "countryCode": "BR"}, "averageDailyFlights": 6.14, "operators": [{"name": "Azul", "iata": "AD", "icao": "AZU"}, {"name": "Gol", "iata": "G3", "icao": "GLO"}]}, {"destination": {"icao": "SBBR", "iata": "BSB", "name": "Bras\u00edlia Presidente Juscelino Kubistschek", "shortName": "Presidente Juscelino Kubistschek", "municipalityName": "Bras\u00edlia", "location": {"lat": -15.869167, "lon": -47.920834}, "countryCode": "BR"}, "averageDailyFlights": 4.86, "operators": [{"name": "Gol", "iata": "G3", "icao": "GLO"}, {"name": "Azul", "iata": "AD", "icao": "AZU"}]}, {"destination": {"icao": "SBSR", "iata": "SJP", "name": "S\u00e3o Jos\u00e9 Do Rio Preto Prof. Eribelto Manoel Reino State", "shortName": "Prof. Eribelto Manoel Reino State", "municipalityName": "S\u00e3o Jos\u00e9 Do Rio Preto", "location": {"lat": -20.8166, "lon": -49.4065}, "countryCode": "BR"}, "averageDailyFlights": 4.29, "operators": [{"name": "Azul", "iata": "AD", "icao": "AZU"}]}, {"destination": {"icao": "SBCY", "iata": "CGB", "name": "Cuiab\u00e1 Marechal Rondon", "shortName": "Marechal Rondon", "municipalityName": "Cuiab\u00e1", "location": {"lat": -15.652899, "lon": -56.1167}, "countryCode": "BR"}, "averageDailyFlights": 4.14, "operators": [{"name": "Azul", "iata": "AD", "icao": "AZU"}]}, {"destination": {"icao": "SBFL", "iata": "FLN", "name": "Florian\u00f3polis Herc\u00edlio Luz", "shortName": "Herc\u00edlio Luz", "municipalityName": "Florian\u00f3polis", "location": {"lat": -27.670279, "lon": -48.5525}, "countryCode": "BR"}, "averageDailyFlights": 4.0, "operators": [{"name": "Azul", "iata": "AD", "icao": "AZU"}]}, {"destination": {"icao": "SBJV", "iata": "JOI", "name": "Joinville Lauro Carneiro de Loyola", "shortName": "Lauro Carneiro de Loyola", "municipalityName": "Joinville", "location": {"lat": -26.2245, "lon": -48.7974}, "countryCode": "BR"}, "averageDailyFlights": 4.0, "operators": [{"name": "Azul", "iata": "AD", "icao": "AZU"}]}, {"destination": {"icao": "SBGO", "iata": "GYN", "name": "Goi\u00e2nia Santa Genoveva", "shortName": "Santa Genoveva", "municipalityName": "Goi\u00e2nia", "location": {"lat": -16.631998, "lon": -49.2207}, "countryCode": "BR"}, "averageDailyFlights": 3.86, "operators": [{"name": "Azul", "iata": "AD", "icao": "AZU"}]}, {"destination": {"icao": "SBNF", "iata": "NVT", "name": "Navegantes Ministro Victor Konder", "shortName": "Ministro Victor Konder", "municipalityName": "Navegantes", "location": {"lat": -26.88, "lon": -48.6514}, "countryCode": "BR"}, "averageDailyFlights": 3.57, "operators": [{"name": "Azul", "iata": "AD", "icao": "AZU"}]}, {"destination": {"icao": "SBLO", "iata": "LDB", "name": "Londrina Governador Jos\u00e9 Richa", "shortName": "Governador Jos\u00e9 Richa", "municipalityName": "Londrina", "location": {"lat": -23.3336, "lon": -51.1301}, "countryCode": "BR"}, "averageDailyFlights": 3.29, "operators": [{"name": "Azul", "iata": "AD", "icao": "AZU"}]}, {"destination": {"icao": "SBBE", "iata": "BEL", "name": "Bel\u00e9m J\u00falio Cezar Ribeiro", "shortName": "J\u00falio Cezar Ribeiro", "municipalityName": "Bel\u00e9m", "location": {"lat": -1.37925, "lon": -48.4763}, "countryCode": "BR"}, "averageDailyFlights": 3.14, "operators": [{"name": "Azul", "iata": "AD", "icao": "AZU"}]}, {"destination": {"icao": "SBMG", "iata": "MGF", "name": "Maring\u00e1 Regional de  - S\u00edlvio Nane Junior", "shortName": "Regional de  - S\u00edlvio Nane Junior", "municipalityName": "Maring\u00e1", "location": {"lat": -23.479445, "lon": -52.012222}, "countryCode": "BR"}, "averageDailyFlights": 3.14, "operators": [{"name": "Azul", "iata": "AD", "icao": "AZU"}]}, {"destination": {"icao": "SBVT", "iata": "VIX", "name": "Vit\u00f3ria Eurico de Aguiar Salles", "shortName": "Eurico de Aguiar Salles", "municipalityName": "Vit\u00f3ria", "location": {"lat": -20.258057, "lon": -40.28639}, "countryCode": "BR"}, "averageDailyFlights": 3.14, "operators": [{"name": "Azul", "iata": "AD", "icao": "AZU"}]}, {"destination": {"icao": "SBEG", "iata": "MAO", "name": "Manaus Eduardo Gomes", "shortName": "Eduardo Gomes", "municipalityName": "Manaus", "location": {"lat": -3.038609, "lon": -60.0497}, "countryCode": "BR"}, "averageDailyFlights": 3.0, "operators": [{"name": "Azul", "iata": "AD", "icao": "AZU"}]}, {"destination": {"icao": "SBDN", "iata": "PPB", "name": "Presidente Prudente ", "shortName": "Presidente Prudente", "municipalityName": "Presidente Prudente", "location": {"lat": -22.1751, "lon": -51.4246}, "countryCode": "BR"}, "averageDailyFlights": 3.0, "operators": [{"name": "Azul", "iata": "AD", "icao": "AZU"}]}, {"destination": {"icao": "SBFZ", "iata": "FOR", "name": "Fortaleza Pinto Martins", "shortName": "Pinto Martins", "municipalityName": "Fortaleza", "location": {"lat": -3.776279, "lon": -38.5326}, "countryCode": "BR"}, "averageDailyFlights": 2.86, "operators": [{"name": "Azul", "iata": "AD", "icao": "AZU"}]}, {"destination": {"icao": "SBCG", "iata": "CGR", "name": "Campo Grande ", "shortName": "Campo Grande", "municipalityName": "Campo Grande", "location": {"lat": -20.4687, "lon": -54.6725}, "countryCode": "BR"}, "averageDailyFlights": 2.57, "operators": [{"name": "Azul", "iata": "AD", "icao": "AZU"}]}, {"destination": {"icao": "SBFI", "iata": "IGU", "name": "Foz do Igua\u00e7u Cataratas", "shortName": "Cataratas", "municipalityName": "Foz do Igua\u00e7u", "location": {"lat": -25.600279, "lon": -54.485}, "countryCode": "BR"}, "averageDailyFlights": 2.57, "operators": [{"name": "Azul", "iata": "AD", "icao": "AZU"}]}, {"destination": {"icao": "SBUL", "iata": "UDI", "name": "Uberl\u00e2ndia Ten. Cel. Aviador C\u00e9sar Bombonato", "shortName": "Ten. Cel. Aviador C\u00e9sar Bombonato", "municipalityName": "Uberl\u00e2ndia", "location": {"lat": -18.883612, "lon": -48.225277}, "countryCode": "BR"}, "averageDailyFlights": 2.43, "operators": [{"name": "Azul", "iata": "AD", "icao": "AZU"}]}, {"destination": {"icao": "SBMO", "iata": "MCZ", "name": "Macei\u00f3 Zumbi dos Palmares", "shortName": "Zumbi dos Palmares", "municipalityName": "Macei\u00f3", "location": {"lat": -9.510809, "lon": -35.7917}, "countryCode": "BR"}, "averageDailyFlights": 2.29, "operators": [{"name": "Azul", "iata": "AD", "icao": "AZU"}]}, {"destination": {"icao": "SBPS", "iata": "BPS", "name": "Porto Seguro ", "shortName": "Porto Seguro", "municipalityName": "Porto Seguro", "location": {"lat": -16.4386, "lon": -39.0809}, "countryCode": "BR"}, "averageDailyFlights": 2.14, "operators": [{"name": "Azul", "iata": "AD", "icao": "AZU"}]}, {"destination": {"icao": "SBCH", "iata": "XAP", "name": "Chapec\u00f3 ", "shortName": "Chapec\u00f3", "municipalityName": "Chapec\u00f3", "location": {"lat": -27.1342, "lon": -52.6566}, "countryCode": "BR"}, "averageDailyFlights": 1.86, "operators": [{"name": "Azul", "iata": "AD", "icao": "AZU"}]}, {"destination": {"icao": "SBSG", "iata": "NAT", "name": "Natal Governador Alu\u00edzio Alves", "shortName": "Governador Alu\u00edzio Alves", "municipalityName": "Natal", "location": {"lat": -5.768056, "lon": -35.37611}, "countryCode": "BR"}, "averageDailyFlights": 1.86, "operators": [{"name": "Azul", "iata": "AD", "icao": "AZU"}]}, {"destination": {"icao": "SBCA", "iata": "CAC", "name": "Cascavel ", "shortName": "Cascavel", "municipalityName": "Cascavel", "location": {"lat": -25.0003, "lon": -53.5008}, "countryCode": "BR"}, "averageDailyFlights": 1.71, "operators": [{"name": "Azul", "iata": "AD", "icao": "AZU"}]}, {"destination": {"icao": "LPPT", "iata": "LIS", "name": "Lisbon Portela", "shortName": "Portela", "municipalityName": "Lisbon", "location": {"lat": 38.7813, "lon": -9.135919}, "countryCode": "PT"}, "averageDailyFlights": 1.71, "operators": [{"name": "Azul", "iata": "AD", "icao": "AZU"}]}, {"destination": {"icao": "SBML", "iata": "MII", "name": "Mar\u00edlia ", "shortName": "Mar\u00edlia", "municipalityName": "Mar\u00edlia", "location": {"lat": -22.1969, "lon": -49.9264}, "countryCode": "BR"}, "averageDailyFlights": 1.71, "operators": [{"name": "Azul", "iata": "AD", "icao": "AZU"}]}, {"destination": {"icao": "SBAE", "iata": "JTC", "name": "Bauru - Arealva", "shortName": "- Arealva", "municipalityName": "Bauru", "location": {"lat": -22.166859, "lon": -49.050285}, "countryCode": "BR"}, "averageDailyFlights": 1.43, "operators": [{"name": "Azul", "iata": "AD", "icao": "AZU"}]}, {"destination": {"icao": "KFLL", "iata": "FLL", "name": "Fort Lauderdale Hollywood", "shortName": "Hollywood", "municipalityName": "Fort Lauderdale", "location": {"lat": 26.0726, "lon": -80.1527}, "countryCode": "US"}, "averageDailyFlights": 1.43, "operators": [{"name": "Azul", "iata": "AD", "icao": "AZU"}]}, {"destination": {"icao": "SBJP", "iata": "JPA", "name": "Jo\u00e3o Pessoa Presidente Castro Pinto", "shortName": "Presidente Castro Pinto", "municipalityName": "Jo\u00e3o Pessoa", "location": {"lat": -7.145833, "lon": -34.948612}, "countryCode": "BR"}, "averageDailyFlights": 1.43, "operators": [{"name": "Azul", "iata": "AD", "icao": "AZU"}]}, {"destination": {"icao": "SBZM", "iata": "IZA", "name": "Juiz de Fora Zona da Mata Regional", "shortName": "Zona da Mata Regional", "municipalityName": "Juiz de Fora", "location": {"lat": -21.513056, "lon": -43.173058}, "countryCode": "BR"}, "averageDailyFlights": 1.43, "operators": [{"name": "Azul", "iata": "AD", "icao": "AZU"}]}, {"destination": {"icao": "SBAU", "iata": "ARU", "name": "Ara\u00e7atuba ", "shortName": "Ara\u00e7atuba", "municipalityName": "Ara\u00e7atuba", "location": {"lat": -21.1413, "lon": -50.4247}, "countryCode": "BR"}, "averageDailyFlights": 1.14, "operators": [{"name": "Azul", "iata": "AD", "icao": "AZU"}]}, {"destination": {"icao": "SBIL", "iata": "IOS", "name": "Ilh\u00e9us Bahia - Jorge Amado", "shortName": "Bahia - Jorge Amado", "municipalityName": "Ilh\u00e9us", "location": {"lat": -14.815999, "lon": -39.0332}, "countryCode": "BR"}, "averageDailyFlights": 1.14, "operators": [{"name": "Azul", "iata": "AD", "icao": "AZU"}]}, {"destination": {"icao": "KMCO", "iata": "MCO", "name": "Orlando ", "shortName": "Orlando", "municipalityName": "Orlando", "location": {"lat": 28.4294, "lon": -81.309}, "countryCode": "US"}, "averageDailyFlights": 1.14, "operators": [{"name": "Azul", "iata": "AD", "icao": "AZU"}]}, {"destination": {"icao": "SBSL", "iata": "SLZ", "name": "S\u00e3o Lu\u00eds Marechal Cunha Machado", "shortName": "Marechal Cunha Machado", "municipalityName": "S\u00e3o Lu\u00eds", "location": {"lat": -2.58536, "lon": -44.2341}, "countryCode": "BR"}, "averageDailyFlights": 1.14, "operators": [{"name": "Azul", "iata": "AD", "icao": "AZU"}]}, {"destination": {"icao": "SBAR", "iata": "AJU", "name": "Aracaju Santa Maria", "shortName": "Santa Maria", "municipalityName": "Aracaju", "location": {"lat": -10.984, "lon": -37.0703}, "countryCode": "BR"}, "averageDailyFlights": 1.0, "operators": [{"name": "Azul", "iata": "AD", "icao": "AZU"}]}, {"destination": {"icao": "SBJU", "iata": "JDO", "name": "Juazeiro do Norte Orlando Bezerra de Menezes", "shortName": "Orlando Bezerra de Menezes", "municipalityName": "Juazeiro do Norte", "location": {"lat": -7.218959, "lon": -39.2701}, "countryCode": "BR"}, "averageDailyFlights": 1.0, "operators": [{"name": "Azul", "iata": "AD", "icao": "AZU"}]}, {"destination": {"icao": "LFPO", "iata": "ORY", "name": "Paris -Orly", "shortName": "-Orly", "municipalityName": "Paris", "location": {"lat": 48.7253, "lon": 2.35944}, "countryCode": "FR"}, "averageDailyFlights": 1.0, "operators": [{"name": "Azul", "iata": "AD", "icao": "AZU"}]}, {"destination": {"icao": "SBPL", "iata": "PNZ", "name": "Petrolina Senador Nilo Coelho", "shortName": "Senador Nilo Coelho", "municipalityName": "Petrolina", "location": {"lat": -9.362409, "lon": -40.5691}, "countryCode": "BR"}, "averageDailyFlights": 1.0, "operators": [{"name": "Azul", "iata": "AD", "icao": "AZU"}]}, {"destination": {"icao": "SBTE", "iata": "THE", "name": "Teresina Senador Petr\u00f4nio Portela", "shortName": "Senador Petr\u00f4nio Portela", "municipalityName": "Teresina", "location": {"lat": -5.059939, "lon": -42.8235}, "countryCode": "BR"}, "averageDailyFlights": 1.0, "operators": [{"name": "Azul", "iata": "AD", "icao": "AZU"}]}, {"destination": {"icao": "SBCX", "iata": "CXJ", "name": "Caxias do Sul Hugo Cantergiani Regional", "shortName": "Hugo Cantergiani Regional", "municipalityName": "Caxias do Sul", "location": {"lat": -29.1971, "lon": -51.1875}, "countryCode": "BR"}, "averageDailyFlights": 0.86, "operators": [{"name": "Azul", "iata": "AD", "icao": "AZU"}]}, {"destination": {"icao": "SBPJ", "iata": "PMW", "name": "Palmas Brigadeiro Lysias Rodrigues", "shortName": "Brigadeiro Lysias Rodrigues", "municipalityName": "Palmas", "location": {"lat": -10.2915, "lon": -48.357}, "countryCode": "BR"}, "averageDailyFlights": 0.86, "operators": [{"name": "Azul", "iata": "AD", "icao": "AZU"}]}, {"destination": {"icao": "SWLC", "iata": "RVD", "name": "Rio Verde General Leite de Castro", "shortName": "General Leite de Castro", "municipalityName": "Rio Verde", "location": {"lat": -17.834723, "lon": -50.956112}, "countryCode": "BR"}, "averageDailyFlights": 0.86, "operators": [{"name": "Azul", "iata": "AD", "icao": "AZU"}]}, {"destination": {"icao": "SWSI", "iata": "OPS", "name": "Sinop Presidente Jo\u00e3o Batista Figueiredo", "shortName": "Presidente Jo\u00e3o Batista Figueiredo", "municipalityName": "Sinop", "location": {"lat": -11.885, "lon": -55.58611}, "countryCode": "BR"}, "averageDailyFlights": 0.86, "operators": [{"name": "Azul", "iata": "AD", "icao": "AZU"}]}, {"destination": {"name": "Zhaguaruna"}, "averageDailyFlights": 0.86, "operators": [{"name": "Azul", "iata": "AD", "icao": "AZU"}]}, {"destination": {"icao": "SULS", "iata": "PDP", "name": "Punta del Este Capitan Corbeta CA Curbelo", "shortName": "Capitan Corbeta CA Curbelo", "municipalityName": "Punta del Este", "location": {"lat": -34.8551, "lon": -55.0943}, "countryCode": "UY"}, "averageDailyFlights": 0.78, "operators": [{"name": "Azul", "iata": "AD", "icao": "AZU"}]}, {"destination": {"icao": "SBCP", "iata": "CAW", "name": "Campos dos Goytacazes Bartolomeu Lisandro", "shortName": "Bartolomeu Lisandro", "municipalityName": "Campos dos Goytacazes", "location": {"lat": -21.6983, "lon": -41.3017}, "countryCode": "BR"}, "averageDailyFlights": 0.71, "operators": [{"name": "Azul", "iata": "AD", "icao": "AZU"}]}, {"destination": {"icao": "SBPF", "iata": "PFB", "name": "Passo Fundo Lauro Kurtz", "shortName": "Lauro Kurtz", "municipalityName": "Passo Fundo", "location": {"lat": -28.244, "lon": -52.3266}, "countryCode": "BR"}, "averageDailyFlights": 0.71, "operators": [{"name": "Azul", "iata": "AD", "icao": "AZU"}]}, {"destination": {"icao": "SBCR", "iata": "CMG", "name": "Corumb\u00e1 ", "shortName": "Corumb\u00e1", "municipalityName": "Corumb\u00e1", "location": {"lat": -19.011944, "lon": -57.67139}, "countryCode": "BR"}, "averageDailyFlights": 0.57, "operators": [{"name": "Azul", "iata": "AD", "icao": "AZU"}]}, {"destination": {"icao": "SWRD", "iata": "ROO", "name": "Rondon\u00f3polis ", "shortName": "Rondon\u00f3polis", "municipalityName": "Rondon\u00f3polis", "location": {"lat": -16.586, "lon": -54.7248}, "countryCode": "BR"}, "averageDailyFlights": 0.43, "operators": [{"name": "Azul", "iata": "AD", "icao": "AZU"}]}, {"destination": {"icao": "SCEL", "iata": "SCL", "name": "Santiago Comodoro Arturo Merino Ben\u00edtez", "shortName": "Comodoro Arturo Merino Ben\u00edtez", "municipalityName": "Santiago", "location": {"lat": -33.393, "lon": -70.7858}, "countryCode": "CL"}, "averageDailyFlights": 0.43, "operators": [{"name": "Korean Air", "iata": "KE", "icao": "KAL"}]}, {"destination": {"icao": "SBPP", "iata": "PMG", "name": "Ponta Por\u00e3 ", "shortName": "Ponta Por\u00e3", "municipalityName": "Ponta Por\u00e3", "location": {"lat": -22.5496, "lon": -55.7026}, "countryCode": "BR"}, "averageDailyFlights": 0.29, "operators": [{"name": "Azul", "iata": "AD", "icao": "AZU"}]}, {"destination": {"icao": "SBTC", "iata": "UNA", "name": "Una Hotel Transam\u00e9rica", "shortName": "Hotel Transam\u00e9rica", "municipalityName": "Una", "location": {"lat": -15.355199, "lon": -38.999}, "countryCode": "BR"}, "averageDailyFlights": 0.29, "operators": [{"name": "Azul", "iata": "AD", "icao": "AZU"}]}, {"destination": {"name": "Tr\u00eas Lagoas"}, "averageDailyFlights": 0.29, "operators": [{"name": "Azul", "iata": "AD", "icao": "AZU"}]}, {"destination": {"icao": "SBBV", "iata": "BVB", "name": "Boa Vista Atlas Brasil Cantanhede", "shortName": "Atlas Brasil Cantanhede", "municipalityName": "Boa Vista", "location": {"lat": 2.841388, "lon": -60.692223}, "countryCode": "BR"}, "averageDailyFlights": 0.14, "operators": [{"name": "Azul", "iata": "AD", "icao": "AZU"}]}, {"destination": {"icao": "SBGU", "iata": "GPB", "name": "Guarapuava Tancredo Thomas de Faria", "shortName": "Tancredo Thomas de Faria", "municipalityName": "Guarapuava", "location": {"lat": -25.3875, "lon": -51.5202}, "countryCode": "BR"}, "averageDailyFlights": 0.14, "operators": [{"name": "Azul", "iata": "AD", "icao": "AZU"}]}, {"destination": {"icao": "SPJC", "iata": "LIM", "name": "Lima Jorge Ch\u00e1vez", "shortName": "Jorge Ch\u00e1vez", "municipalityName": "Lima", "location": {"lat": -12.0219, "lon": -77.1143}, "countryCode": "PE"}, "averageDailyFlights": 0.14, "operators": [{"name": "Atlas Air", "iata": "5Y", "icao": "GTI"}]}, {"destination": {"icao": "SUMU", "iata": "MVD", "name": "Montevideo General C L Berisso", "shortName": "General C L Berisso", "municipalityName": "Montevideo", "location": {"lat": -34.8384, "lon": -56.0308}, "countryCode": "UY"}, "averageDailyFlights": 0.14, "operators": [{"name": "GEC"}]}, {"destination": {"icao": "SSZW", "iata": "PGZ", "name": "Ponta Grossa ", "shortName": "Ponta Grossa", "municipalityName": "Ponta Grossa", "location": {"lat": -25.1847, "lon": -50.1441}, "countryCode": "BR"}, "averageDailyFlights": 0.14, "operators": [{"name": "Azul", "iata": "AD", "icao": "AZU"}]}, {"destination": {"name": "Ribeir\u00e3o Preto"}, "averageDailyFlights": 0.14, "operators": [{"name": "Azul", "iata": "AD", "icao": "AZU"}]}]}