{"routes": [{"destination": {"icao": "SLVR", "iata": "VVI", "name": "Santa Cruz de la Sierra Viru Viru", "shortName": "Viru Viru", "municipalityName": "Santa Cruz de la Sierra", "location": {"lat": -17.6448, "lon": -63.1354}, "countryCode": "BO"}, "averageDailyFlights": 12.29, "operators": [{"name": "BoA", "iata": "OB", "icao": "BOV"}]}, {"destination": {"icao": "SLLP", "iata": "LPB", "name": "La Paz / El Alto El Alto", "shortName": "El Alto", "municipalityName": "La Paz / El Alto", "location": {"lat": -16.5133, "lon": -68.1923}, "countryCode": "BO"}, "averageDailyFlights": 11.29, "operators": [{"name": "BoA", "iata": "OB", "icao": "BOV"}]}, {"destination": {"icao": "SLSU", "iata": "SRE", "name": "Sucre Juana Azurduy De Padilla", "shortName": "Juana Azurduy De Padilla", "municipalityName": "Sucre", "location": {"lat": -19.0071, "lon": -65.2887}, "countryCode": "BO"}, "averageDailyFlights": 3.43, "operators": [{"name": "BoA", "iata": "OB", "icao": "BOV"}]}, {"destination": {"icao": "SLTJ", "iata": "TJA", "name": "Tarija Capitan Oriel Lea Plaza", "shortName": "Capitan Oriel Lea Plaza", "municipalityName": "Tarija", "location": {"lat": -21.5557, "lon": -64.7013}, "countryCode": "BO"}, "averageDailyFlights": 2.71, "operators": [{"name": "BoA", "iata": "OB", "icao": "BOV"}]}, {"destination": {"icao": "SLTR", "iata": "TDD", "name": "Trinidad Teniente Av. Jorge Henrich Arauz", "shortName": "Teniente Av. Jorge Henrich Arauz", "municipalityName": "Trinidad", "location": {"lat": -14.818699, "lon": -64.918}, "countryCode": "BO"}, "averageDailyFlights": 2.29, "operators": [{"name": "BoA", "iata": "OB", "icao": "BOV"}]}, {"destination": {"icao": "SLOR", "iata": "ORU", "name": "Oruro Juan Mendoza", "shortName": "Juan Mendoza", "municipalityName": "Oruro", "location": {"lat": -17.9626, "lon": -67.0762}, "countryCode": "BO"}, "averageDailyFlights": 1.0, "operators": [{"name": "BoA", "iata": "OB", "icao": "BOV"}]}, {"destination": {"icao": "SBGR", "iata": "GRU", "name": "S\u00e3o Paulo Guarulhos - Governador Andr\u00e9 Franco Montoro", "shortName": "Guarulhos - Governador Andr\u00e9 Franco Montoro", "municipalityName": "S\u00e3o Paulo", "location": {"lat": -23.435556, "lon": -46.473057}, "countryCode": "BR"}, "averageDailyFlights": 1.0, "operators": [{"name": "BoA", "iata": "OB", "icao": "BOV"}]}, {"destination": {"icao": "SLCO", "iata": "CIJ", "name": "Cobija Capit\u00e1n An\u00edbal Arab", "shortName": "Capit\u00e1n An\u00edbal Arab", "municipalityName": "Cobija", "location": {"lat": -11.040399, "lon": -68.783}, "countryCode": "BO"}, "averageDailyFlights": 0.86, "operators": [{"name": "BoA", "iata": "OB", "icao": "BOV"}]}, {"destination": {"icao": "SAEZ", "iata": "EZE", "name": "Buenos Aires Ministro Pistarini", "shortName": "Ministro Pistarini", "municipalityName": "Buenos Aires", "location": {"lat": -34.8222, "lon": -58.5358}, "countryCode": "AR"}, "averageDailyFlights": 0.43, "operators": [{"name": "BoA", "iata": "OB", "icao": "BOV"}]}]}