{"routes": [{"destination": {"icao": "SBGR", "iata": "GRU", "name": "S\u00e3o Paulo Guarulhos - Governador Andr\u00e9 Franco Montoro", "shortName": "Guarulhos - Governador Andr\u00e9 Franco Montoro", "municipalityName": "S\u00e3o Paulo", "location": {"lat": -23.435556, "lon": -46.473057}, "countryCode": "BR"}, "averageDailyFlights": 4.57, "operators": [{"name": "Gol", "iata": "G3", "icao": "GLO"}, {"name": "LATAM", "iata": "LA", "icao": "LAN"}]}, {"destination": {"icao": "SCEL", "iata": "SCL", "name": "Santiago Comodoro Arturo Merino Ben\u00edtez", "shortName": "Comodoro Arturo Merino Ben\u00edtez", "municipalityName": "Santiago", "location": {"lat": -33.393, "lon": -70.7858}, "countryCode": "CL"}, "averageDailyFlights": 3.43, "operators": [{"name": "LATAM", "iata": "LA", "icao": "LAN"}, {"name": "JetSMART", "iata": "JA", "icao": "JAT"}, {"name": "Sky Airline", "iata": "H2", "icao": "SKU"}]}, {"destination": {"icao": "MPTO", "iata": "PTY", "name": "Tocumen ", "shortName": "Tocumen", "municipalityName": "Tocumen", "location": {"lat": 9.071359, "lon": -79.3835}, "countryCode": "PA"}, "averageDailyFlights": 3.43, "operators": [{"name": "Copa Airlines", "iata": "CM", "icao": "CMP"}]}, {"destination": {"icao": "SABE", "iata": "AEP", "name": "Buenos Aires Jorge Newbery Airpark", "shortName": "Jorge Newbery Airpark", "municipalityName": "Buenos Aires", "location": {"lat": -34.5592, "lon": -58.4156}, "countryCode": "AR"}, "averageDailyFlights": 2.57, "operators": [{"name": "Aerolineas Argentinas", "iata": "AR", "icao": "ARG"}]}, {"destination": {"icao": "LEMD", "iata": "MAD", "name": "Madrid Adolfo Su\u00e1rez \u2013Barajas", "shortName": "Adolfo Su\u00e1rez \u2013Barajas", "municipalityName": "Madrid", "location": {"lat": 40.4936, "lon": -3.56676}, "countryCode": "ES"}, "averageDailyFlights": 1.71, "operators": [{"name": "Iberia", "iata": "IB", "icao": "IBE"}, {"name": "Air Europa", "iata": "UX", "icao": "AEA"}]}, {"destination": {"icao": "SBGL", "iata": "GIG", "name": "Rio de Janeiro RIOgale\u00e3o \u2013 Tom Jobim", "shortName": "RIOgale\u00e3o \u2013 Tom Jobim", "municipalityName": "Rio de Janeiro", "location": {"lat": -22.81, "lon": -43.250557}, "countryCode": "BR"}, "averageDailyFlights": 1.71, "operators": [{"name": "JetSMART", "iata": "JA", "icao": "JAT"}, {"name": "Gol", "iata": "G3", "icao": "GLO"}]}, {"destination": {"icao": "SGAS", "iata": "ASU", "name": "Asunci\u00f3n Silvio Pettirossi", "shortName": "Silvio Pettirossi", "municipalityName": "Asunci\u00f3n", "location": {"lat": -25.24, "lon": -57.52}, "countryCode": "PY"}, "averageDailyFlights": 1.57, "operators": [{"name": "Silk Way Airlines", "iata": "ZP", "icao": "AZQ"}]}, {"destination": {"icao": "SPJC", "iata": "LIM", "name": "Lima Jorge Ch\u00e1vez", "shortName": "Jorge Ch\u00e1vez", "municipalityName": "Lima", "location": {"lat": -12.0219, "lon": -77.1143}, "countryCode": "PE"}, "averageDailyFlights": 1.43, "operators": [{"name": "LATAM", "iata": "LA", "icao": "LAN"}, {"name": "Sky Airline", "iata": "H2", "icao": "SKU"}]}, {"destination": {"icao": "KMIA", "iata": "MIA", "name": "Miami ", "shortName": "Miami", "municipalityName": "Miami", "location": {"lat": 25.7932, "lon": -80.2906}, "countryCode": "US"}, "averageDailyFlights": 1.14, "operators": [{"name": "American Airlines", "iata": "AA", "icao": "AAL"}]}, {"destination": {"icao": "SBFL", "iata": "FLN", "name": "Florian\u00f3polis Herc\u00edlio Luz", "shortName": "Herc\u00edlio Luz", "municipalityName": "Florian\u00f3polis", "location": {"lat": -27.670279, "lon": -48.5525}, "countryCode": "BR"}, "averageDailyFlights": 1.0, "operators": [{"name": "Azul", "iata": "AD", "icao": "AZU"}, {"name": "Sky Airline", "iata": "H2", "icao": "SKU"}]}, {"destination": {"icao": "SKBO", "iata": "BOG", "name": "Bogot\u00e1 El Dorado", "shortName": "El Dorado", "municipalityName": "Bogot\u00e1", "location": {"lat": 4.70159, "lon": -74.1469}, "countryCode": "CO"}, "averageDailyFlights": 0.57, "operators": [{"name": "Avianca", "iata": "AV", "icao": "AVA"}]}, {"destination": {"icao": "SBCT", "iata": "CWB", "name": "Curitiba Afonso Pena", "shortName": "Afonso Pena", "municipalityName": "Curitiba", "location": {"lat": -25.5285, "lon": -49.1758}, "countryCode": "BR"}, "averageDailyFlights": 0.57, "operators": [{"name": "Azul", "iata": "AD", "icao": "AZU"}]}, {"destination": {"icao": "SBPA", "iata": "POA", "name": "Porto Alegre Salgado Filho", "shortName": "Salgado Filho", "municipalityName": "Porto Alegre", "location": {"lat": -29.9944, "lon": -51.1714}, "countryCode": "BR"}, "averageDailyFlights": 0.57, "operators": [{"name": "Azul", "iata": "AD", "icao": "AZU"}]}, {"destination": {"icao": "SBSV", "iata": "SSA", "name": "Salvador Deputado Luiz Eduardo Magalh\u00e3es", "shortName": "Deputado Luiz Eduardo Magalh\u00e3es", "municipalityName": "Salvador", "location": {"lat": -12.908611, "lon": -38.3225}, "countryCode": "BR"}, "averageDailyFlights": 0.43, "operators": [{"name": "Sky Airline", "iata": "H2", "icao": "SKU"}]}, {"destination": {"icao": "SBRF", "iata": "REC", "name": "Recife Guararapes - Gilberto Freyre", "shortName": "Guararapes - Gilberto Freyre", "municipalityName": "Recife", "location": {"lat": -8.126489, "lon": -34.9236}, "countryCode": "BR"}, "averageDailyFlights": 0.29, "operators": [{"name": "Azul", "iata": "AD", "icao": "AZU"}]}, {"destination": {"icao": "SAZM", "iata": "MDQ", "name": "Mar del Plata \u00c1stor Piazzola", "shortName": "\u00c1stor Piazzola", "municipalityName": "Mar del Plata", "location": {"lat": -37.9342, "lon": -57.5733}, "countryCode": "AR"}, "averageDailyFlights": 0.14, "operators": [{"name": "Aerolineas Argentinas", "iata": "AR", "icao": "ARG"}]}, {"destination": {"icao": "SAZS", "iata": "BRC", "name": "San Carlos de Bariloche ", "shortName": "San Carlos de Bariloche", "municipalityName": "San Carlos de Bariloche", "location": {"lat": -41.1512, "lon": -71.1575}, "countryCode": "AR"}, "averageDailyFlights": 0.14, "operators": [{"name": "Aerolineas Argentinas", "iata": "AR", "icao": "ARG"}]}]}