{"routes": [{"destination": {"icao": "MPTO", "iata": "PTY", "name": "Tocumen ", "shortName": "Tocumen", "municipalityName": "Tocumen", "location": {"lat": 9.071359, "lon": -79.3835}, "countryCode": "PA"}, "averageDailyFlights": 1.43, "operators": [{"name": "Turpial Airlines", "iata": "T9", "icao": "VTU"}, {"name": "Copa Airlines", "iata": "CM", "icao": "CMP"}]}, {"destination": {"icao": "MDSD", "iata": "SDQ", "name": "Santo Domingo City Las Am\u00e9ricas", "shortName": "Las Am\u00e9ricas", "municipalityName": "Santo Domingo City", "location": {"lat": 18.4297, "lon": -69.6689}, "countryCode": "DO"}, "averageDailyFlights": 0.73, "operators": [{"name": "Sky High Aviation", "iata": "DO", "icao": "SHH"}, {"name": "Turpial Airlines", "iata": "T9", "icao": "VTU"}]}, {"destination": {"icao": "SVMG", "iata": "PMV", "name": "Isla Margarita Del Caribe Santiago Mari\u00f1o", "shortName": "Del Caribe Santiago Mari\u00f1o", "municipalityName": "Isla Margarita", "location": {"lat": 10.912603, "lon": -63.9666}, "countryCode": "VE"}, "averageDailyFlights": 0.57, "operators": [{"name": "Turpial Airlines", "iata": "T9", "icao": "VTU"}, {"name": "Conviasa", "iata": "V0", "icao": "VCV"}]}, {"destination": {"icao": "MDPC", "iata": "PUJ", "name": "Punta Cana ", "shortName": "Punta Cana", "municipalityName": "Punta Cana", "location": {"lat": 18.567398, "lon": -68.3634}, "countryCode": "DO"}, "averageDailyFlights": 0.43, "operators": [{"name": "Turpial Airlines", "iata": "T9", "icao": "VTU"}]}, {"destination": {"icao": "MUCU", "iata": "SCU", "name": "Santiago Antonio Maceo", "shortName": "Antonio Maceo", "municipalityName": "Santiago", "location": {"lat": 19.9698, "lon": -75.8354}, "countryCode": "CU"}, "averageDailyFlights": 0.14, "operators": [{"name": "Cubana de Aviacion", "iata": "CU", "icao": "CUB"}]}]}