{"routes": [{"destination": {"icao": "TFFF", "iata": "FDF", "name": "Fort-de-France Martinique Aim\u00e9 C\u00e9saire", "shortName": "Martinique Aim\u00e9 C\u00e9saire", "municipalityName": "Fort-de-France", "location": {"lat": 14.590999, "lon": -61.0032}, "countryCode": "MQ"}, "averageDailyFlights": 9.29, "operators": [{"name": "Air Caraibes", "iata": "TX", "icao": "FWI"}, {"name": "Air France", "iata": "AF", "icao": "AFR"}]}, {"destination": {"icao": "TFFG", "iata": "SFG", "name": "Grand Case L'Esp\u00e9rance", "shortName": "L'Esp\u00e9rance", "municipalityName": "Grand Case", "location": {"lat": 18.0999, "lon": -63.0472}, "countryCode": "MF"}, "averageDailyFlights": 6.43, "operators": [{"name": "Air Caraibes", "iata": "TX", "icao": "FWI"}]}, {"destination": {"icao": "LFPO", "iata": "ORY", "name": "Paris -Orly", "shortName": "-Orly", "municipalityName": "Paris", "location": {"lat": 48.7253, "lon": 2.35944}, "countryCode": "FR"}, "averageDailyFlights": 6.43, "operators": [{"name": "Air Caraibes", "iata": "TX", "icao": "FWI"}, {"name": "Air France", "iata": "AF", "icao": "AFR"}, {"name": "Corsair", "iata": "SS", "icao": "CRL"}]}, {"destination": {"icao": "CYUL", "iata": "YUL", "name": "Montreal Trudeau", "shortName": "Trudeau", "municipalityName": "Montreal", "location": {"lat": 45.4706, "lon": -73.7408}, "countryCode": "CA"}, "averageDailyFlights": 1.43, "operators": [{"name": "Air Transat", "iata": "TS", "icao": "TSC"}, {"name": "Air Canada", "iata": "AC", "icao": "ACA"}, {"name": "Air France", "iata": "AF", "icao": "AFR"}]}, {"destination": {"icao": "TFFJ", "iata": "SBH", "name": "Gustavia Gustaf III", "shortName": "Gustaf III", "municipalityName": "Gustavia", "location": {"lat": 17.9044, "lon": -62.8436}, "countryCode": "BL"}, "averageDailyFlights": 1.29, "operators": [{"name": "Saint Barth Commuter", "iata": "PV", "icao": "SBU"}, {"name": "Air Caraibes", "iata": "TX", "icao": "FWI"}]}, {"destination": {"icao": "MDSD", "iata": "SDQ", "name": "Santo Domingo City Las Am\u00e9ricas", "shortName": "Las Am\u00e9ricas", "municipalityName": "Santo Domingo City", "location": {"lat": 18.4297, "lon": -69.6689}, "countryCode": "DO"}, "averageDailyFlights": 1.0, "operators": [{"name": "Sky High Aviation", "iata": "DO", "icao": "SHH"}]}, {"destination": {"icao": "KJFK", "iata": "JFK", "name": "New York John F Kennedy", "shortName": "John F Kennedy", "municipalityName": "New York", "location": {"lat": 40.6398, "lon": -73.7789}, "countryCode": "US"}, "averageDailyFlights": 0.86, "operators": [{"name": "JetBlue Airways", "iata": "B6", "icao": "JBU"}]}, {"destination": {"icao": "KMIA", "iata": "MIA", "name": "Miami ", "shortName": "Miami", "municipalityName": "Miami", "location": {"lat": 25.7932, "lon": -80.2906}, "countryCode": "US"}, "averageDailyFlights": 0.57, "operators": [{"name": "Air France", "iata": "AF", "icao": "AFR"}, {"name": "American Airlines", "iata": "AA", "icao": "AAL"}]}, {"destination": {"icao": "MTPP", "iata": "PAP", "name": "Port-au-Prince Toussaint Louverture", "shortName": "Toussaint Louverture", "municipalityName": "Port-au-Prince", "location": {"lat": 18.58, "lon": -72.2925}, "countryCode": "HT"}, "averageDailyFlights": 0.29, "operators": [{"name": "Sunrise Airways", "iata": "S6", "icao": "KSZ"}]}, {"destination": {"icao": "TNCM", "iata": "SXM", "name": "Saint Martin Princess Juliana", "shortName": "Princess Juliana", "municipalityName": "Saint Martin", "location": {"lat": 18.041, "lon": -63.1089}, "countryCode": "SX"}, "averageDailyFlights": 0.29, "operators": [{"name": "Air France", "iata": "AF", "icao": "AFR"}]}, {"destination": {"icao": "LFBD", "iata": "BOD", "name": "Bordeaux/M\u00e9rignac Bordeaux-M\u00e9rignac", "shortName": "Bordeaux-M\u00e9rignac", "municipalityName": "Bordeaux/M\u00e9rignac", "location": {"lat": 44.8283, "lon": -0.715556}, "countryCode": "FR"}, "averageDailyFlights": 0.14, "operators": [{"name": "Corsair", "iata": "SS", "icao": "CRL"}]}, {"destination": {"icao": "LIMC", "iata": "MXP", "name": "Milan Malpensa", "shortName": "Malpensa", "municipalityName": "Milan", "location": {"lat": 45.6306, "lon": 8.72811}, "countryCode": "IT"}, "averageDailyFlights": 0.14, "operators": [{"name": "Neos", "iata": "NO", "icao": "NOS"}]}, {"destination": {"icao": "LIRF", "iata": "FCO", "name": "Rome Leonardo da Vinci\u2013Fiumicino", "shortName": "Leonardo da Vinci\u2013Fiumicino", "municipalityName": "Rome", "location": {"lat": 41.8045, "lon": 12.2508}, "countryCode": "IT"}, "averageDailyFlights": 0.14, "operators": [{"name": "Neos", "iata": "NO", "icao": "NOS"}]}]}