{"routes": [{"destination": {"icao": "TNCA", "iata": "AUA", "name": "Oranjestad Queen Beatrix", "shortName": "Queen Beatrix", "municipalityName": "Oranjestad", "location": {"lat": 12.501399, "lon": -70.0152}, "countryCode": "AW"}, "averageDailyFlights": 10.86, "operators": [{"name": "Divi Divi Air", "iata": "3R", "icao": "DVR"}, {"name": "FlexFlight", "iata": "W2", "icao": "FXT"}, {"name": "Winair", "iata": "WM", "icao": "WIA"}, {"name": "Asian Air", "iata": "DM", "icao": "DEX"}, {"name": "Euroairlines", "iata": "Q4", "icao": "ELE"}, {"name": "Surinam Airways", "iata": "PY", "icao": "SLM"}]}, {"destination": {"icao": "TNCB", "iata": "BON", "name": "Kralendijk Flamingo", "shortName": "Flamingo", "municipalityName": "Kralendijk", "location": {"lat": 12.130999, "lon": -68.2685}, "countryCode": "BQ"}, "averageDailyFlights": 10.14, "operators": [{"name": "Divi Divi Air", "iata": "3R", "icao": "DVR"}, {"name": "FlexFlight", "iata": "W2", "icao": "FXT"}, {"name": "Winair", "iata": "WM", "icao": "WIA"}]}, {"destination": {"icao": "EHAM", "iata": "AMS", "name": "Amsterdam Schiphol", "shortName": "Schiphol", "municipalityName": "Amsterdam", "location": {"lat": 52.3086, "lon": 4.763889}, "countryCode": "NL"}, "averageDailyFlights": 2.93, "operators": [{"name": "KLM", "iata": "KL", "icao": "KLM"}, {"name": "Corendon Dutch Airlines", "iata": "CD", "icao": "CND"}, {"name": "TUI Airlines Nederland (Netherlands)", "iata": "OR", "icao": "TFL"}]}, {"destination": {"icao": "KMIA", "iata": "MIA", "name": "Miami ", "shortName": "Miami", "municipalityName": "Miami", "location": {"lat": 25.7932, "lon": -80.2906}, "countryCode": "US"}, "averageDailyFlights": 2.57, "operators": [{"name": "American Airlines", "iata": "AA", "icao": "AAL"}, {"name": "Surinam Airways", "iata": "PY", "icao": "SLM"}]}, {"destination": {"icao": "SKBO", "iata": "BOG", "name": "Bogot\u00e1 El Dorado", "shortName": "El Dorado", "municipalityName": "Bogot\u00e1", "location": {"lat": 4.70159, "lon": -74.1469}, "countryCode": "CO"}, "averageDailyFlights": 2.29, "operators": [{"name": "Avianca", "iata": "AV", "icao": "AVA"}, {"name": "Copa Airlines Colombia", "iata": "P5", "icao": "RPB"}]}, {"destination": {"icao": "TNCM", "iata": "SXM", "name": "Saint Martin Princess Juliana", "shortName": "Princess Juliana", "municipalityName": "Saint Martin", "location": {"lat": 18.041, "lon": -63.1089}, "countryCode": "SX"}, "averageDailyFlights": 1.57, "operators": [{"name": "Winair", "iata": "WM", "icao": "WIA"}, {"name": "Jetair Caribbean", "iata": "4J", "icao": "JRC"}, {"name": "FlexFlight", "iata": "W2", "icao": "FXT"}]}, {"destination": {"icao": "KCLT", "iata": "CLT", "name": "Charlotte Douglas", "shortName": "Douglas", "municipalityName": "Charlotte", "location": {"lat": 35.214, "lon": -80.9431}, "countryCode": "US"}, "averageDailyFlights": 1.14, "operators": [{"name": "American Airlines", "iata": "AA", "icao": "AAL"}]}, {"destination": {"icao": "MPTO", "iata": "PTY", "name": "Tocumen ", "shortName": "Tocumen", "municipalityName": "Tocumen", "location": {"lat": 9.071359, "lon": -79.3835}, "countryCode": "PA"}, "averageDailyFlights": 1.14, "operators": [{"name": "Copa Airlines", "iata": "CM", "icao": "CMP"}]}, {"destination": {"icao": "KJFK", "iata": "JFK", "name": "New York John F Kennedy", "shortName": "John F Kennedy", "municipalityName": "New York", "location": {"lat": 40.6398, "lon": -73.7789}, "countryCode": "US"}, "averageDailyFlights": 0.86, "operators": [{"name": "JetBlue Airways", "iata": "B6", "icao": "JBU"}]}, {"destination": {"icao": "CYYZ", "iata": "YYZ", "name": "Toronto Pearson", "shortName": "Pearson", "municipalityName": "Toronto", "location": {"lat": 43.6772, "lon": -79.6306}, "countryCode": "CA"}, "averageDailyFlights": 0.86, "operators": [{"name": "WestJet", "iata": "WS", "icao": "WJA"}, {"name": "Air Canada", "iata": "AC", "icao": "ACA"}]}, {"destination": {"icao": "SKRG", "iata": "MDE", "name": "Rionegro Jose Maria C\u00f3rdova", "shortName": "Jose Maria C\u00f3rdova", "municipalityName": "Rionegro", "location": {"lat": 6.16454, "lon": -75.4231}, "countryCode": "CO"}, "averageDailyFlights": 0.71, "operators": [{"name": "Jetair Caribbean", "iata": "4J", "icao": "JRC"}, {"name": "FlexFlight", "iata": "W2", "icao": "FXT"}]}, {"destination": {"icao": "SBCF", "iata": "CNF", "name": "Belo Horizonte Tancredo Neves", "shortName": "Tancredo Neves", "municipalityName": "Belo Horizonte", "location": {"lat": -19.624443, "lon": -43.971943}, "countryCode": "BR"}, "averageDailyFlights": 0.43, "operators": [{"name": "Azul", "iata": "AD", "icao": "AZU"}]}, {"destination": {"icao": "SVMI", "iata": "CCS", "name": "Caracas Sim\u00f3n Bol\u00edvar", "shortName": "Sim\u00f3n Bol\u00edvar", "municipalityName": "Caracas", "location": {"lat": 10.603116, "lon": -66.990585}, "countryCode": "VE"}, "averageDailyFlights": 0.43, "operators": [{"name": "Avior", "iata": "9V", "icao": "ROI"}]}, {"destination": {"icao": "CYUL", "iata": "YUL", "name": "Montreal Trudeau", "shortName": "Trudeau", "municipalityName": "Montreal", "location": {"lat": 45.4706, "lon": -73.7408}, "countryCode": "CA"}, "averageDailyFlights": 0.43, "operators": [{"name": "Air Canada", "iata": "AC", "icao": "ACA"}]}, {"destination": {"icao": "MDSD", "iata": "SDQ", "name": "Santo Domingo City Las Am\u00e9ricas", "shortName": "Las Am\u00e9ricas", "municipalityName": "Santo Domingo City", "location": {"lat": 18.4297, "lon": -69.6689}, "countryCode": "DO"}, "averageDailyFlights": 0.43, "operators": [{"name": "Sky High Aviation", "iata": "DO", "icao": "SHH"}]}, {"destination": {"icao": "KATL", "iata": "ATL", "name": "Atlanta Hartsfield Jackson", "shortName": "Hartsfield Jackson", "municipalityName": "Atlanta", "location": {"lat": 33.6367, "lon": -84.4281}, "countryCode": "US"}, "averageDailyFlights": 0.29, "operators": [{"name": "Delta Air Lines", "iata": "DL", "icao": "DAL"}]}, {"destination": {"icao": "TTPP", "iata": "POS", "name": "Port of Spain Piarco", "shortName": "Piarco", "municipalityName": "Port of Spain", "location": {"lat": 10.595399, "lon": -61.3372}, "countryCode": "TT"}, "averageDailyFlights": 0.29, "operators": [{"name": "Caribbean Airlines", "iata": "BW", "icao": "BWA"}]}, {"destination": {"icao": "SMJP", "iata": "PBM", "name": "Zandery Johan Adolf Pengel", "shortName": "Johan Adolf Pengel", "municipalityName": "Zandery", "location": {"lat": 5.452829, "lon": -55.1878}, "countryCode": "SR"}, "averageDailyFlights": 0.29, "operators": [{"name": "FlexFlight", "iata": "W2", "icao": "FXT"}]}, {"destination": {"name": "Paramaribo"}, "averageDailyFlights": 0.29, "operators": [{"name": "Surinam Airways", "iata": "PY", "icao": "SLM"}]}, {"destination": {"icao": "KFXE", "iata": "FXE", "name": "Fort Lauderdale Executive", "shortName": "Executive", "municipalityName": "Fort Lauderdale", "location": {"lat": 26.197298, "lon": -80.1707}, "countryCode": "US"}, "averageDailyFlights": 0.14, "operators": [{"name": "Libyan Airlines", "iata": "LN", "icao": "LAA"}]}, {"destination": {"icao": "KEWR", "iata": "EWR", "name": "Newark Liberty", "shortName": "Liberty", "municipalityName": "Newark", "location": {"lat": 40.6925, "lon": -74.1687}, "countryCode": "US"}, "averageDailyFlights": 0.14, "operators": [{"name": "United Airlines", "iata": "UA", "icao": "UAL"}]}]}