{"routes": [{"destination": {"icao": "UUEE", "iata": "SVO", "localCode": "\u0428\u0420\u041c", "name": "Moscow Sheremetyevo", "shortName": "Sheremetyevo", "municipalityName": "Moscow", "location": {"lat": 55.9726, "lon": 37.4146}, "countryCode": "RU"}, "averageDailyFlights": 4.71, "operators": [{"name": "Aeroflot", "iata": "SU", "icao": "AFL"}, {"name": "Rossiya Airlines", "iata": "FV", "icao": "SDM"}]}, {"destination": {"icao": "ULLI", "iata": "LED", "localCode": "\u041f\u041b\u041a", "name": "Saint-Petersburg Pulkovo", "shortName": "Pulkovo", "municipalityName": "Saint-Petersburg", "location": {"lat": 59.8003, "lon": 30.2625}, "countryCode": "RU"}, "averageDailyFlights": 3.14, "operators": [{"name": "Pobeda", "iata": "DP", "icao": "PBD"}, {"name": "Smartavia", "iata": "5N", "icao": "AUL"}, {"name": "Rossiya Airlines", "iata": "FV", "icao": "SDM"}]}, {"destination": {"icao": "UUWW", "iata": "VKO", "localCode": "\u0412\u041d\u041a", "name": "Moscow Vnukovo", "shortName": "Vnukovo", "municipalityName": "Moscow", "location": {"lat": 55.5915, "lon": 37.2615}, "countryCode": "RU"}, "averageDailyFlights": 1.71, "operators": [{"name": "Pobeda", "iata": "DP", "icao": "PBD"}]}, {"destination": {"icao": "URSS", "iata": "AER", "localCode": "\u0421\u041e\u0427", "name": "Sochi ", "shortName": "Sochi", "municipalityName": "Sochi", "location": {"lat": 43.4499, "lon": 39.9566}, "countryCode": "RU"}, "averageDailyFlights": 1.57, "operators": [{"name": "Aeroflot", "iata": "SU", "icao": "AFL"}, {"name": "Pobeda", "iata": "DP", "icao": "PBD"}, {"name": "Pegas Fly", "iata": "EO", "icao": "KAR"}]}, {"destination": {"icao": "UUDD", "iata": "DME", "localCode": "\u0414\u041c\u0414", "name": "Moscow Domodedovo", "shortName": "Domodedovo", "municipalityName": "Moscow", "location": {"lat": 55.4088, "lon": 37.9063}, "countryCode": "RU"}, "averageDailyFlights": 1.43, "operators": [{"name": "S7 Airlines", "iata": "S7", "icao": "SBI"}, {"name": "Red Wings", "iata": "WZ", "icao": "RWZ"}]}, {"destination": {"icao": "UNNT", "iata": "OVB", "localCode": "\u0422\u041b\u0427", "name": "Novosibirsk Tolmachevo", "shortName": "Tolmachevo", "municipalityName": "Novosibirsk", "location": {"lat": 55.0126, "lon": 82.6507}, "countryCode": "RU"}, "averageDailyFlights": 0.86, "operators": [{"name": "S7 Airlines", "iata": "S7", "icao": "SBI"}]}, {"destination": {"icao": "URMM", "iata": "MRV", "localCode": "\u041c\u0420\u0412", "name": "Mineralnyye Vody ", "shortName": "Mineralnyye Vody", "municipalityName": "Mineralnyye Vody", "location": {"lat": 44.2251, "lon": 43.0819}, "countryCode": "RU"}, "averageDailyFlights": 0.71, "operators": [{"name": "Azimuth Airlines", "iata": "A4", "icao": "AZO"}]}, {"destination": {"icao": "URML", "iata": "MCX", "localCode": "\u041c\u0425\u041b", "name": "Makhachkala Uytash", "shortName": "Uytash", "municipalityName": "Makhachkala", "location": {"lat": 42.8168, "lon": 47.6523}, "countryCode": "RU"}, "averageDailyFlights": 0.57, "operators": [{"name": "Pegas Fly", "iata": "EO", "icao": "KAR"}, {"name": "Azimuth Airlines", "iata": "A4", "icao": "AZO"}]}, {"destination": {"icao": "UMKK", "iata": "KGD", "localCode": "\u041a\u041b\u0414", "name": "Kaliningrad Khrabrovo", "shortName": "Khrabrovo", "municipalityName": "Kaliningrad", "location": {"lat": 54.89, "lon": 20.5926}, "countryCode": "RU"}, "averageDailyFlights": 0.43, "operators": [{"name": "Pegas Fly", "iata": "EO", "icao": "KAR"}]}, {"destination": {"icao": "UMMS", "iata": "MSQ", "localCode": "\u041c\u0418\u041a", "name": "Minsk National", "shortName": "National", "municipalityName": "Minsk", "location": {"lat": 53.8825, "lon": 28.0307}, "countryCode": "BY"}, "averageDailyFlights": 0.43, "operators": [{"name": "Pegas Fly", "iata": "EO", "icao": "KAR"}]}, {"destination": {"icao": "USRR", "iata": "SGC", "localCode": "\u0421\u0423\u0420", "name": "Surgut ", "shortName": "Surgut", "municipalityName": "Surgut", "location": {"lat": 61.3437, "lon": 73.4018}, "countryCode": "RU"}, "averageDailyFlights": 0.29, "operators": [{"name": "UTAir", "iata": "UT", "icao": "UTA"}]}, {"destination": {"name": "Naryan Mar"}, "averageDailyFlights": 0.29, "operators": [{"name": "RusLine", "iata": "7R", "icao": "RLU"}]}, {"destination": {"icao": "UBBB", "iata": "GYD", "localCode": "\u0411\u0410\u041a", "name": "Baku Heydar Aliyev", "shortName": "Heydar Aliyev", "municipalityName": "Baku", "location": {"lat": 40.4675, "lon": 50.0467}, "countryCode": "AZ"}, "averageDailyFlights": 0.14, "operators": [{"name": "IrAero", "iata": "IO", "icao": "IAE"}]}, {"destination": {"icao": "HEGN", "iata": "HRG", "name": "Hurghada ", "shortName": "Hurghada", "municipalityName": "Hurghada", "location": {"lat": 27.1783, "lon": 33.7994}, "countryCode": "EG"}, "averageDailyFlights": 0.14, "operators": [{"name": "AZUR Air", "iata": "ZF", "icao": "KTK"}]}, {"destination": {"icao": "USRK", "iata": "KGP", "localCode": "\u041a\u041e\u0413", "name": "Kogalym ", "shortName": "Kogalym", "municipalityName": "Kogalym", "location": {"lat": 62.1904, "lon": 74.5338}, "countryCode": "RU"}, "averageDailyFlights": 0.14, "operators": [{"name": "UTAir", "iata": "UT", "icao": "UTA"}]}, {"destination": {"icao": "UTFN", "iata": "NMA", "localCode": "\u041d\u041c\u0413", "name": "Namangan ", "shortName": "Namangan", "municipalityName": "Namangan", "location": {"lat": 40.9846, "lon": 71.5567}, "countryCode": "UZ"}, "averageDailyFlights": 0.14, "operators": [{"name": "Uzbekistan Airways", "iata": "HY", "icao": "UZB"}]}, {"destination": {"name": "Vladikavkaz"}, "averageDailyFlights": 0.14, "operators": [{"name": "Pegas Fly", "iata": "EO", "icao": "KAR"}]}]}