{"routes": [{"destination": {"icao": "ULLI", "iata": "LED", "localCode": "\u041f\u041b\u041a", "name": "Saint-Petersburg Pulkovo", "shortName": "Pulkovo", "municipalityName": "Saint-Petersburg", "location": {"lat": 59.8003, "lon": 30.2625}, "countryCode": "RU"}, "averageDailyFlights": 7.14, "operators": [{"name": "Rossiya Airlines", "iata": "FV", "icao": "SDM"}, {"name": "Nordwind Airlines", "iata": "N4", "icao": "NWS"}, {"name": "Smartavia", "iata": "5N", "icao": "AUL"}]}, {"destination": {"icao": "UUEE", "iata": "SVO", "localCode": "\u0428\u0420\u041c", "name": "Moscow Sheremetyevo", "shortName": "Sheremetyevo", "municipalityName": "Moscow", "location": {"lat": 55.9726, "lon": 37.4146}, "countryCode": "RU"}, "averageDailyFlights": 3.0, "operators": [{"name": "Nordwind Airlines", "iata": "N4", "icao": "NWS"}, {"name": "Smartavia", "iata": "5N", "icao": "AUL"}]}, {"destination": {"icao": "UUWW", "iata": "VKO", "localCode": "\u0412\u041d\u041a", "name": "Moscow Vnukovo", "shortName": "Vnukovo", "municipalityName": "Moscow", "location": {"lat": 55.5915, "lon": 37.2615}, "countryCode": "RU"}, "averageDailyFlights": 2.87, "operators": [{"name": "UVT Aero", "iata": "RT", "icao": "UVT"}, {"name": "Pobeda", "iata": "DP", "icao": "PBD"}, {"name": "Aeroflot", "iata": "SU", "icao": "AFL"}]}, {"destination": {"icao": "UUDD", "iata": "DME", "localCode": "\u0414\u041c\u0414", "name": "Moscow Domodedovo", "shortName": "Domodedovo", "municipalityName": "Moscow", "location": {"lat": 55.4088, "lon": 37.9063}, "countryCode": "RU"}, "averageDailyFlights": 2.29, "operators": [{"name": "S7 Airlines", "iata": "S7", "icao": "SBI"}]}, {"destination": {"icao": "URSS", "iata": "AER", "localCode": "\u0421\u041e\u0427", "name": "Sochi ", "shortName": "Sochi", "municipalityName": "Sochi", "location": {"lat": 43.4499, "lon": 39.9566}, "countryCode": "RU"}, "averageDailyFlights": 1.95, "operators": [{"name": "Pobeda", "iata": "DP", "icao": "PBD"}, {"name": "Ural Airlines", "iata": "U6", "icao": "SVR"}, {"name": "UVT Aero", "iata": "RT", "icao": "UVT"}, {"name": "Smartavia", "iata": "5N", "icao": "AUL"}, {"name": "Aeroflot", "iata": "SU", "icao": "AFL"}, {"name": "Nordwind Airlines", "iata": "N4", "icao": "NWS"}, {"name": "Pegas Fly", "iata": "EO", "icao": "KAR"}]}, {"destination": {"icao": "UNNT", "iata": "OVB", "localCode": "\u0422\u041b\u0427", "name": "Novosibirsk Tolmachevo", "shortName": "Tolmachevo", "municipalityName": "Novosibirsk", "location": {"lat": 55.0126, "lon": 82.6507}, "countryCode": "RU"}, "averageDailyFlights": 1.86, "operators": [{"name": "S7 Airlines", "iata": "S7", "icao": "SBI"}]}, {"destination": {"icao": "OMDB", "iata": "DXB", "name": "Dubai ", "shortName": "Dubai", "municipalityName": "Dubai", "location": {"lat": 25.252798, "lon": 55.3644}, "countryCode": "AE"}, "averageDailyFlights": 1.71, "operators": [{"name": "flydubai", "iata": "FZ", "icao": "FDB"}]}, {"destination": {"icao": "OMSJ", "iata": "SHJ", "name": "Sharjah ", "shortName": "Sharjah", "municipalityName": "Sharjah", "location": {"lat": 25.3286, "lon": 55.5172}, "countryCode": "AE"}, "averageDailyFlights": 1.29, "operators": [{"name": "Air Arabia", "iata": "G9", "icao": "ABY"}]}, {"destination": {"icao": "USSS", "iata": "SVX", "localCode": "\u041a\u041b\u0426", "name": "Ekaterinburg Koltsovo", "shortName": "Koltsovo", "municipalityName": "Ekaterinburg", "location": {"lat": 56.7431, "lon": 60.8027}, "countryCode": "RU"}, "averageDailyFlights": 1.06, "operators": [{"name": "Ural Airlines", "iata": "U6", "icao": "SVR"}, {"name": "RusLine", "iata": "7R", "icao": "RLU"}, {"name": "Red Wings", "iata": "WZ", "icao": "RWZ"}]}, {"destination": {"icao": "LTFM", "iata": "IST", "name": "Istanbul ", "shortName": "Istanbul", "municipalityName": "Istanbul", "location": {"lat": 41.275276, "lon": 28.751944}, "countryCode": "TR"}, "averageDailyFlights": 1.06, "operators": [{"name": "Pobeda", "iata": "DP", "icao": "PBD"}, {"name": "Turkish Airlines", "iata": "TK", "icao": "THY"}, {"name": "Pegasus", "iata": "PC", "icao": "PGT"}]}, {"destination": {"icao": "URMM", "iata": "MRV", "localCode": "\u041c\u0420\u0412", "name": "Mineralnyye Vody ", "shortName": "Mineralnyye Vody", "municipalityName": "Mineralnyye Vody", "location": {"lat": 44.2251, "lon": 43.0819}, "countryCode": "RU"}, "averageDailyFlights": 1.0, "operators": [{"name": "Nordwind Airlines", "iata": "N4", "icao": "NWS"}, {"name": "Aeroflot", "iata": "SU", "icao": "AFL"}]}, {"destination": {"icao": "UWUU", "iata": "UFA", "localCode": "\u0423\u0424\u0410", "name": "Ufa ", "shortName": "Ufa", "municipalityName": "Ufa", "location": {"lat": 54.5575, "lon": 55.8744}, "countryCode": "RU"}, "averageDailyFlights": 0.86, "operators": [{"name": "UTAir", "iata": "UT", "icao": "UTA"}]}, {"destination": {"name": "Sharm el Sheikh"}, "averageDailyFlights": 0.86, "operators": [{"name": "Air Stork", "iata": "2S", "icao": "MSB"}, {"name": "Ural Airlines", "iata": "U6", "icao": "SVR"}, {"name": "AZUR Air", "iata": "ZF", "icao": "KTK"}]}, {"destination": {"icao": "UBBB", "iata": "GYD", "localCode": "\u0411\u0410\u041a", "name": "Baku Heydar Aliyev", "shortName": "Heydar Aliyev", "municipalityName": "Baku", "location": {"lat": 40.4675, "lon": 50.0467}, "countryCode": "AZ"}, "averageDailyFlights": 0.71, "operators": [{"name": "IrAero", "iata": "IO", "icao": "IAE"}, {"name": "AZAL Azerbaijan Airlines", "iata": "J2", "icao": "AHY"}]}, {"destination": {"icao": "UTDL", "iata": "LBD", "localCode": "\u0425\u0414\u0422", "name": "Khudzhand ", "shortName": "Khudzhand", "municipalityName": "Khudzhand", "location": {"lat": 40.2154, "lon": 69.6947}, "countryCode": "TJ"}, "averageDailyFlights": 0.6, "operators": [{"name": "Nordwind Airlines", "iata": "N4", "icao": "NWS"}, {"name": "Ural Airlines", "iata": "U6", "icao": "SVR"}]}, {"destination": {"icao": "UTTT", "iata": "TAS", "localCode": "\u0422\u0410\u0421", "name": "Tashkent ", "shortName": "Tashkent", "municipalityName": "Tashkent", "location": {"lat": 41.2579, "lon": 69.2812}, "countryCode": "UZ"}, "averageDailyFlights": 0.6, "operators": [{"name": "Uzbekistan Airways", "iata": "HY", "icao": "UZB"}, {"name": "Red Wings", "iata": "WZ", "icao": "RWZ"}]}, {"destination": {"icao": "USTR", "iata": "TJM", "localCode": "\u0420\u0429\u041d", "name": "Tyumen Roshchino", "shortName": "Roshchino", "municipalityName": "Tyumen", "location": {"lat": 57.1896, "lon": 65.3243}, "countryCode": "RU"}, "averageDailyFlights": 0.59, "operators": [{"name": "UTAir", "iata": "UT", "icao": "UTA"}, {"name": "UVT Aero", "iata": "RT", "icao": "UVT"}]}, {"destination": {"icao": "UTDD", "iata": "DYU", "localCode": "\u0414\u0428\u0411", "name": "Dushanbe ", "shortName": "Dushanbe", "municipalityName": "Dushanbe", "location": {"lat": 38.5433, "lon": 68.825}, "countryCode": "TJ"}, "averageDailyFlights": 0.58, "operators": [{"name": "Somon Air", "iata": "SZ", "icao": "SMR"}, {"name": "Nordwind Airlines", "iata": "N4", "icao": "NWS"}, {"name": "Ural Airlines", "iata": "U6", "icao": "SVR"}]}, {"destination": {"icao": "UMKK", "iata": "KGD", "localCode": "\u041a\u041b\u0414", "name": "Kaliningrad Khrabrovo", "shortName": "Khrabrovo", "municipalityName": "Kaliningrad", "location": {"lat": 54.89, "lon": 20.5926}, "countryCode": "RU"}, "averageDailyFlights": 0.57, "operators": [{"name": "Nordwind Airlines", "iata": "N4", "icao": "NWS"}]}, {"destination": {"icao": "URML", "iata": "MCX", "localCode": "\u041c\u0425\u041b", "name": "Makhachkala Uytash", "shortName": "Uytash", "municipalityName": "Makhachkala", "location": {"lat": 42.8168, "lon": 47.6523}, "countryCode": "RU"}, "averageDailyFlights": 0.57, "operators": [{"name": "Nordwind Airlines", "iata": "N4", "icao": "NWS"}]}, {"destination": {"icao": "ULAM", "iata": "NNM", "localCode": "\u041d\u041d\u0420", "name": "Naryan Mar ", "shortName": "Naryan Mar", "municipalityName": "Naryan Mar", "location": {"lat": 67.64, "lon": 53.1219}, "countryCode": "RU"}, "averageDailyFlights": 0.57, "operators": [{"name": "RusLine", "iata": "7R", "icao": "RLU"}]}, {"destination": {"name": "Hurghada"}, "averageDailyFlights": 0.57, "operators": [{"name": "Ural Airlines", "iata": "U6", "icao": "SVR"}, {"name": "Red Wings", "iata": "WZ", "icao": "RWZ"}]}, {"destination": {"icao": "UAAA", "iata": "ALA", "localCode": "\u0410\u041b\u0410", "name": "Almaty ", "shortName": "Almaty", "municipalityName": "Almaty", "location": {"lat": 43.3521, "lon": 77.0405}, "countryCode": "KZ"}, "averageDailyFlights": 0.43, "operators": [{"name": "Red Wings", "iata": "WZ", "icao": "RWZ"}]}, {"destination": {"icao": "LYBE", "iata": "BEG", "name": "Belgrade Nikola Tesla", "shortName": "Nikola Tesla", "municipalityName": "Belgrade", "location": {"lat": 44.8184, "lon": 20.3091}, "countryCode": "RS"}, "averageDailyFlights": 0.43, "operators": [{"name": "Air Serbia", "iata": "JU", "icao": "ASL"}]}, {"destination": {"icao": "UCFM", "iata": "FRU", "localCode": "\u0411\u0418\u0428", "name": "Bishkek Manas", "shortName": "Manas", "municipalityName": "Bishkek", "location": {"lat": 43.0613, "lon": 74.4776}, "countryCode": "KG"}, "averageDailyFlights": 0.43, "operators": [{"name": "Nordwind Airlines", "iata": "N4", "icao": "NWS"}]}, {"destination": {"icao": "ULWC", "iata": "CEE", "localCode": "\u0427\u0420\u0412", "name": "Cherepovets ", "shortName": "Cherepovets", "municipalityName": "Cherepovets", "location": {"lat": 59.2736, "lon": 38.0158}, "countryCode": "RU"}, "averageDailyFlights": 0.43, "operators": [{"name": "Severstal Aircompany", "iata": "D2", "icao": "SSF"}]}, {"destination": {"icao": "UNKL", "iata": "KJA", "localCode": "\u041a\u042f\u0410", "name": "Krasnoyarsk Yemelyanovo", "shortName": "Yemelyanovo", "municipalityName": "Krasnoyarsk", "location": {"lat": 56.1729, "lon": 92.4933}, "countryCode": "RU"}, "averageDailyFlights": 0.43, "operators": [{"name": "Nordwind Airlines", "iata": "N4", "icao": "NWS"}]}, {"destination": {"icao": "UMMS", "iata": "MSQ", "localCode": "\u041c\u0418\u041a", "name": "Minsk National", "shortName": "National", "municipalityName": "Minsk", "location": {"lat": 53.8825, "lon": 28.0307}, "countryCode": "BY"}, "averageDailyFlights": 0.43, "operators": [{"name": "Belavia", "iata": "B2", "icao": "BRU"}]}, {"destination": {"icao": "UDYZ", "iata": "EVN", "localCode": "\u0417\u0412\u0420", "name": "Yerevan Zvartnots", "shortName": "Zvartnots", "municipalityName": "Yerevan", "location": {"lat": 40.1473, "lon": 44.3959}, "countryCode": "AM"}, "averageDailyFlights": 0.43, "operators": [{"name": "Red Wings", "iata": "WZ", "icao": "RWZ"}]}, {"destination": {"name": "Antalya"}, "averageDailyFlights": 0.43, "operators": [{"name": "Air Stork", "iata": "2S", "icao": "MSB"}, {"name": "Red Wings", "iata": "WZ", "icao": "RWZ"}]}, {"destination": {"name": "Kutaisi"}, "averageDailyFlights": 0.43, "operators": [{"name": "Red Wings", "iata": "WZ", "icao": "RWZ"}]}, {"destination": {"icao": "UTSS", "iata": "SKD", "localCode": "\u0421\u041a\u0414", "name": "Samarkand ", "shortName": "Samarkand", "municipalityName": "Samarkand", "location": {"lat": 39.7005, "lon": 66.9838}, "countryCode": "UZ"}, "averageDailyFlights": 0.36, "operators": [{"name": "Uzbekistan Airways", "iata": "HY", "icao": "UZB"}, {"name": "UVT Aero", "iata": "RT", "icao": "UVT"}, {"name": "Red Wings", "iata": "WZ", "icao": "RWZ"}]}, {"destination": {"icao": "UNBG", "iata": "RGK", "localCode": "\u0413\u041e\u0420", "name": "Gorno-Altaysk ", "shortName": "Gorno-Altaysk", "municipalityName": "Gorno-Altaysk", "location": {"lat": 51.9667, "lon": 85.8333}, "countryCode": "RU"}, "averageDailyFlights": 0.29, "operators": [{"name": "UVT Aero", "iata": "RT", "icao": "UVT"}]}, {"destination": {"icao": "URMG", "iata": "GRV", "localCode": "\u0413\u0420\u041d", "name": "Grozny North", "shortName": "North", "municipalityName": "Grozny", "location": {"lat": 43.3883, "lon": 45.6986}, "countryCode": "RU"}, "averageDailyFlights": 0.29, "operators": [{"name": "Nordwind Airlines", "iata": "N4", "icao": "NWS"}]}, {"destination": {"icao": "UIII", "iata": "IKT", "localCode": "\u0418\u041a\u0422", "name": "Irkutsk ", "shortName": "Irkutsk", "municipalityName": "Irkutsk", "location": {"lat": 52.268, "lon": 104.389}, "countryCode": "RU"}, "averageDailyFlights": 0.29, "operators": [{"name": "Nordwind Airlines", "iata": "N4", "icao": "NWS"}]}, {"destination": {"icao": "USHH", "iata": "HMA", "localCode": "\u0425\u0410\u0421", "name": "Khanty-Mansiysk Khanty Mansiysk", "shortName": "Khanty Mansiysk", "municipalityName": "Khanty-Mansiysk", "location": {"lat": 61.0285, "lon": 69.0861}, "countryCode": "RU"}, "averageDailyFlights": 0.29, "operators": [{"name": "RusLine", "iata": "7R", "icao": "RLU"}]}, {"destination": {"icao": "UWGG", "iata": "GOJ", "localCode": "\u041d\u0416\u0421", "name": "Nizhniy Novgorod Strigino", "shortName": "Strigino", "municipalityName": "Nizhniy Novgorod", "location": {"lat": 56.2301, "lon": 43.784}, "countryCode": "RU"}, "averageDailyFlights": 0.29, "operators": [{"name": "UVT Aero", "iata": "RT", "icao": "UVT"}]}, {"destination": {"icao": "UNWW", "iata": "NOZ", "localCode": "\u041d\u0412\u041a", "name": "Novokuznetsk Spichenkovo", "shortName": "Spichenkovo", "municipalityName": "Novokuznetsk", "location": {"lat": 53.8114, "lon": 86.8772}, "countryCode": "RU"}, "averageDailyFlights": 0.29, "operators": [{"name": "Nordwind Airlines", "iata": "N4", "icao": "NWS"}]}, {"destination": {"icao": "VTSP", "iata": "HKT", "name": "Phuket ", "shortName": "Phuket", "municipalityName": "Phuket", "location": {"lat": 8.1132, "lon": 98.3169}, "countryCode": "TH"}, "averageDailyFlights": 0.29, "operators": [{"name": "Red Wings", "iata": "WZ", "icao": "RWZ"}, {"name": "AZUR Air", "iata": "ZF", "icao": "KTK"}]}, {"destination": {"icao": "USDD", "iata": "SLY", "localCode": "\u0421\u0425\u0414", "name": "Salekhard ", "shortName": "Salekhard", "municipalityName": "Salekhard", "location": {"lat": 66.5908, "lon": 66.611}, "countryCode": "RU"}, "averageDailyFlights": 0.29, "operators": [{"name": "Yamal Airlines", "iata": "YC", "icao": "LLM"}]}, {"destination": {"icao": "UNTT", "iata": "TOF", "localCode": "\u0422\u0421\u041a", "name": "Tomsk Bogashevo", "shortName": "Bogashevo", "municipalityName": "Tomsk", "location": {"lat": 56.3803, "lon": 85.2083}, "countryCode": "RU"}, "averageDailyFlights": 0.29, "operators": [{"name": "Nordwind Airlines", "iata": "N4", "icao": "NWS"}]}, {"destination": {"icao": "URMO", "iata": "OGZ", "localCode": "\u0412\u041b\u0410", "name": "Vladikavkaz Beslan", "shortName": "Beslan", "municipalityName": "Vladikavkaz", "location": {"lat": 43.2051, "lon": 44.6066}, "countryCode": "RU"}, "averageDailyFlights": 0.29, "operators": [{"name": "Nordwind Airlines", "iata": "N4", "icao": "NWS"}]}, {"destination": {"name": "Nizhnevartovsk"}, "averageDailyFlights": 0.29, "operators": [{"name": "UVT Aero", "iata": "RT", "icao": "UVT"}]}, {"destination": {"icao": "UACC", "iata": "NQZ", "name": "Astana Nursultan Nazarbayev", "shortName": "Nursultan Nazarbayev", "municipalityName": "Astana", "location": {"lat": 51.0222, "lon": 71.4669}, "countryCode": "KZ"}, "averageDailyFlights": 0.14, "operators": [{"name": "Red Wings", "iata": "WZ", "icao": "RWZ"}]}, {"destination": {"icao": "UNEE", "iata": "KEJ", "localCode": "\u041a\u0420\u0412", "name": "Kemerovo ", "shortName": "Kemerovo", "municipalityName": "Kemerovo", "location": {"lat": 55.2701, "lon": 86.1072}, "countryCode": "RU"}, "averageDailyFlights": 0.14, "operators": [{"name": "UVT Aero", "iata": "RT", "icao": "UVT"}]}, {"destination": {"icao": "USKK", "iata": "KVX", "localCode": "\u041a\u0418\u041e", "name": "Kirov Pobedilovo", "shortName": "Pobedilovo", "municipalityName": "Kirov", "location": {"lat": 58.5033, "lon": 49.3483}, "countryCode": "RU"}, "averageDailyFlights": 0.14, "operators": [{"name": "UVT Aero", "iata": "RT", "icao": "UVT"}]}, {"destination": {"icao": "UNOO", "iata": "OMS", "localCode": "\u041e\u041c\u0421", "name": "Omsk Central", "shortName": "Central", "municipalityName": "Omsk", "location": {"lat": 54.967, "lon": 73.3105}, "countryCode": "RU"}, "averageDailyFlights": 0.14, "operators": [{"name": "Red Wings", "iata": "WZ", "icao": "RWZ"}]}, {"destination": {"icao": "UCFO", "iata": "OSS", "localCode": "\u041e\u0428\u0428", "name": "Osh ", "shortName": "Osh", "municipalityName": "Osh", "location": {"lat": 40.609, "lon": 72.7933}, "countryCode": "KG"}, "averageDailyFlights": 0.14, "operators": [{"name": "Ural Airlines", "iata": "U6", "icao": "SVR"}]}, {"destination": {"icao": "ULPB", "iata": "PES", "localCode": "\u041f\u0422\u0411", "name": "Petrozavodsk ", "shortName": "Petrozavodsk", "municipalityName": "Petrozavodsk", "location": {"lat": 61.8852, "lon": 34.1547}, "countryCode": "RU"}, "averageDailyFlights": 0.14, "operators": [{"name": "UVT Aero", "iata": "RT", "icao": "UVT"}]}, {"destination": {"name": "Ashgabat"}, "averageDailyFlights": 0.14, "operators": [{"name": "Turkmenistan Airlines", "iata": "T5", "icao": "TUA"}]}, {"destination": {"name": "Auch"}, "averageDailyFlights": 0.14, "operators": [{"name": "Ural Airlines", "iata": "U6", "icao": "SVR"}]}, {"destination": {"name": "Chelyabinsk"}, "averageDailyFlights": 0.14, "operators": [{"name": "Red Wings", "iata": "WZ", "icao": "RWZ"}]}, {"destination": {"name": "Novyy Urengoy"}, "averageDailyFlights": 0.14, "operators": [{"name": "UVT Aero", "iata": "RT", "icao": "UVT"}]}, {"destination": {"name": "Tbilisi"}, "averageDailyFlights": 0.14, "operators": [{"name": "Red Wings", "iata": "WZ", "icao": "RWZ"}]}]}