{"routes": [{"destination": {"icao": "VTBD", "iata": "DMK", "name": "Bangkok Don Mueang", "shortName": "Don Mueang", "municipalityName": "Bangkok", "location": {"lat": 13.912599, "lon": 100.607}, "countryCode": "TH"}, "averageDailyFlights": 12.29, "operators": [{"name": "Nok Air", "iata": "DD", "icao": "NOK"}, {"name": "Thai Lion Air", "iata": "SL", "icao": "TLM"}, {"name": "Thai AirAsia", "iata": "FD", "icao": "AIQ"}]}, {"destination": {"icao": "VTBS", "iata": "BKK", "name": "Bangkok Suvarnabhumi", "shortName": "Suvarnabhumi", "municipalityName": "Bangkok", "location": {"lat": 13.681099, "lon": 100.747}, "countryCode": "TH"}, "averageDailyFlights": 6.14, "operators": [{"name": "Thai Airways International", "iata": "TG", "icao": "THA"}, {"name": "Thai Vietjet Air", "iata": "VZ", "icao": "TVJ"}]}, {"destination": {"icao": "VTSP", "iata": "HKT", "name": "Phuket ", "shortName": "Phuket", "municipalityName": "Phuket", "location": {"lat": 8.1132, "lon": 98.3169}, "countryCode": "TH"}, "averageDailyFlights": 1.14, "operators": [{"name": "Thai AirAsia", "iata": "FD", "icao": "AIQ"}]}, {"destination": {"icao": "VTCC", "iata": "CNX", "name": "Chiangmai Chiang Mai", "shortName": "Chiang Mai", "municipalityName": "Chiangmai", "location": {"lat": 18.7668, "lon": 98.9626}, "countryCode": "TH"}, "averageDailyFlights": 0.71, "operators": [{"name": "Nok Air", "iata": "DD", "icao": "NOK"}]}, {"destination": {"icao": "VTSS", "iata": "HDY", "name": "Hat Yai ", "shortName": "Hat Yai", "municipalityName": "Hat Yai", "location": {"lat": 6.933209, "lon": 100.393}, "countryCode": "TH"}, "averageDailyFlights": 0.43, "operators": [{"name": "Thai Lion Air", "iata": "SL", "icao": "TLM"}]}]}