{"routes": [{"destination": {"icao": "YMML", "iata": "MEL", "name": "Melbourne City Melbourne", "shortName": "Melbourne", "municipalityName": "Melbourne City", "location": {"lat": -37.6733, "lon": 144.843}, "countryCode": "AU"}, "averageDailyFlights": 12.01, "operators": [{"name": "Virgin Australia", "iata": "VA", "icao": "VOZ"}, {"name": "Jetstar", "iata": "JQ", "icao": "JST"}, {"name": "Qantas", "iata": "QF", "icao": "QFA"}]}, {"destination": {"icao": "YSSY", "iata": "SYD", "name": "Sydney City Sydney Kingsford Smith", "shortName": "Sydney Kingsford Smith", "municipalityName": "Sydney City", "location": {"lat": -33.9461, "lon": 151.177}, "countryCode": "AU"}, "averageDailyFlights": 4.86, "operators": [{"name": "Jetstar", "iata": "JQ", "icao": "JST"}, {"name": "Qantas", "iata": "QF", "icao": "QFA"}, {"name": "Virgin Australia", "iata": "VA", "icao": "VOZ"}]}, {"destination": {"icao": "YBBN", "iata": "BNE", "name": "Brisbane City Brisbane", "shortName": "Brisbane", "municipalityName": "Brisbane City", "location": {"lat": -27.3842, "lon": 153.117}, "countryCode": "AU"}, "averageDailyFlights": 2.86, "operators": [{"name": "Virgin Australia", "iata": "VA", "icao": "VOZ"}, {"name": "Jetstar", "iata": "JQ", "icao": "JST"}, {"name": "Qantas", "iata": "QF", "icao": "QFA"}]}, {"destination": {"icao": "YFLI", "iata": "FLS", "name": "Flinders Island ", "shortName": "Flinders Island", "municipalityName": "Flinders Island", "location": {"lat": -40.0917, "lon": 147.993}, "countryCode": "AU"}, "averageDailyFlights": 2.14, "operators": [{"name": "Sharp Airlines", "iata": "SH"}]}, {"destination": {"icao": "YWYY", "iata": "BWT", "name": "Burnie Wynyard", "shortName": "Wynyard", "municipalityName": "Burnie", "location": {"lat": -40.9989, "lon": 145.731}, "countryCode": "AU"}, "averageDailyFlights": 1.57, "operators": [{"name": "Sharp Airlines", "iata": "SH"}]}, {"destination": {"icao": "YPPH", "iata": "PER", "name": "Perth International", "shortName": "International", "municipalityName": "Perth", "location": {"lat": -31.940277, "lon": 115.96694}, "countryCode": "AU"}, "averageDailyFlights": 0.57, "operators": [{"name": "Virgin Australia", "iata": "VA", "icao": "VOZ"}]}, {"destination": {"icao": "YPAD", "iata": "ADL", "name": "Adelaide ", "shortName": "Adelaide", "municipalityName": "Adelaide", "location": {"lat": -34.945, "lon": 138.531}, "countryCode": "AU"}, "averageDailyFlights": 0.43, "operators": [{"name": "Virgin Australia", "iata": "VA", "icao": "VOZ"}]}]}