{"routes": [{"destination": {"icao": "YBBN", "iata": "BNE", "name": "Brisbane City Brisbane", "shortName": "Brisbane", "municipalityName": "Brisbane City", "location": {"lat": -27.3842, "lon": 153.117}, "countryCode": "AU"}, "averageDailyFlights": 4.29, "operators": [{"name": "Jetstar", "iata": "JQ", "icao": "JST"}, {"name": "Qantas", "iata": "QF", "icao": "QFA"}, {"name": "Virgin Australia", "iata": "VA", "icao": "VOZ"}]}, {"destination": {"icao": "YMML", "iata": "MEL", "name": "Melbourne City Melbourne", "shortName": "Melbourne", "municipalityName": "Melbourne City", "location": {"lat": -37.6733, "lon": 144.843}, "countryCode": "AU"}, "averageDailyFlights": 3.0, "operators": [{"name": "Jetstar", "iata": "JQ", "icao": "JST"}, {"name": "Qantas", "iata": "QF", "icao": "QFA"}, {"name": "Virgin Australia", "iata": "VA", "icao": "VOZ"}]}, {"destination": {"icao": "YPKU", "iata": "KNX", "name": "Kununurra ", "shortName": "Kununurra", "municipalityName": "Kununurra", "location": {"lat": -15.7781, "lon": 128.708}, "countryCode": "AU"}, "averageDailyFlights": 2.14, "operators": [{"name": "Airnorth", "iata": "TL", "icao": "ANO"}, {"name": "Aviair Pty Ltd", "iata": "GD"}]}, {"destination": {"icao": "YSSY", "iata": "SYD", "name": "Sydney City Sydney Kingsford Smith", "shortName": "Sydney Kingsford Smith", "municipalityName": "Sydney City", "location": {"lat": -33.9461, "lon": 151.177}, "countryCode": "AU"}, "averageDailyFlights": 2.14, "operators": [{"name": "Jetstar", "iata": "JQ", "icao": "JST"}, {"name": "Qantas", "iata": "QF", "icao": "QFA"}]}, {"destination": {"icao": "YPAD", "iata": "ADL", "name": "Adelaide ", "shortName": "Adelaide", "municipalityName": "Adelaide", "location": {"lat": -34.945, "lon": 138.531}, "countryCode": "AU"}, "averageDailyFlights": 2.0, "operators": [{"name": "Qantas", "iata": "QF", "icao": "QFA"}, {"name": "Jetstar", "iata": "JQ", "icao": "JST"}]}, {"destination": {"icao": "YPPH", "iata": "PER", "name": "Perth International", "shortName": "International", "municipalityName": "Perth", "location": {"lat": -31.940277, "lon": 115.96694}, "countryCode": "AU"}, "averageDailyFlights": 2.0, "operators": [{"name": "Virgin Australia", "iata": "VA", "icao": "VOZ"}, {"name": "Qantas", "iata": "QF", "icao": "QFA"}]}, {"destination": {"icao": "WPDL", "iata": "DIL", "name": "Dili Presidente Nicolau Lobato", "shortName": "Presidente Nicolau Lobato", "municipalityName": "Dili", "location": {"lat": -8.5464, "lon": 125.526}, "countryCode": "TL"}, "averageDailyFlights": 1.43, "operators": [{"name": "Qantas", "iata": "QF", "icao": "QFA"}, {"name": "Airnorth", "iata": "TL", "icao": "ANO"}]}, {"destination": {"icao": "YPGV", "iata": "GOV", "name": "Nhulunbuy Gove", "shortName": "Gove", "municipalityName": "Nhulunbuy", "location": {"lat": -12.269399, "lon": 136.818}, "countryCode": "AU"}, "averageDailyFlights": 1.43, "operators": [{"name": "Airnorth", "iata": "TL", "icao": "ANO"}]}, {"destination": {"icao": "YBAS", "iata": "ASP", "name": "Springs Alice", "shortName": "Alice", "municipalityName": "Springs", "location": {"lat": -23.8067, "lon": 133.902}, "countryCode": "AU"}, "averageDailyFlights": 1.14, "operators": [{"name": "Qantas", "iata": "QF", "icao": "QFA"}]}, {"destination": {"icao": "YGTE", "iata": "GTE", "name": "Groote Eylandt ", "shortName": "Groote Eylandt", "municipalityName": "Groote Eylandt", "location": {"lat": -13.975, "lon": 136.46}, "countryCode": "AU"}, "averageDailyFlights": 1.0, "operators": [{"name": "Airnorth", "iata": "TL", "icao": "ANO"}]}, {"destination": {"icao": "WADD", "iata": "DPS", "name": "Denpasar-Bali Island Ngurah Rai (Bali)", "shortName": "Ngurah Rai (Bali)", "municipalityName": "Denpasar-Bali Island", "location": {"lat": -8.748169, "lon": 115.167}, "countryCode": "ID"}, "averageDailyFlights": 0.86, "operators": [{"name": "Jetstar", "iata": "JQ", "icao": "JST"}]}, {"destination": {"icao": "YMHU", "iata": "MCV", "name": "McArthur River Mine ", "shortName": "McArthur River Mine", "municipalityName": "McArthur River Mine", "location": {"lat": -16.4425, "lon": 136.084}, "countryCode": "AU"}, "averageDailyFlights": 0.86, "operators": [{"name": "Airnorth", "iata": "TL", "icao": "ANO"}]}, {"destination": {"icao": "YMGB", "iata": "MGT", "name": "Milingimbi Island Milingimbi", "shortName": "Milingimbi", "municipalityName": "Milingimbi Island", "location": {"lat": -12.0944, "lon": 134.894}, "countryCode": "AU"}, "averageDailyFlights": 0.86, "operators": [{"name": "Airnorth", "iata": "TL", "icao": "ANO"}]}, {"destination": {"icao": "YBCS", "iata": "CNS", "name": "Cairns ", "shortName": "Cairns", "municipalityName": "Cairns", "location": {"lat": -16.8858, "lon": 145.755}, "countryCode": "AU"}, "averageDailyFlights": 0.71, "operators": [{"name": "Jetstar", "iata": "JQ", "icao": "JST"}]}, {"destination": {"icao": "YMGD", "iata": "MNG", "name": "Maningrida ", "shortName": "Maningrida", "municipalityName": "Maningrida", "location": {"lat": -12.056099, "lon": 134.234}, "countryCode": "AU"}, "averageDailyFlights": 0.71, "operators": [{"name": "Airnorth", "iata": "TL", "icao": "ANO"}]}, {"destination": {"icao": "WSSS", "iata": "SIN", "name": "Singapore Changi", "shortName": "Changi", "municipalityName": "Singapore", "location": {"lat": 1.35019, "lon": 103.994}, "countryCode": "SG"}, "averageDailyFlights": 0.71, "operators": [{"name": "Singapore Airlines", "iata": "SQ", "icao": "SIA"}]}, {"destination": {"icao": "YELD", "iata": "ELC", "name": "Elcho Island ", "shortName": "Elcho Island", "municipalityName": "Elcho Island", "location": {"lat": -12.019399, "lon": 135.571}, "countryCode": "AU"}, "averageDailyFlights": 0.43, "operators": [{"name": "Airnorth", "iata": "TL", "icao": "ANO"}]}, {"destination": {"icao": "YBTL", "iata": "TSV", "name": "Townsville ", "shortName": "Townsville", "municipalityName": "Townsville", "location": {"lat": -19.2525, "lon": 146.765}, "countryCode": "AU"}, "averageDailyFlights": 0.43, "operators": [{"name": "Airnorth", "iata": "TL", "icao": "ANO"}]}]}