{"routes": [{"destination": {"icao": "ZWSH", "iata": "KHG", "name": "Kashgar ", "shortName": "Kashgar", "municipalityName": "Kashgar", "location": {"lat": 39.5429, "lon": 76.02}, "countryCode": "CN"}, "averageDailyFlights": 16.86, "operators": [{"name": "China Southern Airlines", "iata": "CZ", "icao": "CSN"}, {"name": "Tianjin Airlines", "iata": "GS", "icao": "GCR"}, {"name": "Shandong Airlines", "iata": "SC", "icao": "CDG"}, {"name": "China Eastern Airlines", "iata": "MU", "icao": "CES"}, {"name": "Hainan Airlines", "iata": "HU", "icao": "CHH"}, {"name": "Urumqi Airlines", "iata": "UQ", "icao": "CUH"}, {"name": "Air China", "iata": "CA", "icao": "CCA"}, {"name": "Suparna Airlines", "iata": "Y8", "icao": "YZR"}, {"name": "Lucky Air", "iata": "8L", "icao": "LKE"}]}, {"destination": {"icao": "ZUUU", "iata": "CTU", "name": "Chengdu Shuangliu", "shortName": "Shuangliu", "municipalityName": "Chengdu", "location": {"lat": 30.5785, "lon": 103.947}, "countryCode": "CN"}, "averageDailyFlights": 15.15, "operators": [{"name": "Chengdu Airlines", "iata": "EU", "icao": "UEA"}, {"name": "Sichuan Airlines", "iata": "3U", "icao": "CSC"}, {"name": "Shanghai Airlines", "iata": "FM", "icao": "CSH"}, {"name": "Air China", "iata": "CA", "icao": "CCA"}, {"name": "China Southern Airlines", "iata": "CZ", "icao": "CSN"}, {"name": "Loong Air", "iata": "GJ", "icao": "CDC"}, {"name": "Juneyao Airlines", "iata": "HO", "icao": "DKH"}, {"name": "Lucky Air", "iata": "8L", "icao": "LKE"}, {"name": "Tianjin Airlines", "iata": "GS", "icao": "GCR"}]}, {"destination": {"icao": "ZHCC", "iata": "CGO", "name": "Zhengzhou Xinzheng", "shortName": "Xinzheng", "municipalityName": "Zhengzhou", "location": {"lat": 34.5197, "lon": 113.841}, "countryCode": "CN"}, "averageDailyFlights": 11.71, "operators": [{"name": "Urumqi Airlines", "iata": "UQ", "icao": "CUH"}, {"name": "Hainan Airlines", "iata": "HU", "icao": "CHH"}, {"name": "China Southern Airlines", "iata": "CZ", "icao": "CSN"}, {"name": "West Air (China)", "iata": "PN", "icao": "CHB"}, {"name": "Lucky Air", "iata": "8L", "icao": "LKE"}, {"name": "Shanghai Airlines", "iata": "FM", "icao": "CSH"}]}, {"destination": {"icao": "ZLXY", "iata": "XIY", "name": "Xianyang Xi'an", "shortName": "Xi'an", "municipalityName": "Xianyang", "location": {"lat": 34.4471, "lon": 108.752}, "countryCode": "CN"}, "averageDailyFlights": 11.14, "operators": [{"name": "China Eastern Airlines", "iata": "MU", "icao": "CES"}, {"name": "Tianjin Airlines", "iata": "GS", "icao": "GCR"}, {"name": "China Southern Airlines", "iata": "CZ", "icao": "CSN"}, {"name": "Sichuan Airlines", "iata": "3U", "icao": "CSC"}, {"name": "Air Changan", "iata": "9H", "icao": "CGN"}, {"name": "Hainan Airlines", "iata": "HU", "icao": "CHH"}]}, {"destination": {"icao": "ZWTN", "iata": "HTN", "name": "Hotan ", "shortName": "Hotan", "municipalityName": "Hotan", "location": {"lat": 37.0385, "lon": 79.8649}, "countryCode": "CN"}, "averageDailyFlights": 10.86, "operators": [{"name": "China Southern Airlines", "iata": "CZ", "icao": "CSN"}, {"name": "Tianjin Airlines", "iata": "GS", "icao": "GCR"}, {"name": "Hainan Airlines", "iata": "HU", "icao": "CHH"}, {"name": "Urumqi Airlines", "iata": "UQ", "icao": "CUH"}]}, {"destination": {"icao": "ZBAD", "iata": "PKX", "name": "Beijing Daxing", "shortName": "Daxing", "municipalityName": "Beijing", "location": {"lat": 39.509167, "lon": 116.41055}, "countryCode": "CN"}, "averageDailyFlights": 9.5, "operators": [{"name": "China Southern Airlines", "iata": "CZ", "icao": "CSN"}, {"name": "Beijing Capital Airlines", "iata": "JD", "icao": "CBJ"}, {"name": "Air China", "iata": "CA", "icao": "CCA"}]}, {"destination": {"icao": "ZGGG", "iata": "CAN", "name": "Guangzhou Baiyun", "shortName": "Baiyun", "municipalityName": "Guangzhou", "location": {"lat": 23.3924, "lon": 113.299}, "countryCode": "CN"}, "averageDailyFlights": 8.19, "operators": [{"name": "Air China", "iata": "CA", "icao": "CCA"}, {"name": "China Southern Airlines", "iata": "CZ", "icao": "CSN"}, {"name": "Urumqi Airlines", "iata": "UQ", "icao": "CUH"}, {"name": "Hainan Airlines", "iata": "HU", "icao": "CHH"}, {"name": "9 Air Co", "iata": "AQ", "icao": "JYH"}]}, {"destination": {"icao": "ZWAK", "iata": "AKU", "name": "Aksu ", "shortName": "Aksu", "municipalityName": "Aksu", "location": {"lat": 41.2625, "lon": 80.2917}, "countryCode": "CN"}, "averageDailyFlights": 8.14, "operators": [{"name": "China Southern Airlines", "iata": "CZ", "icao": "CSN"}, {"name": "Air China", "iata": "CA", "icao": "CCA"}, {"name": "Tianjin Airlines", "iata": "GS", "icao": "GCR"}, {"name": "China Express Airlines", "iata": "G5", "icao": "HXA"}]}, {"destination": {"icao": "ZUCK", "iata": "CKG", "name": "Chongqing Jiangbei", "shortName": "Jiangbei", "municipalityName": "Chongqing", "location": {"lat": 29.7192, "lon": 106.642}, "countryCode": "CN"}, "averageDailyFlights": 8.14, "operators": [{"name": "China Southern Airlines", "iata": "CZ", "icao": "CSN"}, {"name": "West Air (China)", "iata": "PN", "icao": "CHB"}, {"name": "Hainan Airlines", "iata": "HU", "icao": "CHH"}, {"name": "Sichuan Airlines", "iata": "3U", "icao": "CSC"}, {"name": "Tianjin Airlines", "iata": "GS", "icao": "GCR"}, {"name": "Air China", "iata": "CA", "icao": "CCA"}]}, {"destination": {"icao": "ZSHC", "iata": "HGH", "name": "Hangzhou Xiaoshan", "shortName": "Xiaoshan", "municipalityName": "Hangzhou", "location": {"lat": 30.2295, "lon": 120.434}, "countryCode": "CN"}, "averageDailyFlights": 8.14, "operators": [{"name": "Beijing Capital Airlines", "iata": "JD", "icao": "CBJ"}, {"name": "Tianjin Airlines", "iata": "GS", "icao": "GCR"}, {"name": "Shandong Airlines", "iata": "SC", "icao": "CDG"}, {"name": "Hainan Airlines", "iata": "HU", "icao": "CHH"}, {"name": "China Southern Airlines", "iata": "CZ", "icao": "CSN"}, {"name": "Sichuan Airlines", "iata": "3U", "icao": "CSC"}, {"name": "Loong Air", "iata": "GJ", "icao": "CDC"}, {"name": "Air China", "iata": "CA", "icao": "CCA"}, {"name": "Xiamen Airlines", "iata": "MF", "icao": "CXA"}]}, {"destination": {"icao": "ZWYN", "iata": "YIN", "name": "Yining ", "shortName": "Yining", "municipalityName": "Yining", "location": {"lat": 43.9558, "lon": 81.3303}, "countryCode": "CN"}, "averageDailyFlights": 7.71, "operators": [{"name": "Tianjin Airlines", "iata": "GS", "icao": "GCR"}, {"name": "China Southern Airlines", "iata": "CZ", "icao": "CSN"}]}, {"destination": {"icao": "ZSNJ", "iata": "NKG", "name": "Nanjing Lukou", "shortName": "Lukou", "municipalityName": "Nanjing", "location": {"lat": 31.742, "lon": 118.862}, "countryCode": "CN"}, "averageDailyFlights": 6.14, "operators": [{"name": "Shandong Airlines", "iata": "SC", "icao": "CDG"}, {"name": "Hainan Airlines", "iata": "HU", "icao": "CHH"}, {"name": "China Southern Airlines", "iata": "CZ", "icao": "CSN"}, {"name": "China Eastern Airlines", "iata": "MU", "icao": "CES"}]}, {"destination": {"icao": "ZSSS", "iata": "SHA", "name": "Shanghai Hongqiao", "shortName": "Hongqiao", "municipalityName": "Shanghai", "location": {"lat": 31.1979, "lon": 121.336}, "countryCode": "CN"}, "averageDailyFlights": 5.57, "operators": [{"name": "Juneyao Airlines", "iata": "HO", "icao": "DKH"}, {"name": "Urumqi Airlines", "iata": "UQ", "icao": "CUH"}, {"name": "Shanghai Airlines", "iata": "FM", "icao": "CSH"}, {"name": "Spring Airlines", "iata": "9C", "icao": "CQH"}, {"name": "China Eastern Airlines", "iata": "MU", "icao": "CES"}]}, {"destination": {"icao": "ZSJN", "iata": "TNA", "name": "Jinan Yaoqiang", "shortName": "Yaoqiang", "municipalityName": "Jinan", "location": {"lat": 36.8572, "lon": 117.216}, "countryCode": "CN"}, "averageDailyFlights": 5.33, "operators": [{"name": "Hainan Airlines", "iata": "HU", "icao": "CHH"}, {"name": "China Southern Airlines", "iata": "CZ", "icao": "CSN"}, {"name": "Xiamen Airlines", "iata": "MF", "icao": "CXA"}, {"name": "Shandong Airlines", "iata": "SC", "icao": "CDG"}]}, {"destination": {"icao": "ZGSZ", "iata": "SZX", "name": "Shenzhen Bao'an", "shortName": "Bao'an", "municipalityName": "Shenzhen", "location": {"lat": 22.6393, "lon": 113.811}, "countryCode": "CN"}, "averageDailyFlights": 4.57, "operators": [{"name": "Shenzhen Airlines", "iata": "ZH", "icao": "CSZ"}, {"name": "Urumqi Airlines", "iata": "UQ", "icao": "CUH"}, {"name": "China Southern Airlines", "iata": "CZ", "icao": "CSN"}, {"name": "Hainan Airlines", "iata": "HU", "icao": "CHH"}]}, {"destination": {"icao": "ZWKC", "iata": "KCA", "name": "Kucha Kuqa", "shortName": "Kuqa", "municipalityName": "Kucha", "location": {"lat": 41.7181, "lon": 82.9869}, "countryCode": "CN"}, "averageDailyFlights": 4.43, "operators": [{"name": "Tianjin Airlines", "iata": "GS", "icao": "GCR"}, {"name": "Hainan Airlines", "iata": "HU", "icao": "CHH"}, {"name": "China Southern Airlines", "iata": "CZ", "icao": "CSN"}]}, {"destination": {"icao": "ZWAT", "iata": "AAT", "name": "Altay Air Base", "shortName": "Air Base", "municipalityName": "Altay", "location": {"lat": 47.749886, "lon": 88.08581}, "countryCode": "CN"}, "averageDailyFlights": 4.29, "operators": [{"name": "Tianjin Airlines", "iata": "GS", "icao": "GCR"}, {"name": "China Southern Airlines", "iata": "CZ", "icao": "CSN"}]}, {"destination": {"icao": "ZHHH", "iata": "WUH", "name": "Wuhan Tianhe", "shortName": "Tianhe", "municipalityName": "Wuhan", "location": {"lat": 30.7838, "lon": 114.208}, "countryCode": "CN"}, "averageDailyFlights": 4.14, "operators": [{"name": "Hainan Airlines", "iata": "HU", "icao": "CHH"}, {"name": "China Southern Airlines", "iata": "CZ", "icao": "CSN"}, {"name": "Tianjin Airlines", "iata": "GS", "icao": "GCR"}]}, {"destination": {"name": "Haikou"}, "averageDailyFlights": 4.0, "operators": [{"name": "China Southern Airlines", "iata": "CZ", "icao": "CSN"}, {"name": "Urumqi Airlines", "iata": "UQ", "icao": "CUH"}]}, {"destination": {"icao": "ZGHA", "iata": "CSX", "name": "Changsha Huanghua", "shortName": "Huanghua", "municipalityName": "Changsha", "location": {"lat": 28.1892, "lon": 113.22}, "countryCode": "CN"}, "averageDailyFlights": 3.71, "operators": [{"name": "Hainan Airlines", "iata": "HU", "icao": "CHH"}, {"name": "China Southern Airlines", "iata": "CZ", "icao": "CSN"}, {"name": "Okay Airways", "iata": "BK", "icao": "OKA"}]}, {"destination": {"icao": "ZWKL", "iata": "KRL", "name": "Korla ", "shortName": "Korla", "municipalityName": "Korla", "location": {"lat": 41.6978, "lon": 86.1289}, "countryCode": "CN"}, "averageDailyFlights": 3.71, "operators": [{"name": "China Southern Airlines", "iata": "CZ", "icao": "CSN"}, {"name": "Tianjin Airlines", "iata": "GS", "icao": "GCR"}]}, {"destination": {"icao": "ZSQD", "iata": "TAO", "name": "Qingdao Liuting", "shortName": "Liuting", "municipalityName": "Qingdao", "location": {"lat": 36.2661, "lon": 120.374}, "countryCode": "CN"}, "averageDailyFlights": 3.48, "operators": [{"name": "China Southern Airlines", "iata": "CZ", "icao": "CSN"}, {"name": "Shandong Airlines", "iata": "SC", "icao": "CDG"}, {"name": "Qingdao Airlines", "iata": "QW", "icao": "QDA"}]}, {"destination": {"icao": "ZWTC", "iata": "TCG", "name": "Tacheng ", "shortName": "Tacheng", "municipalityName": "Tacheng", "location": {"lat": 46.6725, "lon": 83.3408}, "countryCode": "CN"}, "averageDailyFlights": 3.29, "operators": [{"name": "China Southern Airlines", "iata": "CZ", "icao": "CSN"}, {"name": "Tianjin Airlines", "iata": "GS", "icao": "GCR"}]}, {"destination": {"name": "Yutian"}, "averageDailyFlights": 3.29, "operators": [{"name": "Spring Airlines", "iata": "9C", "icao": "CQH"}, {"name": "Urumqi Airlines", "iata": "UQ", "icao": "CUH"}, {"name": "China Southern Airlines", "iata": "CZ", "icao": "CSN"}]}, {"destination": {"icao": "ZBAA", "iata": "PEK", "name": "Beijing Capital", "shortName": "Capital", "municipalityName": "Beijing", "location": {"lat": 40.0801, "lon": 116.585}, "countryCode": "CN"}, "averageDailyFlights": 3.14, "operators": [{"name": "Hainan Airlines", "iata": "HU", "icao": "CHH"}, {"name": "Sichuan Airlines", "iata": "3U", "icao": "CSC"}]}, {"destination": {"name": "Fuzhou"}, "averageDailyFlights": 3.14, "operators": [{"name": "Shandong Airlines", "iata": "SC", "icao": "CDG"}, {"name": "China Southern Airlines", "iata": "CZ", "icao": "CSN"}, {"name": "Xiamen Airlines", "iata": "MF", "icao": "CXA"}]}, {"destination": {"name": "Tumshuk"}, "averageDailyFlights": 2.71, "operators": [{"name": "China Southern Airlines", "iata": "CZ", "icao": "CSN"}, {"name": "9 Air Co", "iata": "AQ", "icao": "JYH"}, {"name": "Tianjin Airlines", "iata": "GS", "icao": "GCR"}, {"name": "China Eastern Airlines", "iata": "MU", "icao": "CES"}]}, {"destination": {"icao": "ZUGY", "iata": "KWE", "name": "Guiyang Longdongbao", "shortName": "Longdongbao", "municipalityName": "Guiyang", "location": {"lat": 26.5385, "lon": 106.801}, "countryCode": "CN"}, "averageDailyFlights": 2.57, "operators": [{"name": "China Southern Airlines", "iata": "CZ", "icao": "CSN"}, {"name": "Tianjin Airlines", "iata": "GS", "icao": "GCR"}]}, {"destination": {"name": "Venchzhou"}, "averageDailyFlights": 2.57, "operators": [{"name": "Urumqi Airlines", "iata": "UQ", "icao": "CUH"}, {"name": "China Southern Airlines", "iata": "CZ", "icao": "CSN"}, {"name": "Hainan Airlines", "iata": "HU", "icao": "CHH"}]}, {"destination": {"icao": "ZPPP", "iata": "KMG", "name": "Kunming Changshui", "shortName": "Changshui", "municipalityName": "Kunming", "location": {"lat": 25.101944, "lon": 102.92917}, "countryCode": "CN"}, "averageDailyFlights": 2.29, "operators": [{"name": "China Eastern Airlines", "iata": "MU", "icao": "CES"}, {"name": "China Southern Airlines", "iata": "CZ", "icao": "CSN"}]}, {"destination": {"name": "Changchun"}, "averageDailyFlights": 2.29, "operators": [{"name": "China Southern Airlines", "iata": "CZ", "icao": "CSN"}]}, {"destination": {"name": "Shache Airport"}, "averageDailyFlights": 2.29, "operators": [{"name": "China Southern Airlines", "iata": "CZ", "icao": "CSN"}]}, {"destination": {"name": "Shenyang"}, "averageDailyFlights": 2.29, "operators": [{"name": "Hainan Airlines", "iata": "HU", "icao": "CHH"}, {"name": "China Southern Airlines", "iata": "CZ", "icao": "CSN"}]}, {"destination": {"name": "Boro-Tala"}, "averageDailyFlights": 2.14, "operators": [{"name": "Tianjin Airlines", "iata": "GS", "icao": "GCR"}, {"name": "China Southern Airlines", "iata": "CZ", "icao": "CSN"}]}, {"destination": {"name": "Syamyn"}, "averageDailyFlights": 1.86, "operators": [{"name": "China Southern Airlines", "iata": "CZ", "icao": "CSN"}, {"name": "Xiamen Airlines", "iata": "MF", "icao": "CXA"}]}, {"destination": {"icao": "ZSPD", "iata": "PVG", "name": "Shanghai Pudong", "shortName": "Pudong", "municipalityName": "Shanghai", "location": {"lat": 31.1434, "lon": 121.805}, "countryCode": "CN"}, "averageDailyFlights": 1.57, "operators": [{"name": "China Southern Airlines", "iata": "CZ", "icao": "CSN"}, {"name": "Suparna Airlines", "iata": "Y8", "icao": "YZR"}]}, {"destination": {"name": "Almaty"}, "averageDailyFlights": 1.57, "operators": [{"name": "China Southern Airlines", "iata": "CZ", "icao": "CSN"}, {"name": "Air Astana", "iata": "KC", "icao": "KZR"}]}, {"destination": {"icao": "ZBTJ", "iata": "TSN", "name": "Tianjin Binhai", "shortName": "Binhai", "municipalityName": "Tianjin", "location": {"lat": 39.1244, "lon": 117.346}, "countryCode": "CN"}, "averageDailyFlights": 1.49, "operators": [{"name": "Air China", "iata": "CA", "icao": "CCA"}, {"name": "China Southern Airlines", "iata": "CZ", "icao": "CSN"}, {"name": "Tianjin Airlines", "iata": "GS", "icao": "GCR"}]}, {"destination": {"icao": "ZSOF", "iata": "HFE", "name": "Hefei Luogang", "shortName": "Luogang", "municipalityName": "Hefei", "location": {"lat": 31.78, "lon": 117.298}, "countryCode": "CN"}, "averageDailyFlights": 1.45, "operators": [{"name": "China Eastern Airlines", "iata": "MU", "icao": "CES"}, {"name": "China Southern Airlines", "iata": "CZ", "icao": "CSN"}]}, {"destination": {"icao": "ZWKN", "iata": "KJI", "name": "Burqin Kanas", "shortName": "Kanas", "municipalityName": "Burqin", "location": {"lat": 48.2223, "lon": 86.9959}, "countryCode": "CN"}, "averageDailyFlights": 1.29, "operators": [{"name": "China Southern Airlines", "iata": "CZ", "icao": "CSN"}]}, {"destination": {"icao": "ZLLL", "iata": "LHW", "name": "Lanzhou Zhongchuan", "shortName": "Zhongchuan", "municipalityName": "Lanzhou", "location": {"lat": 36.5152, "lon": 103.62}, "countryCode": "CN"}, "averageDailyFlights": 1.29, "operators": [{"name": "Spring Airlines", "iata": "9C", "icao": "CQH"}, {"name": "Qingdao Airlines", "iata": "QW", "icao": "QDA"}]}, {"destination": {"icao": "ZWKM", "iata": "KRY", "name": "Karamay ", "shortName": "Karamay", "municipalityName": "Karamay", "location": {"lat": 45.46655, "lon": 84.9527}, "countryCode": "CN"}, "averageDailyFlights": 1.14, "operators": [{"name": "China Southern Airlines", "iata": "CZ", "icao": "CSN"}]}, {"destination": {"icao": "ZGNN", "iata": "NNG", "name": "Nanning Wuxu", "shortName": "Wuxu", "municipalityName": "Nanning", "location": {"lat": 22.6083, "lon": 108.172}, "countryCode": "CN"}, "averageDailyFlights": 1.14, "operators": [{"name": "Sichuan Airlines", "iata": "3U", "icao": "CSC"}]}, {"destination": {"icao": "ZSNT", "iata": "NTG", "name": "Nantong ", "shortName": "Nantong", "municipalityName": "Nantong", "location": {"lat": 32.0708, "lon": 120.976}, "countryCode": "CN"}, "averageDailyFlights": 1.14, "operators": [{"name": "Tianjin Airlines", "iata": "GS", "icao": "GCR"}]}, {"destination": {"icao": "ZSWX", "iata": "WUX", "name": "Wuxi Sunan Shuofang", "shortName": "Sunan Shuofang", "municipalityName": "Wuxi", "location": {"lat": 31.4944, "lon": 120.429}, "countryCode": "CN"}, "averageDailyFlights": 1.14, "operators": [{"name": "China Eastern Airlines", "iata": "MU", "icao": "CES"}]}, {"destination": {"icao": "ZSXZ", "iata": "XUZ", "name": "Xuzhou Guanyin", "shortName": "Guanyin", "municipalityName": "Xuzhou", "location": {"lat": 34.059055, "lon": 117.555275}, "countryCode": "CN"}, "averageDailyFlights": 1.14, "operators": [{"name": "Loong Air", "iata": "GJ", "icao": "CDC"}]}, {"destination": {"name": "Dalian"}, "averageDailyFlights": 1.14, "operators": [{"name": "China Southern Airlines", "iata": "CZ", "icao": "CSN"}]}, {"destination": {"name": "Fuyun"}, "averageDailyFlights": 1.14, "operators": [{"name": "Tianjin Airlines", "iata": "GS", "icao": "GCR"}, {"name": "China Southern Airlines", "iata": "CZ", "icao": "CSN"}]}, {"destination": {"name": "Nanchang"}, "averageDailyFlights": 1.14, "operators": [{"name": "Jiangxi Airlines", "iata": "RY", "icao": "CJX"}]}, {"destination": {"name": "Sanya"}, "averageDailyFlights": 1.14, "operators": [{"name": "China Southern Airlines", "iata": "CZ", "icao": "CSN"}]}, {"destination": {"name": "Tszintszyan"}, "averageDailyFlights": 1.14, "operators": [{"name": "Urumqi Airlines", "iata": "UQ", "icao": "CUH"}]}, {"destination": {"name": "Zhanjiang"}, "averageDailyFlights": 1.14, "operators": [{"name": "Urumqi Airlines", "iata": "UQ", "icao": "CUH"}]}, {"destination": {"icao": "ZLXN", "iata": "XNN", "name": "Xining Caojiabu", "shortName": "Caojiabu", "municipalityName": "Xining", "location": {"lat": 36.5275, "lon": 102.043}, "countryCode": "CN"}, "averageDailyFlights": 1.0, "operators": [{"name": "Sichuan Airlines", "iata": "3U", "icao": "CSC"}]}, {"destination": {"name": "Xi'an"}, "averageDailyFlights": 1.0, "operators": [{"name": "China Southern Airlines", "iata": "CZ", "icao": "CSN"}]}, {"destination": {"icao": "ZHLY", "iata": "LYA", "name": "Luoyang ", "shortName": "Luoyang", "municipalityName": "Luoyang", "location": {"lat": 34.7411, "lon": 112.388}, "countryCode": "CN"}, "averageDailyFlights": 0.86, "operators": [{"name": "Urumqi Airlines", "iata": "UQ", "icao": "CUH"}]}, {"destination": {"name": "Iu"}, "averageDailyFlights": 0.86, "operators": [{"name": "China Southern Airlines", "iata": "CZ", "icao": "CSN"}]}, {"destination": {"icao": "UACC", "iata": "NQZ", "name": "Astana Nursultan Nazarbayev", "shortName": "Nursultan Nazarbayev", "municipalityName": "Astana", "location": {"lat": 51.0222, "lon": 71.4669}, "countryCode": "KZ"}, "averageDailyFlights": 0.71, "operators": [{"name": "China Southern Airlines", "iata": "CZ", "icao": "CSN"}, {"name": "Air Astana", "iata": "KC", "icao": "KZR"}]}, {"destination": {"icao": "UCFM", "iata": "FRU", "localCode": "\u0411\u0418\u0428", "name": "Bishkek Manas", "shortName": "Manas", "municipalityName": "Bishkek", "location": {"lat": 43.0613, "lon": 74.4776}, "countryCode": "KG"}, "averageDailyFlights": 0.71, "operators": [{"name": "China Southern Airlines", "iata": "CZ", "icao": "CSN"}]}, {"destination": {"icao": "OIIE", "iata": "IKA", "name": "Tehran Imam Khomeini", "shortName": "Imam Khomeini", "municipalityName": "Tehran", "location": {"lat": 35.4161, "lon": 51.1522}, "countryCode": "IR"}, "averageDailyFlights": 0.71, "operators": [{"name": "China Southern Airlines", "iata": "CZ", "icao": "CSN"}]}, {"destination": {"icao": "ZHYC", "iata": "YIH", "name": "Yichang ", "shortName": "Yichang", "municipalityName": "Yichang", "location": {"lat": 30.55655, "lon": 111.47999}, "countryCode": "CN"}, "averageDailyFlights": 0.71, "operators": [{"name": "GX Airlines", "iata": "GX", "icao": "CBG"}]}, {"destination": {"name": "Sauz-Traut-Leyk"}, "averageDailyFlights": 0.71, "operators": [{"name": "Tianjin Airlines", "iata": "GS", "icao": "GCR"}]}, {"destination": {"icao": "UTDD", "iata": "DYU", "localCode": "\u0414\u0428\u0411", "name": "Dushanbe ", "shortName": "Dushanbe", "municipalityName": "Dushanbe", "location": {"lat": 38.5433, "lon": 68.825}, "countryCode": "TJ"}, "averageDailyFlights": 0.57, "operators": [{"name": "China Southern Airlines", "iata": "CZ", "icao": "CSN"}, {"name": "Somon Air", "iata": "SZ", "icao": "SMR"}]}, {"destination": {"icao": "OPIS", "iata": "ISB", "name": "Islamabad ", "shortName": "Islamabad", "municipalityName": "Islamabad", "location": {"lat": 33.549, "lon": 72.82566}, "countryCode": "PK"}, "averageDailyFlights": 0.57, "operators": [{"name": "China Southern Airlines", "iata": "CZ", "icao": "CSN"}]}, {"destination": {"icao": "ZBYN", "iata": "TYN", "name": "Taiyuan Wusu", "shortName": "Wusu", "municipalityName": "Taiyuan", "location": {"lat": 37.7469, "lon": 112.628}, "countryCode": "CN"}, "averageDailyFlights": 0.57, "operators": [{"name": "LongJiang Airlines", "iata": "LT", "icao": "SNG"}]}, {"destination": {"icao": "UTTT", "iata": "TAS", "localCode": "\u0422\u0410\u0421", "name": "Tashkent ", "shortName": "Tashkent", "municipalityName": "Tashkent", "location": {"lat": 41.2579, "lon": 69.2812}, "countryCode": "UZ"}, "averageDailyFlights": 0.57, "operators": [{"name": "China Southern Airlines", "iata": "CZ", "icao": "CSN"}, {"name": "Uzbekistan Airways", "iata": "HY", "icao": "UZB"}]}, {"destination": {"icao": "UBBB", "iata": "GYD", "localCode": "\u0411\u0410\u041a", "name": "Baku Heydar Aliyev", "shortName": "Heydar Aliyev", "municipalityName": "Baku", "location": {"lat": 40.4675, "lon": 50.0467}, "countryCode": "AZ"}, "averageDailyFlights": 0.43, "operators": [{"name": "China Southern Airlines", "iata": "CZ", "icao": "CSN"}]}, {"destination": {"icao": "ZSFY", "iata": "FUG", "name": "Fuyang Xiguan", "shortName": "Xiguan", "municipalityName": "Fuyang", "location": {"lat": 32.882156, "lon": 115.73437}, "countryCode": "CN"}, "averageDailyFlights": 0.43, "operators": [{"name": "GX Airlines", "iata": "GX", "icao": "CBG"}]}, {"destination": {"icao": "OPLA", "iata": "LHE", "name": "Lahore Alama Iqbal", "shortName": "Alama Iqbal", "municipalityName": "Lahore", "location": {"lat": 31.5216, "lon": 74.4036}, "countryCode": "PK"}, "averageDailyFlights": 0.43, "operators": [{"name": "China Southern Airlines", "iata": "CZ", "icao": "CSN"}]}, {"destination": {"icao": "ZBSJ", "iata": "SJW", "name": "Shijiazhuang Daguocun", "shortName": "Daguocun", "municipalityName": "Shijiazhuang", "location": {"lat": 38.2807, "lon": 114.697}, "countryCode": "CN"}, "averageDailyFlights": 0.43, "operators": [{"name": "Hebei Airlines", "iata": "NS", "icao": "HBH"}]}, {"destination": {"icao": "UGTB", "iata": "TBS", "name": "Tbilisi ", "shortName": "Tbilisi", "municipalityName": "Tbilisi", "location": {"lat": 41.6692, "lon": 44.9547}, "countryCode": "GE"}, "averageDailyFlights": 0.43, "operators": [{"name": "China Southern Airlines", "iata": "CZ", "icao": "CSN"}]}, {"destination": {"name": "Nalati"}, "averageDailyFlights": 0.43, "operators": [{"name": "Tianjin Airlines", "iata": "GS", "icao": "GCR"}]}, {"destination": {"name": "Ningbo"}, "averageDailyFlights": 0.43, "operators": [{"name": "Spring Airlines", "iata": "9C", "icao": "CQH"}]}, {"destination": {"icao": "OMDB", "iata": "DXB", "name": "Dubai ", "shortName": "Dubai", "municipalityName": "Dubai", "location": {"lat": 25.252798, "lon": 55.3644}, "countryCode": "AE"}, "averageDailyFlights": 0.29, "operators": [{"name": "China Southern Airlines", "iata": "CZ", "icao": "CSN"}]}, {"destination": {"icao": "UTAA", "iata": "ASB", "localCode": "\u0410\u0428\u0425", "name": "Ashgabat ", "shortName": "Ashgabat", "municipalityName": "Ashgabat", "location": {"lat": 37.9868, "lon": 58.361}, "countryCode": "TM"}, "averageDailyFlights": 0.14, "operators": [{"name": "China Southern Airlines", "iata": "CZ", "icao": "CSN"}]}, {"destination": {"icao": "OAKB", "iata": "KBL", "name": "Kabul ", "shortName": "Kabul", "municipalityName": "Kabul", "location": {"lat": 34.5659, "lon": 69.2123}, "countryCode": "AF"}, "averageDailyFlights": 0.14, "operators": [{"name": "Ariana Afghan Airlines", "iata": "FG", "icao": "AFG"}]}, {"destination": {"icao": "ZUAL", "iata": "NGQ", "name": "Shiquanhe Ngari Gunsa", "shortName": "Ngari Gunsa", "municipalityName": "Shiquanhe", "location": {"lat": 32.1, "lon": 80.053055}, "countryCode": "CN"}, "averageDailyFlights": 0.14, "operators": [{"name": "Lucky Air", "iata": "8L", "icao": "LKE"}]}, {"destination": {"name": "Shankhayguan"}, "averageDailyFlights": 0.14, "operators": [{"name": "Urumqi Airlines", "iata": "UQ", "icao": "CUH"}]}]}