{"routes": [{"destination": {"icao": "BGSF", "iata": "SFJ", "name": "Kangerlussuaq ", "shortName": "Kangerlussuaq", "municipalityName": "Kangerlussuaq", "location": {"lat": 67.01222, "lon": -50.7116}, "countryCode": "GL"}, "averageDailyFlights": 5.86, "operators": [{"name": "Icelandair", "iata": "FI", "icao": "ICE"}, {"name": "Air Greenland", "iata": "GL", "icao": "GRL"}]}, {"destination": {"icao": "BIKF", "iata": "KEF", "name": "Reykjavik Keflavik", "shortName": "Keflavik", "municipalityName": "Reykjavik", "location": {"lat": 63.985, "lon": -22.6056}, "countryCode": "IS"}, "averageDailyFlights": 1.29, "operators": [{"name": "Icelandair", "iata": "FI", "icao": "ICE"}]}, {"destination": {"name": "Upernavik"}, "averageDailyFlights": 1.14, "operators": [{"name": "Air Greenland", "iata": "GL", "icao": "GRL"}]}, {"destination": {"icao": "BGAA", "iata": "JEG", "name": "Aasiaat ", "shortName": "Aasiaat", "municipalityName": "Aasiaat", "location": {"lat": 68.7218, "lon": -52.7847}, "countryCode": "GL"}, "averageDailyFlights": 1.0, "operators": [{"name": "Air Greenland", "iata": "GL", "icao": "GRL"}]}, {"destination": {"icao": "BGGH", "iata": "GOH", "name": "Nuuk ", "shortName": "Nuuk", "municipalityName": "Nuuk", "location": {"lat": 64.1909, "lon": -51.6781}, "countryCode": "GL"}, "averageDailyFlights": 0.86, "operators": [{"name": "Air Greenland", "iata": "GL", "icao": "GRL"}]}, {"destination": {"icao": "BGUQ", "iata": "JQA", "name": "Uummannaq Qaarsut", "shortName": "Qaarsut", "municipalityName": "Uummannaq", "location": {"lat": 70.7342, "lon": -52.6962}, "countryCode": "GL"}, "averageDailyFlights": 0.43, "operators": [{"name": "Air Greenland", "iata": "GL", "icao": "GRL"}]}, {"destination": {"name": "Qaanaaq"}, "averageDailyFlights": 0.29, "operators": [{"name": "Air Greenland", "iata": "GL", "icao": "GRL"}]}]}