{"routes": [{"destination": {"icao": "BIAR", "iata": "AEY", "name": "Akureyri ", "shortName": "Akureyri", "municipalityName": "Akureyri", "location": {"lat": 65.66, "lon": -18.0727}, "countryCode": "IS"}, "averageDailyFlights": 4.57, "operators": [{"name": "Icelandair", "iata": "FI", "icao": "ICE"}, {"name": "Norlandair"}]}, {"destination": {"icao": "BIEG", "iata": "EGS", "name": "Egilssta\u00f0ir ", "shortName": "Egilssta\u00f0ir", "municipalityName": "Egilssta\u00f0ir", "location": {"lat": 65.2833, "lon": -14.401399}, "countryCode": "IS"}, "averageDailyFlights": 3.29, "operators": [{"name": "Icelandair", "iata": "FI", "icao": "ICE"}]}, {"destination": {"icao": "BIIS", "iata": "IFJ", "name": "\u00cdsafj\u00f6r\u00f0ur ", "shortName": "\u00cdsafj\u00f6r\u00f0ur", "municipalityName": "\u00cdsafj\u00f6r\u00f0ur", "location": {"lat": 66.0581, "lon": -23.1353}, "countryCode": "IS"}, "averageDailyFlights": 2.43, "operators": [{"name": "Icelandair", "iata": "FI", "icao": "ICE"}, {"name": "Flugf\u00e9lagi\u00f0 Ernir"}]}, {"destination": {"icao": "BIVM", "iata": "VEY", "name": "Vestmannaeyjar ", "shortName": "Vestmannaeyjar", "municipalityName": "Vestmannaeyjar", "location": {"lat": 63.4243, "lon": -20.2789}, "countryCode": "IS"}, "averageDailyFlights": 2.43, "operators": [{"name": "Icelandair", "iata": "FI", "icao": "ICE"}, {"name": "Flugf\u00e9lagi\u00f0 Ernir"}]}, {"destination": {"icao": "BIHN", "iata": "HFN", "name": "Hornafjordur ", "shortName": "Hornafjordur", "municipalityName": "Hornafjordur", "location": {"lat": 64.2956, "lon": -15.227199}, "countryCode": "IS"}, "averageDailyFlights": 1.71, "operators": [{"name": "Flugf\u00e9lagi\u00f0 Ernir"}]}, {"destination": {"icao": "BIBD", "iata": "BIU", "name": "Bildudalur ", "shortName": "Bildudalur", "municipalityName": "Bildudalur", "location": {"lat": 65.6413, "lon": -23.5462}, "countryCode": "IS"}, "averageDailyFlights": 1.57, "operators": [{"name": "Norlandair"}]}, {"destination": {"icao": "BIHU", "iata": "HZK", "name": "Husavik ", "shortName": "Husavik", "municipalityName": "Husavik", "location": {"lat": 65.9523, "lon": -17.426}, "countryCode": "IS"}, "averageDailyFlights": 1.43, "operators": [{"name": "Flugf\u00e9lagi\u00f0 Ernir"}]}, {"destination": {"icao": "BGCO", "iata": "CNP", "name": "Neerlerit Inaat ", "shortName": "Neerlerit Inaat", "municipalityName": "Neerlerit Inaat", "location": {"lat": 70.7431, "lon": -22.6505}, "countryCode": "GL"}, "averageDailyFlights": 0.29, "operators": [{"name": "Norlandair"}, {"name": "Icelandair", "iata": "FI", "icao": "ICE"}]}, {"destination": {"icao": "BIBL", "iata": "BLO", "name": "Bl\u00f6ndu\u00f3s Hjaltabakki", "shortName": "Hjaltabakki", "municipalityName": "Bl\u00f6ndu\u00f3s", "location": {"lat": 65.645, "lon": -20.2875}, "countryCode": "IS"}, "averageDailyFlights": 0.14, "operators": [{"name": "Flugf\u00e9lagi\u00f0 Ernir"}]}, {"destination": {"icao": "BIGJ", "iata": "GJR", "name": "Gj\u00f6gur ", "shortName": "Gj\u00f6gur", "municipalityName": "Gj\u00f6gur", "location": {"lat": 65.9953, "lon": -21.3269}, "countryCode": "IS"}, "averageDailyFlights": 0.14, "operators": [{"name": "Norlandair"}]}, {"destination": {"icao": "BIKF", "iata": "KEF", "name": "Reykjavik Keflavik", "shortName": "Keflavik", "municipalityName": "Reykjavik", "location": {"lat": 63.985, "lon": -22.6056}, "countryCode": "IS"}, "averageDailyFlights": 0.14, "operators": [{"name": "Icelandair", "iata": "FI", "icao": "ICE"}]}, {"destination": {"icao": "BIRK", "iata": "RKV", "name": "Reykjavik ", "shortName": "Reykjavik", "municipalityName": "Reykjavik", "location": {"lat": 64.13, "lon": -21.9406}, "countryCode": "IS"}, "averageDailyFlights": 0.14, "operators": [{"name": "Flugf\u00e9lagi\u00f0 Ernir"}]}]}