{"routes": [{"destination": {"icao": "CYQT", "iata": "YQT", "name": "Thunder Bay ", "shortName": "Thunder Bay", "municipalityName": "Thunder Bay", "location": {"lat": 48.3719, "lon": -89.3239}, "countryCode": "CA"}, "averageDailyFlights": 1.29, "operators": [{"name": "Air Berlin", "iata": "AB", "icao": "BER"}, {"name": "PHX"}, {"name": "Bearskin Airlines", "iata": "JV", "icao": "BLS"}, {"name": "THU"}]}, {"destination": {"icao": "CYQK", "iata": "YQK", "name": "Kenora ", "shortName": "Kenora", "municipalityName": "Kenora", "location": {"lat": 49.7883, "lon": -94.3631}, "countryCode": "CA"}, "averageDailyFlights": 0.43, "operators": [{"name": "Bearskin Airlines", "iata": "JV", "icao": "BLS"}, {"name": "PUL"}]}, {"destination": {"icao": "CYTZ", "iata": "YTZ", "name": "Toronto Billy Bishop  City Centre", "shortName": "Billy Bishop  City Centre", "municipalityName": "Toronto", "location": {"lat": 43.6275, "lon": -79.3962}, "countryCode": "CA"}, "averageDailyFlights": 0.29, "operators": [{"name": "PHX"}]}, {"destination": {"icao": "CYHM", "iata": "YHM", "name": "Hamilton John C. Munro", "shortName": "John C. Munro", "municipalityName": "Hamilton", "location": {"lat": 43.1736, "lon": -79.935}, "countryCode": "CA"}, "averageDailyFlights": 0.14, "operators": [{"name": "PUL"}]}, {"destination": {"icao": "CYRL", "iata": "YRL", "name": "Red Lake ", "shortName": "Red Lake", "municipalityName": "Red Lake", "location": {"lat": 51.0669, "lon": -93.7931}, "countryCode": "CA"}, "averageDailyFlights": 0.14, "operators": [{"name": "Air Tindi", "iata": "8T", "icao": "TIN"}]}, {"destination": {"icao": "CYXL", "iata": "YXL", "name": "Sioux Lookout ", "shortName": "Sioux Lookout", "municipalityName": "Sioux Lookout", "location": {"lat": 50.1139, "lon": -91.9053}, "countryCode": "CA"}, "averageDailyFlights": 0.14, "operators": [{"name": "PHX"}]}]}