{"routes": [{"destination": {"icao": "LIMC", "iata": "MXP", "name": "Milan Malpensa", "shortName": "Malpensa", "municipalityName": "Milan", "location": {"lat": 45.6306, "lon": 8.72811}, "countryCode": "IT"}, "averageDailyFlights": 1.86, "operators": [{"name": "ABR"}]}, {"destination": {"icao": "ZSPD", "iata": "PVG", "name": "Shanghai Pudong", "shortName": "Pudong", "municipalityName": "Shanghai", "location": {"lat": 31.1434, "lon": 121.805}, "countryCode": "CN"}, "averageDailyFlights": 1.57, "operators": [{"name": "ASL Airlines Belgium", "iata": "3V", "icao": "TAY"}, {"name": "Ethiopian Airlines", "iata": "ET", "icao": "ETH"}]}, {"destination": {"icao": "OTHH", "iata": "DOH", "name": "Doha Hamad", "shortName": "Hamad", "municipalityName": "Doha", "location": {"lat": 25.273056, "lon": 51.608055}, "countryCode": "QA"}, "averageDailyFlights": 1.43, "operators": [{"name": "Qatar Airways", "iata": "QR", "icao": "QTR"}]}, {"destination": {"icao": "VHHH", "iata": "HKG", "name": "Hong Kong Chek Lap Kok", "shortName": "Chek Lap Kok", "municipalityName": "Hong Kong", "location": {"lat": 22.3089, "lon": 113.915}, "countryCode": "HK"}, "averageDailyFlights": 1.38, "operators": [{"name": "Ethiopian Airlines", "iata": "ET", "icao": "ETH"}, {"name": "Sino-Lac Air", "iata": "HQ"}]}, {"destination": {"icao": "ZGGG", "iata": "CAN", "name": "Guangzhou Baiyun", "shortName": "Baiyun", "municipalityName": "Guangzhou", "location": {"lat": 23.3924, "lon": 113.299}, "countryCode": "CN"}, "averageDailyFlights": 1.14, "operators": [{"name": "Ethiopian Airlines", "iata": "ET", "icao": "ETH"}]}, {"destination": {"icao": "BIKF", "iata": "KEF", "name": "Reykjavik Keflavik", "shortName": "Keflavik", "municipalityName": "Reykjavik", "location": {"lat": 63.985, "lon": -22.6056}, "countryCode": "IS"}, "averageDailyFlights": 1.14, "operators": [{"name": "Icelandair", "iata": "FI", "icao": "ICE"}]}, {"destination": {"icao": "LEMD", "iata": "MAD", "name": "Madrid Adolfo Su\u00e1rez \u2013Barajas", "shortName": "Adolfo Su\u00e1rez \u2013Barajas", "municipalityName": "Madrid", "location": {"lat": 40.4936, "lon": -3.56676}, "countryCode": "ES"}, "averageDailyFlights": 1.0, "operators": [{"name": "CAO"}]}, {"destination": {"icao": "ZHCC", "iata": "CGO", "name": "Zhengzhou Xinzheng", "shortName": "Xinzheng", "municipalityName": "Zhengzhou", "location": {"lat": 34.5197, "lon": 113.841}, "countryCode": "CN"}, "averageDailyFlights": 0.86, "operators": [{"name": "Ethiopian Airlines", "iata": "ET", "icao": "ETH"}]}, {"destination": {"icao": "KJFK", "iata": "JFK", "name": "New York John F Kennedy", "shortName": "John F Kennedy", "municipalityName": "New York", "location": {"lat": 40.6398, "lon": -73.7789}, "countryCode": "US"}, "averageDailyFlights": 0.71, "operators": [{"name": "CHG"}, {"name": "ASL Airlines Belgium", "iata": "3V", "icao": "TAY"}]}, {"destination": {"icao": "ENGM", "iata": "OSL", "name": "Oslo Gardermoen", "shortName": "Gardermoen", "municipalityName": "Oslo", "location": {"lat": 60.1939, "lon": 11.100399}, "countryCode": "NO"}, "averageDailyFlights": 0.71, "operators": [{"name": "Qatar Airways", "iata": "QR", "icao": "QTR"}, {"name": "CHG"}, {"name": "Wideroe", "iata": "WF", "icao": "WIF"}, {"name": "Ethiopian Airlines", "iata": "ET", "icao": "ETH"}]}, {"destination": {"icao": "LEBL", "iata": "BCN", "name": "Barcelona ", "shortName": "Barcelona", "municipalityName": "Barcelona", "location": {"lat": 41.2971, "lon": 2.078459}, "countryCode": "ES"}, "averageDailyFlights": 0.57, "operators": [{"name": "SWN"}]}, {"destination": {"icao": "EFHK", "iata": "HEL", "name": "Helsinki Vantaa", "shortName": "Vantaa", "municipalityName": "Helsinki", "location": {"lat": 60.3172, "lon": 24.9633}, "countryCode": "FI"}, "averageDailyFlights": 0.57, "operators": [{"name": "ASL Airlines Belgium", "iata": "3V", "icao": "TAY"}]}, {"destination": {"icao": "ZSCN", "iata": "KHN", "name": "Nanchang Changbei", "shortName": "Changbei", "municipalityName": "Nanchang", "location": {"lat": 28.865, "lon": 115.9}, "countryCode": "CN"}, "averageDailyFlights": 0.57, "operators": [{"name": "ASL Airlines Belgium", "iata": "3V", "icao": "TAY"}]}, {"destination": {"icao": "OERK", "iata": "RUH", "name": "Riyadh King Khaled", "shortName": "King Khaled", "municipalityName": "Riyadh", "location": {"lat": 24.9576, "lon": 46.6988}, "countryCode": "SA"}, "averageDailyFlights": 0.57, "operators": [{"name": "Saudi Arabian Airlines", "iata": "SV", "icao": "SVA"}]}, {"destination": {"icao": "LEAL", "iata": "ALC", "name": "Alicante ", "shortName": "Alicante", "municipalityName": "Alicante", "location": {"lat": 38.2822, "lon": -0.558156}, "countryCode": "ES"}, "averageDailyFlights": 0.43, "operators": [{"name": "TUI Airlines Belgium", "iata": "TB", "icao": "JAF"}]}, {"destination": {"icao": "ZSHC", "iata": "HGH", "name": "Hangzhou Xiaoshan", "shortName": "Xiaoshan", "municipalityName": "Hangzhou", "location": {"lat": 30.2295, "lon": 120.434}, "countryCode": "CN"}, "averageDailyFlights": 0.43, "operators": [{"name": "ASL Airlines Belgium", "iata": "3V", "icao": "TAY"}]}, {"destination": {"icao": "EDDV", "iata": "HAJ", "name": "Hanover Hannover", "shortName": "Hannover", "municipalityName": "Hanover", "location": {"lat": 52.4611, "lon": 9.685079}, "countryCode": "DE"}, "averageDailyFlights": 0.43, "operators": [{"name": "ASL Airlines Belgium", "iata": "3V", "icao": "TAY"}]}, {"destination": {"icao": "LTAU", "iata": "ASR", "name": "Kayseri Erkilet", "shortName": "Erkilet", "municipalityName": "Kayseri", "location": {"lat": 38.7704, "lon": 35.4954}, "countryCode": "TR"}, "averageDailyFlights": 0.43, "operators": [{"name": "TUI Airlines Belgium", "iata": "TB", "icao": "JAF"}]}, {"destination": {"icao": "ZHHH", "iata": "WUH", "name": "Wuhan Tianhe", "shortName": "Tianhe", "municipalityName": "Wuhan", "location": {"lat": 30.7838, "lon": 114.208}, "countryCode": "CN"}, "averageDailyFlights": 0.43, "operators": [{"name": "Ethiopian Airlines", "iata": "ET", "icao": "ETH"}]}, {"destination": {"icao": "ZSYT", "iata": "YNT", "name": "Yantai Laishan", "shortName": "Laishan", "municipalityName": "Yantai", "location": {"lat": 37.4017, "lon": 121.372}, "countryCode": "CN"}, "averageDailyFlights": 0.43, "operators": [{"name": "China Eastern Airlines", "iata": "MU", "icao": "CES"}]}, {"destination": {"icao": "LFSB", "iata": "BSL", "name": "B\u00e2le/Mulhouse Euro Basel-Mulhouse-Freiburg", "shortName": "Euro Basel-Mulhouse-Freiburg", "municipalityName": "B\u00e2le/Mulhouse", "location": {"lat": 47.5896, "lon": 7.52991}, "countryCode": "FR"}, "averageDailyFlights": 0.29, "operators": [{"name": "ASL Airlines Belgium", "iata": "3V", "icao": "TAY"}]}, {"destination": {"icao": "DTTJ", "iata": "DJE", "name": "Houmt El Souk Djerba Zarzis", "shortName": "Djerba Zarzis", "municipalityName": "Houmt El Souk", "location": {"lat": 33.875, "lon": 10.7755}, "countryCode": "TN"}, "averageDailyFlights": 0.29, "operators": [{"name": "TUI Airlines Belgium", "iata": "TB", "icao": "JAF"}]}, {"destination": {"icao": "LEPA", "iata": "PMI", "name": "Palma De Mallorca ", "shortName": "Palma De Mallorca", "municipalityName": "Palma De Mallorca", "location": {"lat": 39.5517, "lon": 2.73881}, "countryCode": "ES"}, "averageDailyFlights": 0.29, "operators": [{"name": "TUI Airlines Belgium", "iata": "TB", "icao": "JAF"}]}, {"destination": {"icao": "LGRP", "iata": "RHO", "name": "Rodes Island Diagoras", "shortName": "Diagoras", "municipalityName": "Rodes Island", "location": {"lat": 36.4054, "lon": 28.0862}, "countryCode": "GR"}, "averageDailyFlights": 0.29, "operators": [{"name": "TUI Airlines Belgium", "iata": "TB", "icao": "JAF"}]}, {"destination": {"icao": "RKSI", "iata": "ICN", "name": "Seoul Incheon", "shortName": "Incheon", "municipalityName": "Seoul", "location": {"lat": 37.4691, "lon": 126.451}, "countryCode": "KR"}, "averageDailyFlights": 0.29, "operators": [{"name": "Atlas Air", "iata": "5Y", "icao": "GTI"}]}, {"destination": {"icao": "GCTS", "iata": "TFS", "name": "Tenerife Island Tenerife South", "shortName": "Tenerife South", "municipalityName": "Tenerife Island", "location": {"lat": 28.0445, "lon": -16.5725}, "countryCode": "ES"}, "averageDailyFlights": 0.29, "operators": [{"name": "TUI Airlines Belgium", "iata": "TB", "icao": "JAF"}]}, {"destination": {"icao": "CYYZ", "iata": "YYZ", "name": "Toronto Pearson", "shortName": "Pearson", "municipalityName": "Toronto", "location": {"lat": 43.6772, "lon": -79.6306}, "countryCode": "CA"}, "averageDailyFlights": 0.29, "operators": [{"name": "MNG Airlines", "iata": "MB", "icao": "MNB"}]}, {"destination": {"icao": "LOWW", "iata": "VIE", "name": "Vienna Schwechat", "shortName": "Schwechat", "municipalityName": "Vienna", "location": {"lat": 48.1103, "lon": 16.5697}, "countryCode": "AT"}, "averageDailyFlights": 0.29, "operators": [{"name": "ASL Airlines Belgium", "iata": "3V", "icao": "TAY"}]}, {"destination": {"icao": "LEZG", "iata": "ZAZ", "name": "Zaragoza Air Base", "shortName": "Air Base", "municipalityName": "Zaragoza", "location": {"lat": 41.6662, "lon": -1.04155}, "countryCode": "ES"}, "averageDailyFlights": 0.29, "operators": [{"name": "Ethiopian Airlines", "iata": "ET", "icao": "ETH"}]}, {"destination": {"name": "S\u00e3o Paulo"}, "averageDailyFlights": 0.29, "operators": [{"name": "Ethiopian Airlines", "iata": "ET", "icao": "ETH"}]}, {"destination": {"name": "Yerevan"}, "averageDailyFlights": 0.29, "operators": [{"name": "Jeju Air", "iata": "7C", "icao": "JJA"}]}, {"destination": {"icao": "HAAB", "iata": "ADD", "name": "Addis Ababa Bole", "shortName": "Bole", "municipalityName": "Addis Ababa", "location": {"lat": 8.97789, "lon": 38.7993}, "countryCode": "ET"}, "averageDailyFlights": 0.14, "operators": [{"name": "Ethiopian Airlines", "iata": "ET", "icao": "ETH"}]}, {"destination": {"icao": "KATL", "iata": "ATL", "name": "Atlanta Hartsfield Jackson", "shortName": "Hartsfield Jackson", "municipalityName": "Atlanta", "location": {"lat": 33.6367, "lon": -84.4281}, "countryCode": "US"}, "averageDailyFlights": 0.14, "operators": [{"name": "CHG"}]}, {"destination": {"icao": "UBBB", "iata": "GYD", "localCode": "\u0411\u0410\u041a", "name": "Baku Heydar Aliyev", "shortName": "Heydar Aliyev", "municipalityName": "Baku", "location": {"lat": 40.4675, "lon": 50.0467}, "countryCode": "AZ"}, "averageDailyFlights": 0.14, "operators": [{"name": "Silk Way West", "iata": "7L", "icao": "AZG"}]}, {"destination": {"icao": "BIBL", "iata": "BLO", "name": "Bl\u00f6ndu\u00f3s Hjaltabakki", "shortName": "Hjaltabakki", "municipalityName": "Bl\u00f6ndu\u00f3s", "location": {"lat": 65.645, "lon": -20.2875}, "countryCode": "IS"}, "averageDailyFlights": 0.14, "operators": [{"name": "ITA Airways", "iata": "AZ", "icao": "ITY"}]}, {"destination": {"icao": "GMMN", "iata": "CMN", "name": "Casablanca Mohammed V", "shortName": "Mohammed V", "municipalityName": "Casablanca", "location": {"lat": 33.3675, "lon": -7.58997}, "countryCode": "MA"}, "averageDailyFlights": 0.14, "operators": [{"name": "TUI Airlines Belgium", "iata": "TB", "icao": "JAF"}]}, {"destination": {"icao": "KORD", "iata": "ORD", "name": "Chicago O'Hare", "shortName": "O'Hare", "municipalityName": "Chicago", "location": {"lat": 41.9786, "lon": -87.9048}, "countryCode": "US"}, "averageDailyFlights": 0.14, "operators": [{"name": "Qatar Airways", "iata": "QR", "icao": "QTR"}]}, {"destination": {"icao": "EKCH", "iata": "CPH", "name": "Copenhagen Kastrup", "shortName": "Kastrup", "municipalityName": "Copenhagen", "location": {"lat": 55.6179, "lon": 12.656}, "countryCode": "DK"}, "averageDailyFlights": 0.14, "operators": [{"name": "Ethiopian Airlines", "iata": "ET", "icao": "ETH"}]}, {"destination": {"icao": "LIRQ", "iata": "FLR", "name": "Firenze Peretola", "shortName": "Peretola", "municipalityName": "Firenze", "location": {"lat": 43.81, "lon": 11.2051}, "countryCode": "IT"}, "averageDailyFlights": 0.14, "operators": [{"name": "AGR"}]}, {"destination": {"icao": "LSGG", "iata": "GVA", "name": "Geneva Cointrin", "shortName": "Cointrin", "municipalityName": "Geneva", "location": {"lat": 46.2381, "lon": 6.10895}, "countryCode": "CH"}, "averageDailyFlights": 0.14, "operators": [{"name": "FSF"}]}, {"destination": {"icao": "KIAH", "iata": "IAH", "name": "Houston George Bush", "shortName": "George Bush", "municipalityName": "Houston", "location": {"lat": 29.9844, "lon": -95.3414}, "countryCode": "US"}, "averageDailyFlights": 0.14, "operators": [{"name": "CHG"}]}, {"destination": {"icao": "KIND", "iata": "IND", "name": "Indianapolis ", "shortName": "Indianapolis", "municipalityName": "Indianapolis", "location": {"lat": 39.7173, "lon": -86.2944}, "countryCode": "US"}, "averageDailyFlights": 0.14, "operators": [{"name": "Atlas Air", "iata": "5Y", "icao": "GTI"}]}, {"destination": {"icao": "EGSS", "iata": "STN", "name": "London Stansted", "shortName": "Stansted", "municipalityName": "London", "location": {"lat": 51.885, "lon": 0.234999}, "countryCode": "GB"}, "averageDailyFlights": 0.14, "operators": [{"name": "ASL Airlines Belgium", "iata": "3V", "icao": "TAY"}]}, {"destination": {"icao": "EGGW", "iata": "LTN", "name": "London Luton", "shortName": "Luton", "municipalityName": "London", "location": {"lat": 51.8747, "lon": -0.368333}, "countryCode": "GB"}, "averageDailyFlights": 0.14, "operators": [{"name": "Eastern Airways", "iata": "T3", "icao": "EZE"}]}, {"destination": {"icao": "HKJK", "iata": "NBO", "name": "Nairobi Jomo Kenyatta", "shortName": "Jomo Kenyatta", "municipalityName": "Nairobi", "location": {"lat": -1.319239, "lon": 36.9278}, "countryCode": "KE"}, "averageDailyFlights": 0.14, "operators": [{"name": "AZUR Air", "iata": "ZF", "icao": "KTK"}]}, {"destination": {"icao": "LFPG", "iata": "CDG", "name": "Paris Charles de Gaulle", "shortName": "Charles de Gaulle", "municipalityName": "Paris", "location": {"lat": 49.0128, "lon": 2.549999}, "countryCode": "FR"}, "averageDailyFlights": 0.14, "operators": [{"name": "ASL Airlines Belgium", "iata": "3V", "icao": "TAY"}]}, {"destination": {"icao": "UAKK", "iata": "KGF", "localCode": "\u041a\u0413\u0414", "name": "Qaraghandy Sary-Arka", "shortName": "Sary-Arka", "municipalityName": "Qaraghandy", "location": {"lat": 49.6708, "lon": 73.3344}, "countryCode": "KZ"}, "averageDailyFlights": 0.14, "operators": [{"name": "Ethiopian Airlines", "iata": "ET", "icao": "ETH"}]}, {"destination": {"icao": "EDDS", "iata": "STR", "name": "Stuttgart ", "shortName": "Stuttgart", "municipalityName": "Stuttgart", "location": {"lat": 48.6899, "lon": 9.22196}, "countryCode": "DE"}, "averageDailyFlights": 0.14, "operators": [{"name": "AGR"}]}, {"destination": {"icao": "GMTT", "iata": "TNG", "name": "Tangier Ibn Batouta", "shortName": "Ibn Batouta", "municipalityName": "Tangier", "location": {"lat": 35.7269, "lon": -5.91689}, "countryCode": "MA"}, "averageDailyFlights": 0.14, "operators": [{"name": "TUI Airlines Belgium", "iata": "TB", "icao": "JAF"}]}, {"destination": {"icao": "LLBG", "iata": "TLV", "name": "Tel Aviv Yafo Ben Gurion", "shortName": "Ben Gurion", "municipalityName": "Tel Aviv Yafo", "location": {"lat": 32.0114, "lon": 34.8867}, "countryCode": "IL"}, "averageDailyFlights": 0.14, "operators": [{"name": "El Al", "iata": "LY", "icao": "ELY"}]}]}