{"routes": [{"destination": {"icao": "LEPA", "iata": "PMI", "name": "Palma De Mallorca ", "shortName": "Palma De Mallorca", "municipalityName": "Palma De Mallorca", "location": {"lat": 39.5517, "lon": 2.73881}, "countryCode": "ES"}, "averageDailyFlights": 1.71, "operators": [{"name": "Ryanair", "iata": "FR", "icao": "RYR"}]}, {"destination": {"icao": "EGSS", "iata": "STN", "name": "London Stansted", "shortName": "Stansted", "municipalityName": "London", "location": {"lat": 51.885, "lon": 0.234999}, "countryCode": "GB"}, "averageDailyFlights": 1.57, "operators": [{"name": "Ryanair", "iata": "FR", "icao": "RYR"}]}, {"destination": {"icao": "LATI", "iata": "TIA", "name": "Tirana Mother Teresa", "shortName": "Mother Teresa", "municipalityName": "Tirana", "location": {"lat": 41.4147, "lon": 19.7206}, "countryCode": "AL"}, "averageDailyFlights": 1.14, "operators": [{"name": "WMT"}, {"name": "Ulendo Airlink", "iata": "W4"}]}, {"destination": {"icao": "LQTZ", "iata": "TZL", "name": "Tuzla ", "shortName": "Tuzla", "municipalityName": "Tuzla", "location": {"lat": 44.4587, "lon": 18.7248}, "countryCode": "BA"}, "averageDailyFlights": 1.0, "operators": [{"name": "Wizz Air", "iata": "W6", "icao": "WZZ"}]}, {"destination": {"icao": "EIDW", "iata": "DUB", "name": "Dublin ", "shortName": "Dublin", "municipalityName": "Dublin", "location": {"lat": 53.4213, "lon": -6.27007}, "countryCode": "IE"}, "averageDailyFlights": 0.86, "operators": [{"name": "Ryanair", "iata": "FR", "icao": "RYR"}]}, {"destination": {"icao": "UBBB", "iata": "GYD", "localCode": "\u0411\u0410\u041a", "name": "Baku Heydar Aliyev", "shortName": "Heydar Aliyev", "municipalityName": "Baku", "location": {"lat": 40.4675, "lon": 50.0467}, "countryCode": "AZ"}, "averageDailyFlights": 0.57, "operators": [{"name": "Silk Way West", "iata": "7L", "icao": "AZG"}]}, {"destination": {"icao": "LIEE", "iata": "CAG", "name": "Cagliari Elmas", "shortName": "Elmas", "municipalityName": "Cagliari", "location": {"lat": 39.2515, "lon": 9.05428}, "countryCode": "IT"}, "averageDailyFlights": 0.57, "operators": [{"name": "Ryanair", "iata": "FR", "icao": "RYR"}]}, {"destination": {"icao": "LRCL", "iata": "CLJ", "name": "Cluj-Napoca ", "shortName": "Cluj-Napoca", "municipalityName": "Cluj-Napoca", "location": {"lat": 46.7852, "lon": 23.6862}, "countryCode": "RO"}, "averageDailyFlights": 0.57, "operators": [{"name": "Ulendo Airlink", "iata": "W4"}, {"name": "WMT"}]}, {"destination": {"icao": "LEGE", "iata": "GRO", "name": "Girona ", "shortName": "Girona", "municipalityName": "Girona", "location": {"lat": 41.901, "lon": 2.76055}, "countryCode": "ES"}, "averageDailyFlights": 0.57, "operators": [{"name": "Ryanair", "iata": "FR", "icao": "RYR"}]}, {"destination": {"icao": "EIKY", "iata": "KIR", "name": "Killarney Kerry", "shortName": "Kerry", "municipalityName": "Killarney", "location": {"lat": 52.1809, "lon": -9.523779}, "countryCode": "IE"}, "averageDailyFlights": 0.57, "operators": [{"name": "Ryanair", "iata": "FR", "icao": "RYR"}]}, {"destination": {"icao": "GMMW", "iata": "NDR", "name": "Nador ", "shortName": "Nador", "municipalityName": "Nador", "location": {"lat": 34.9888, "lon": -3.028209}, "countryCode": "MA"}, "averageDailyFlights": 0.57, "operators": [{"name": "Ryanair", "iata": "FR", "icao": "RYR"}, {"name": "Air Arabia Maroc", "iata": "3O", "icao": "MAC"}]}, {"destination": {"icao": "LYNI", "iata": "INI", "name": "Ni\u0161 Nis", "shortName": "Nis", "municipalityName": "Ni\u0161", "location": {"lat": 43.3373, "lon": 21.8537}, "countryCode": "RS"}, "averageDailyFlights": 0.57, "operators": [{"name": "Air Serbia", "iata": "JU", "icao": "ASL"}, {"name": "JetSMART", "iata": "JA", "icao": "JAT"}]}, {"destination": {"icao": "LWSK", "iata": "SKP", "name": "Skopje Alexander the Great", "shortName": "Alexander the Great", "municipalityName": "Skopje", "location": {"lat": 41.9616, "lon": 21.6214}, "countryCode": "MK"}, "averageDailyFlights": 0.57, "operators": [{"name": "Wizz Air", "iata": "W6", "icao": "WZZ"}]}, {"destination": {"icao": "LRTR", "iata": "TSR", "name": "Timi\u015foara Traian Vuia", "shortName": "Traian Vuia", "municipalityName": "Timi\u015foara", "location": {"lat": 45.8099, "lon": 21.3379}, "countryCode": "RO"}, "averageDailyFlights": 0.57, "operators": [{"name": "WMT"}, {"name": "Ulendo Airlink", "iata": "W4"}]}, {"destination": {"icao": "LDZA", "iata": "ZAG", "name": "Zagreb ", "shortName": "Zagreb", "municipalityName": "Zagreb", "location": {"lat": 45.7429, "lon": 16.068798}, "countryCode": "HR"}, "averageDailyFlights": 0.57, "operators": [{"name": "Ryanair", "iata": "FR", "icao": "RYR"}]}, {"destination": {"icao": "LEAL", "iata": "ALC", "name": "Alicante ", "shortName": "Alicante", "municipalityName": "Alicante", "location": {"lat": 38.2822, "lon": -0.558156}, "countryCode": "ES"}, "averageDailyFlights": 0.43, "operators": [{"name": "Ryanair", "iata": "FR", "icao": "RYR"}]}, {"destination": {"icao": "LIBD", "iata": "BRI", "name": "Bari Karol Wojty\u0142a", "shortName": "Karol Wojty\u0142a", "municipalityName": "Bari", "location": {"lat": 41.1389, "lon": 16.7606}, "countryCode": "IT"}, "averageDailyFlights": 0.43, "operators": [{"name": "Ryanair", "iata": "FR", "icao": "RYR"}]}, {"destination": {"icao": "LICC", "iata": "CTA", "name": "Catania -Fontanarossa", "shortName": "-Fontanarossa", "municipalityName": "Catania", "location": {"lat": 37.4668, "lon": 15.066399}, "countryCode": "IT"}, "averageDailyFlights": 0.43, "operators": [{"name": "Ryanair", "iata": "FR", "icao": "RYR"}]}, {"destination": {"icao": "LUKK", "iata": "KIV", "localCode": "\u041a\u0428\u041d", "name": "Chi\u015fin\u0103u ", "shortName": "Chi\u015fin\u0103u", "municipalityName": "Chi\u015fin\u0103u", "location": {"lat": 46.9277, "lon": 28.931}, "countryCode": "MD"}, "averageDailyFlights": 0.43, "operators": [{"name": "FlyOne", "iata": "5F", "icao": "FIA"}]}, {"destination": {"icao": "LEZL", "iata": "SVQ", "name": "Seville Sevilla", "shortName": "Sevilla", "municipalityName": "Seville", "location": {"lat": 37.418, "lon": -5.893109}, "countryCode": "ES"}, "averageDailyFlights": 0.43, "operators": [{"name": "Ryanair", "iata": "FR", "icao": "RYR"}]}, {"destination": {"icao": "LBSF", "iata": "SOF", "name": "Sofia ", "shortName": "Sofia", "municipalityName": "Sofia", "location": {"lat": 42.696693, "lon": 23.411436}, "countryCode": "BG"}, "averageDailyFlights": 0.43, "operators": [{"name": "Wizz Air", "iata": "W6", "icao": "WZZ"}]}, {"destination": {"icao": "LICT", "iata": "TPS", "name": "Trapani Vincenzo Florio  -Birgi", "shortName": "Vincenzo Florio  -Birgi", "municipalityName": "Trapani", "location": {"lat": 37.9114, "lon": 12.487999}, "countryCode": "IT"}, "averageDailyFlights": 0.43, "operators": [{"name": "Ryanair", "iata": "FR", "icao": "RYR"}]}, {"destination": {"icao": "LIPH", "iata": "TSF", "name": "Treviso -Sant'Angelo", "shortName": "-Sant'Angelo", "municipalityName": "Treviso", "location": {"lat": 45.6484, "lon": 12.194399}, "countryCode": "IT"}, "averageDailyFlights": 0.43, "operators": [{"name": "Ryanair", "iata": "FR", "icao": "RYR"}]}, {"destination": {"icao": "EYVI", "iata": "VNO", "localCode": "\u0412\u0418\u041b", "name": "Vilnius ", "shortName": "Vilnius", "municipalityName": "Vilnius", "location": {"lat": 54.6341, "lon": 25.2858}, "countryCode": "LT"}, "averageDailyFlights": 0.43, "operators": [{"name": "Ryanair", "iata": "FR", "icao": "RYR"}]}, {"destination": {"icao": "LEBL", "iata": "BCN", "name": "Barcelona ", "shortName": "Barcelona", "municipalityName": "Barcelona", "location": {"lat": 41.2971, "lon": 2.078459}, "countryCode": "ES"}, "averageDailyFlights": 0.29, "operators": [{"name": "Ryanair", "iata": "FR", "icao": "RYR"}]}, {"destination": {"icao": "LIME", "iata": "BGY", "name": "Bergamo Orio al Serio", "shortName": "Orio al Serio", "municipalityName": "Bergamo", "location": {"lat": 45.6739, "lon": 9.70417}, "countryCode": "IT"}, "averageDailyFlights": 0.29, "operators": [{"name": "Ryanair", "iata": "FR", "icao": "RYR"}]}, {"destination": {"icao": "LPFR", "iata": "FAO", "name": "Faro ", "shortName": "Faro", "municipalityName": "Faro", "location": {"lat": 37.0144, "lon": -7.965909}, "countryCode": "PT"}, "averageDailyFlights": 0.29, "operators": [{"name": "Ryanair", "iata": "FR", "icao": "RYR"}]}, {"destination": {"icao": "GMFF", "iata": "FEZ", "name": "Fes Sa\u00efss", "shortName": "Sa\u00efss", "municipalityName": "Fes", "location": {"lat": 33.9273, "lon": -4.97796}, "countryCode": "MA"}, "averageDailyFlights": 0.29, "operators": [{"name": "Ryanair", "iata": "FR", "icao": "RYR"}]}, {"destination": {"icao": "LEIB", "iata": "IBZ", "name": "Ibiza Town Ibiza", "shortName": "Ibiza", "municipalityName": "Ibiza Town", "location": {"lat": 38.8729, "lon": 1.373119}, "countryCode": "ES"}, "averageDailyFlights": 0.29, "operators": [{"name": "Ryanair", "iata": "FR", "icao": "RYR"}]}, {"destination": {"icao": "LGKR", "iata": "CFU", "name": "Kerkyra Island Ioannis Kapodistrias", "shortName": "Ioannis Kapodistrias", "municipalityName": "Kerkyra Island", "location": {"lat": 39.6019, "lon": 19.9117}, "countryCode": "GR"}, "averageDailyFlights": 0.29, "operators": [{"name": "Ryanair", "iata": "FR", "icao": "RYR"}]}, {"destination": {"icao": "UGKO", "iata": "KUT", "name": "Kutaisi Kopitnari", "shortName": "Kopitnari", "municipalityName": "Kutaisi", "location": {"lat": 42.1767, "lon": 42.4826}, "countryCode": "GE"}, "averageDailyFlights": 0.29, "operators": [{"name": "Wizz Air", "iata": "W6", "icao": "WZZ"}]}, {"destination": {"icao": "LEMG", "iata": "AGP", "name": "M\u00e1laga ", "shortName": "M\u00e1laga", "municipalityName": "M\u00e1laga", "location": {"lat": 36.6749, "lon": -4.49911}, "countryCode": "ES"}, "averageDailyFlights": 0.29, "operators": [{"name": "Ryanair", "iata": "FR", "icao": "RYR"}]}, {"destination": {"icao": "LICJ", "iata": "PMO", "name": "Palermo Falcone\u2013Borsellino", "shortName": "Falcone\u2013Borsellino", "municipalityName": "Palermo", "location": {"lat": 38.176, "lon": 13.090999}, "countryCode": "IT"}, "averageDailyFlights": 0.29, "operators": [{"name": "Ryanair", "iata": "FR", "icao": "RYR"}]}, {"destination": {"icao": "LPPR", "iata": "OPO", "name": "Porto Francisco de S\u00e1 Carneiro", "shortName": "Francisco de S\u00e1 Carneiro", "municipalityName": "Porto", "location": {"lat": 41.2481, "lon": -8.681389}, "countryCode": "PT"}, "averageDailyFlights": 0.29, "operators": [{"name": "Ryanair", "iata": "FR", "icao": "RYR"}]}, {"destination": {"icao": "LGTS", "iata": "SKG", "name": "Thessaloniki Macedonia", "shortName": "Macedonia", "municipalityName": "Thessaloniki", "location": {"lat": 40.5197, "lon": 22.9709}, "countryCode": "GR"}, "averageDailyFlights": 0.29, "operators": [{"name": "Ryanair", "iata": "FR", "icao": "RYR"}]}, {"destination": {"icao": "LEVC", "iata": "VLC", "name": "Valencia ", "shortName": "Valencia", "municipalityName": "Valencia", "location": {"lat": 39.4893, "lon": -0.481624}, "countryCode": "ES"}, "averageDailyFlights": 0.29, "operators": [{"name": "Ryanair", "iata": "FR", "icao": "RYR"}]}, {"destination": {"icao": "LBWN", "iata": "VAR", "name": "Varna ", "shortName": "Varna", "municipalityName": "Varna", "location": {"lat": 43.2321, "lon": 27.8251}, "countryCode": "BG"}, "averageDailyFlights": 0.29, "operators": [{"name": "Wizz Air", "iata": "W6", "icao": "WZZ"}]}, {"destination": {"icao": "LDZD", "iata": "ZAD", "name": "Zadar Zemunik", "shortName": "Zemunik", "municipalityName": "Zadar", "location": {"lat": 44.1083, "lon": 15.346699}, "countryCode": "HR"}, "averageDailyFlights": 0.29, "operators": [{"name": "Ryanair", "iata": "FR", "icao": "RYR"}]}, {"destination": {"icao": "GMMX", "iata": "RAK", "name": "Marrakech Menara", "shortName": "Menara", "municipalityName": "Marrakech", "location": {"lat": 31.6069, "lon": -8.036299}, "countryCode": "MA"}, "averageDailyFlights": 0.14, "operators": [{"name": "Ryanair", "iata": "FR", "icao": "RYR"}]}, {"destination": {"icao": "LGSA", "iata": "CHQ", "name": "Souda Chania", "shortName": "Chania", "municipalityName": "Souda", "location": {"lat": 35.5317, "lon": 24.1497}, "countryCode": "GR"}, "averageDailyFlights": 0.14, "operators": [{"name": "Ryanair", "iata": "FR", "icao": "RYR"}]}]}