{"routes": [{"destination": {"icao": "FMEE", "iata": "RUN", "name": "St Denis Roland Garros", "shortName": "Roland Garros", "municipalityName": "St Denis", "location": {"lat": -20.8871, "lon": 55.5103}, "countryCode": "RE"}, "averageDailyFlights": 8.43, "operators": [{"name": "Air Austral", "iata": "UU", "icao": "REU"}, {"name": "Air Mauritius", "iata": "MK", "icao": "MAU"}, {"name": "Corsair", "iata": "SS", "icao": "CRL"}]}, {"destination": {"icao": "FIMR", "iata": "RRG", "name": "Port Mathurin Sir Charles Gaetan Duval", "shortName": "Sir Charles Gaetan Duval", "municipalityName": "Port Mathurin", "location": {"lat": -19.757698, "lon": 63.361}, "countryCode": "MU"}, "averageDailyFlights": 7.14, "operators": [{"name": "Air Mauritius", "iata": "MK", "icao": "MAU"}]}, {"destination": {"icao": "FAOR", "iata": "JNB", "name": "Jo'anna OR Tambo", "shortName": "OR Tambo", "municipalityName": "Jo'anna", "location": {"lat": -26.1392, "lon": 28.246}, "countryCode": "ZA"}, "averageDailyFlights": 2.71, "operators": [{"name": "Air Mauritius", "iata": "MK", "icao": "MAU"}, {"name": "South African Airways", "iata": "SA", "icao": "SAA"}, {"name": "Safair", "iata": "FA", "icao": "SFR"}]}, {"destination": {"icao": "OMDB", "iata": "DXB", "name": "Dubai ", "shortName": "Dubai", "municipalityName": "Dubai", "location": {"lat": 25.252798, "lon": 55.3644}, "countryCode": "AE"}, "averageDailyFlights": 2.29, "operators": [{"name": "Emirates", "iata": "EK", "icao": "UAE"}]}, {"destination": {"icao": "LFPG", "iata": "CDG", "name": "Paris Charles de Gaulle", "shortName": "Charles de Gaulle", "municipalityName": "Paris", "location": {"lat": 49.0128, "lon": 2.549999}, "countryCode": "FR"}, "averageDailyFlights": 2.29, "operators": [{"name": "Air Mauritius", "iata": "MK", "icao": "MAU"}, {"name": "Air France", "iata": "AF", "icao": "AFR"}]}, {"destination": {"icao": "HKJK", "iata": "NBO", "name": "Nairobi Jomo Kenyatta", "shortName": "Jomo Kenyatta", "municipalityName": "Nairobi", "location": {"lat": -1.319239, "lon": 36.9278}, "countryCode": "KE"}, "averageDailyFlights": 1.71, "operators": [{"name": "Kenya Airways", "iata": "KQ", "icao": "KQA"}]}, {"destination": {"icao": "VABB", "iata": "BOM", "name": "Mumbai Chhatrapati Shivaji", "shortName": "Chhatrapati Shivaji", "municipalityName": "Mumbai", "location": {"lat": 19.0887, "lon": 72.8679}, "countryCode": "IN"}, "averageDailyFlights": 1.57, "operators": [{"name": "Vistara", "iata": "UK", "icao": "VTI"}, {"name": "Air Mauritius", "iata": "MK", "icao": "MAU"}]}, {"destination": {"icao": "FMMI", "iata": "TNR", "name": "Antananarivo Ivato", "shortName": "Ivato", "municipalityName": "Antananarivo", "location": {"lat": -18.7969, "lon": 47.4788}, "countryCode": "MG"}, "averageDailyFlights": 1.0, "operators": [{"name": "Air Mauritius", "iata": "MK", "icao": "MAU"}, {"name": "Turkish Airlines", "iata": "TK", "icao": "THY"}]}, {"destination": {"icao": "EDDF", "iata": "FRA", "name": "Frankfurt-am-Main ", "shortName": "Frankfurt-am-Main", "municipalityName": "Frankfurt-am-Main", "location": {"lat": 50.0264, "lon": 8.543129}, "countryCode": "DE"}, "averageDailyFlights": 0.86, "operators": [{"name": "Flight Alaska"}, {"name": "Condor", "iata": "DE", "icao": "CFG"}]}, {"destination": {"icao": "EGLL", "iata": "LHR", "name": "London Heathrow", "shortName": "Heathrow", "municipalityName": "London", "location": {"lat": 51.4706, "lon": -0.461941}, "countryCode": "GB"}, "averageDailyFlights": 0.86, "operators": [{"name": "Air Mauritius", "iata": "MK", "icao": "MAU"}]}, {"destination": {"icao": "LTFM", "iata": "IST", "name": "Istanbul ", "shortName": "Istanbul", "municipalityName": "Istanbul", "location": {"lat": 41.275276, "lon": 28.751944}, "countryCode": "TR"}, "averageDailyFlights": 0.71, "operators": [{"name": "Turkish Airlines", "iata": "TK", "icao": "THY"}]}, {"destination": {"icao": "FSIA", "iata": "SEZ", "name": "Mahe Island Seychelles", "shortName": "Seychelles", "municipalityName": "Mahe Island", "location": {"lat": -4.674339, "lon": 55.5218}, "countryCode": "SC"}, "averageDailyFlights": 0.57, "operators": [{"name": "Air Seychelles", "iata": "HM", "icao": "SEY"}]}, {"destination": {"icao": "OEJN", "iata": "JED", "name": "Jeddah King Abdulaziz", "shortName": "King Abdulaziz", "municipalityName": "Jeddah", "location": {"lat": 21.6796, "lon": 39.1565}, "countryCode": "SA"}, "averageDailyFlights": 0.43, "operators": [{"name": "Saudi Arabian Airlines", "iata": "SV", "icao": "SVA"}]}, {"destination": {"icao": "WMKK", "iata": "KUL", "name": "Kuala Lumpur ", "shortName": "Kuala Lumpur", "municipalityName": "Kuala Lumpur", "location": {"lat": 2.745579, "lon": 101.71}, "countryCode": "MY"}, "averageDailyFlights": 0.43, "operators": [{"name": "Air Mauritius", "iata": "MK", "icao": "MAU"}]}, {"destination": {"icao": "EGKK", "iata": "LGW", "name": "London Gatwick", "shortName": "Gatwick", "municipalityName": "London", "location": {"lat": 51.1481, "lon": -0.190277}, "countryCode": "GB"}, "averageDailyFlights": 0.43, "operators": [{"name": "British Airways", "iata": "BA", "icao": "BAW"}]}, {"destination": {"icao": "EBBR", "iata": "BRU", "name": "Brussels ", "shortName": "Brussels", "municipalityName": "Brussels", "location": {"lat": 50.9014, "lon": 4.484439}, "countryCode": "BE"}, "averageDailyFlights": 0.29, "operators": [{"name": "Air Belgium", "iata": "KF", "icao": "ABB"}]}, {"destination": {"icao": "FACT", "iata": "CPT", "name": "Cape Town ", "shortName": "Cape Town", "municipalityName": "Cape Town", "location": {"lat": -33.9648, "lon": 18.6017}, "countryCode": "ZA"}, "averageDailyFlights": 0.29, "operators": [{"name": "Air Mauritius", "iata": "MK", "icao": "MAU"}]}, {"destination": {"icao": "VIDP", "iata": "DEL", "name": "New Delhi Indira Gandhi", "shortName": "Indira Gandhi", "municipalityName": "New Delhi", "location": {"lat": 28.5665, "lon": 77.1031}, "countryCode": "IN"}, "averageDailyFlights": 0.29, "operators": [{"name": "Air Mauritius", "iata": "MK", "icao": "MAU"}]}, {"destination": {"icao": "YPPH", "iata": "PER", "name": "Perth International", "shortName": "International", "municipalityName": "Perth", "location": {"lat": -31.940277, "lon": 115.96694}, "countryCode": "AU"}, "averageDailyFlights": 0.29, "operators": [{"name": "Air Mauritius", "iata": "MK", "icao": "MAU"}]}, {"destination": {"icao": "FMEP", "iata": "ZSE", "name": "St Pierre Pierrefonds", "shortName": "Pierrefonds", "municipalityName": "St Pierre", "location": {"lat": -21.320898, "lon": 55.425}, "countryCode": "RE"}, "averageDailyFlights": 0.29, "operators": [{"name": "Air Austral", "iata": "UU", "icao": "REU"}]}, {"destination": {"icao": "LEMD", "iata": "MAD", "name": "Madrid Adolfo Su\u00e1rez \u2013Barajas", "shortName": "Adolfo Su\u00e1rez \u2013Barajas", "municipalityName": "Madrid", "location": {"lat": 40.4936, "lon": -3.56676}, "countryCode": "ES"}, "averageDailyFlights": 0.14, "operators": [{"name": "Evelop Airlines", "iata": "E9", "icao": "EVE"}]}]}