{"routes": [{"destination": {"icao": "KHPN", "iata": "HPN", "name": "White Plains Westchester County", "shortName": "Westchester County", "municipalityName": "White Plains", "location": {"lat": 41.067, "lon": -73.7076}, "countryCode": "US"}, "averageDailyFlights": 13.29, "operators": [{"name": "NetJets Aviation", "iata": "1I", "icao": "EJA"}, {"name": "Tradewind Aviation", "iata": "TJ", "icao": "GPD"}, {"name": "LXJ"}, {"name": "JetBlue Airways", "iata": "B6", "icao": "JBU"}, {"name": "JAS"}, {"name": "GAJ"}, {"name": "CNS"}, {"name": "JTZ"}, {"name": "JNY"}]}, {"destination": {"icao": "KTEB", "iata": "TEB", "name": "Teterboro ", "shortName": "Teterboro", "municipalityName": "Teterboro", "location": {"lat": 40.8501, "lon": -74.0608}, "countryCode": "US"}, "averageDailyFlights": 11.57, "operators": [{"name": "LXJ"}, {"name": "NetJets Aviation", "iata": "1I", "icao": "EJA"}, {"name": "WWI"}, {"name": "Tradewind Aviation", "iata": "TJ", "icao": "GPD"}, {"name": "WSP"}, {"name": "FTH"}, {"name": "CNS"}, {"name": "LAK"}, {"name": "SJJ"}, {"name": "JRE"}, {"name": "TWY"}, {"name": "KPO"}, {"name": "RKK"}, {"name": "DPJ"}, {"name": "PGN"}, {"name": "ASP"}, {"name": "GAJ"}]}, {"destination": {"icao": "KBOS", "iata": "BOS", "name": "Boston General Edward Lawrence Logan", "shortName": "General Edward Lawrence Logan", "municipalityName": "Boston", "location": {"lat": 42.3643, "lon": -71.0052}, "countryCode": "US"}, "averageDailyFlights": 11.14, "operators": [{"name": "Cape Air", "iata": "9K", "icao": "KAP"}, {"name": "CNS"}, {"name": "EDG"}, {"name": "NetJets Aviation", "iata": "1I", "icao": "EJA"}, {"name": "LXJ"}, {"name": "JetBlue Airways", "iata": "B6", "icao": "JBU"}, {"name": "WSP"}, {"name": "FTD"}, {"name": "GAJ"}, {"name": "Tradewind Aviation", "iata": "TJ", "icao": "GPD"}]}, {"destination": {"icao": "KBED", "iata": "BED", "name": "Bedford Laurence G Hanscom Field", "shortName": "Laurence G Hanscom Field", "municipalityName": "Bedford", "location": {"lat": 42.47, "lon": -71.289}, "countryCode": "US"}, "averageDailyFlights": 5.71, "operators": [{"name": "NetJets Aviation", "iata": "1I", "icao": "EJA"}, {"name": "PRE"}, {"name": "TWY"}, {"name": "TEK"}, {"name": "EDG"}, {"name": "Jet Linx Aviation", "iata": "JL", "icao": "JTL"}, {"name": "ASP"}, {"name": "CNS"}, {"name": "JAS"}, {"name": "GAJ"}, {"name": "RVJ"}, {"name": "JTZ"}]}, {"destination": {"icao": "KEWR", "iata": "EWR", "name": "Newark Liberty", "shortName": "Liberty", "municipalityName": "Newark", "location": {"lat": 40.6925, "lon": -74.1687}, "countryCode": "US"}, "averageDailyFlights": 4.14, "operators": [{"name": "United Airlines", "iata": "UA", "icao": "UAL"}, {"name": "EDG"}, {"name": "LXJ"}, {"name": "NetJets Aviation", "iata": "1I", "icao": "EJA"}]}, {"destination": {"icao": "KDCA", "iata": "DCA", "name": "District of Columbia Ronald Reagan Washington National", "shortName": "Ronald Reagan Washington National", "municipalityName": "District of Columbia", "location": {"lat": 38.8521, "lon": -77.0377}, "countryCode": "US"}, "averageDailyFlights": 4.0, "operators": [{"name": "JetBlue Airways", "iata": "B6", "icao": "JBU"}, {"name": "American Airlines", "iata": "AA", "icao": "AAL"}, {"name": "Envoy Air", "iata": "MQ", "icao": "ENY"}]}, {"destination": {"icao": "KJFK", "iata": "JFK", "name": "New York John F Kennedy", "shortName": "John F Kennedy", "municipalityName": "New York", "location": {"lat": 40.6398, "lon": -73.7789}, "countryCode": "US"}, "averageDailyFlights": 3.86, "operators": [{"name": "Delta Air Lines", "iata": "DL", "icao": "DAL"}, {"name": "JetBlue Airways", "iata": "B6", "icao": "JBU"}, {"name": "NetJets Aviation", "iata": "1I", "icao": "EJA"}, {"name": "Tradewind Aviation", "iata": "TJ", "icao": "GPD"}]}, {"destination": {"icao": "KPVD", "iata": "PVD", "name": "Providence Theodore Francis Green State", "shortName": "Theodore Francis Green State", "municipalityName": "Providence", "location": {"lat": 41.7326, "lon": -71.4204}, "countryCode": "US"}, "averageDailyFlights": 2.71, "operators": [{"name": "WIG"}, {"name": "NetJets Aviation", "iata": "1I", "icao": "EJA"}]}, {"destination": {"icao": "KHYA", "iata": "HYA", "name": "Hyannis Barnstable Municipal Boardman Polando Field", "shortName": "Barnstable Municipal Boardman Polando Field", "municipalityName": "Hyannis", "location": {"lat": 41.6693, "lon": -70.2804}, "countryCode": "US"}, "averageDailyFlights": 2.43, "operators": [{"name": "Boutique Air", "iata": "4B", "icao": "BTQ"}, {"name": "WIG"}, {"name": "Cape Air", "iata": "9K", "icao": "KAP"}, {"name": "NetJets Aviation", "iata": "1I", "icao": "EJA"}, {"name": "National Airlines", "iata": "N8", "icao": "NCR"}, {"name": "CNS"}, {"name": "GAJ"}]}, {"destination": {"icao": "KFOK", "iata": "FOK", "name": "Westhampton Beach Francis S Gabreski", "shortName": "Francis S Gabreski", "municipalityName": "Westhampton Beach", "location": {"lat": 40.8437, "lon": -72.6318}, "countryCode": "US"}, "averageDailyFlights": 2.43, "operators": [{"name": "TIV"}, {"name": "Nordwind Airlines", "iata": "N4", "icao": "NWS"}, {"name": "NetJets Aviation", "iata": "1I", "icao": "EJA"}, {"name": "CNS"}, {"name": "Tradewind Aviation", "iata": "TJ", "icao": "GPD"}, {"name": "JNY"}, {"name": "LXJ"}, {"name": "Linear Air", "iata": "O2", "icao": "HPK"}, {"name": "LAK"}]}, {"destination": {"icao": "KBWI", "iata": "BWI", "name": "Baltimore Washington  Thurgood Marshall", "shortName": "Washington  Thurgood Marshall", "municipalityName": "Baltimore", "location": {"lat": 39.1754, "lon": -76.6683}, "countryCode": "US"}, "averageDailyFlights": 1.71, "operators": [{"name": "WMN"}, {"name": "CNS"}, {"name": "NetJets Aviation", "iata": "1I", "icao": "EJA"}, {"name": "LXJ"}]}, {"destination": {"icao": "KIAD", "iata": "IAD", "name": "District of Columbia Washington Dulles", "shortName": "Washington Dulles", "municipalityName": "District of Columbia", "location": {"lat": 38.9445, "lon": -77.4558}, "countryCode": "US"}, "averageDailyFlights": 1.43, "operators": [{"name": "My Jet Xpress Airlines", "iata": "N7", "icao": "NEP"}, {"name": "Tradewind Aviation", "iata": "TJ", "icao": "GPD"}, {"name": "NetJets Aviation", "iata": "1I", "icao": "EJA"}, {"name": "EJM"}, {"name": "CNS"}, {"name": "GAJ"}]}, {"destination": {"icao": "KMVY", "iata": "MVY", "name": "Martha's Vineyard ", "shortName": "Martha's Vineyard", "municipalityName": "Martha's Vineyard", "location": {"lat": 41.3931, "lon": -70.6143}, "countryCode": "US"}, "averageDailyFlights": 1.29, "operators": [{"name": "CNS"}, {"name": "LXJ"}, {"name": "WIG"}, {"name": "GAJ"}, {"name": "EJM"}, {"name": "RLI"}]}, {"destination": {"icao": "KPHL", "iata": "PHL", "name": "Philadelphia ", "shortName": "Philadelphia", "municipalityName": "Philadelphia", "location": {"lat": 39.8719, "lon": -75.2411}, "countryCode": "US"}, "averageDailyFlights": 1.29, "operators": [{"name": "American Airlines", "iata": "AA", "icao": "AAL"}, {"name": "LXJ"}]}, {"destination": {"icao": "KPSM", "iata": "PSM", "name": "Portsmouth at Pease", "shortName": "at Pease", "municipalityName": "Portsmouth", "location": {"lat": 43.0779, "lon": -70.8233}, "countryCode": "US"}, "averageDailyFlights": 1.29, "operators": [{"name": "CNS"}, {"name": "GAJ"}]}, {"destination": {"icao": "KEWB", "iata": "EWB", "name": "New Bedford Regional", "shortName": "Regional", "municipalityName": "New Bedford", "location": {"lat": 41.6761, "lon": -70.9569}, "countryCode": "US"}, "averageDailyFlights": 1.14, "operators": [{"name": "Cape Air", "iata": "9K", "icao": "KAP"}, {"name": "NetJets Aviation", "iata": "1I", "icao": "EJA"}, {"name": "GAJ"}]}, {"destination": {"icao": "KFRG", "iata": "FRG", "name": "Farmingdale Republic", "shortName": "Republic", "municipalityName": "Farmingdale", "location": {"lat": 40.7288, "lon": -73.4134}, "countryCode": "US"}, "averageDailyFlights": 1.0, "operators": [{"name": "TFF"}, {"name": "Linear Air", "iata": "O2", "icao": "HPK"}, {"name": "JNY"}, {"name": "NetJets Aviation", "iata": "1I", "icao": "EJA"}]}, {"destination": {"icao": "KOWD", "iata": "OWD", "name": "Norwood Memorial", "shortName": "Memorial", "municipalityName": "Norwood", "location": {"lat": 42.1905, "lon": -71.1729}, "countryCode": "US"}, "averageDailyFlights": 1.0, "operators": [{"name": "CNS"}, {"name": "Nordwind Airlines", "iata": "N4", "icao": "NWS"}]}, {"destination": {"icao": "KBHB", "iata": "BHB", "name": "Bar Harbor Hancock County-", "shortName": "Hancock County-", "municipalityName": "Bar Harbor", "location": {"lat": 44.45, "lon": -68.3615}, "countryCode": "US"}, "averageDailyFlights": 0.86, "operators": [{"name": "GAJ"}, {"name": "NetJets Aviation", "iata": "1I", "icao": "EJA"}, {"name": "CNS"}]}, {"destination": {"icao": "KBLM", "iata": "BLM", "name": "Belmar/Farmingdale Monmouth Executive", "shortName": "Monmouth Executive", "municipalityName": "Belmar/Farmingdale", "location": {"lat": 40.1869, "lon": -74.1249}, "countryCode": "US"}, "averageDailyFlights": 0.86, "operators": [{"name": "GAJ"}, {"name": "CNS"}, {"name": "NetJets Aviation", "iata": "1I", "icao": "EJA"}, {"name": "RLI"}]}, {"destination": {"icao": "KCLE", "iata": "CLE", "name": "Cleveland Hopkins", "shortName": "Hopkins", "municipalityName": "Cleveland", "location": {"lat": 41.4117, "lon": -81.8498}, "countryCode": "US"}, "averageDailyFlights": 0.86, "operators": [{"name": "RVJ"}, {"name": "ERY"}, {"name": "NetJets Aviation", "iata": "1I", "icao": "EJA"}]}, {"destination": {"icao": "KDXR", "iata": "DXR", "name": "Danbury Municipal", "shortName": "Municipal", "municipalityName": "Danbury", "location": {"lat": 41.3715, "lon": -73.4822}, "countryCode": "US"}, "averageDailyFlights": 0.86, "operators": [{"name": "RLI"}]}, {"destination": {"icao": "KRKD", "iata": "RKD", "name": "Rockland Knox County Regional", "shortName": "Knox County Regional", "municipalityName": "Rockland", "location": {"lat": 44.0601, "lon": -69.0992}, "countryCode": "US"}, "averageDailyFlights": 0.86, "operators": [{"name": "Tradewind Aviation", "iata": "TJ", "icao": "GPD"}, {"name": "TWY"}, {"name": "JRE"}, {"name": "NetJets Aviation", "iata": "1I", "icao": "EJA"}]}, {"destination": {"icao": "KBDR", "iata": "BDR", "name": "Bridgeport Igor I Sikorsky Memorial", "shortName": "Igor I Sikorsky Memorial", "municipalityName": "Bridgeport", "location": {"lat": 41.1635, "lon": -73.1262}, "countryCode": "US"}, "averageDailyFlights": 0.71, "operators": [{"name": "CNS"}, {"name": "GAJ"}, {"name": "NetJets Aviation", "iata": "1I", "icao": "EJA"}]}, {"destination": {"icao": "KBTV", "iata": "BTV", "name": "Burlington ", "shortName": "Burlington", "municipalityName": "Burlington", "location": {"lat": 44.4719, "lon": -73.1533}, "countryCode": "US"}, "averageDailyFlights": 0.71, "operators": [{"name": "NetJets Aviation", "iata": "1I", "icao": "EJA"}, {"name": "EJM"}, {"name": "LXJ"}]}, {"destination": {"icao": "KMDW", "iata": "MDW", "name": "Chicago Midway", "shortName": "Midway", "municipalityName": "Chicago", "location": {"lat": 41.786, "lon": -87.7524}, "countryCode": "US"}, "averageDailyFlights": 0.71, "operators": [{"name": "PJC"}, {"name": "NetJets Aviation", "iata": "1I", "icao": "EJA"}]}, {"destination": {"icao": "KSTL", "iata": "STL", "name": "Saint Louis Lambert St Louis", "shortName": "Lambert St Louis", "municipalityName": "Saint Louis", "location": {"lat": 38.7487, "lon": -90.37}, "countryCode": "US"}, "averageDailyFlights": 0.71, "operators": [{"name": "PGN"}, {"name": "NetJets Aviation", "iata": "1I", "icao": "EJA"}, {"name": "LXJ"}, {"name": "EDG"}]}, {"destination": {"icao": "KVRB", "iata": "VRB", "name": "Vero Beach Municipal", "shortName": "Municipal", "municipalityName": "Vero Beach", "location": {"lat": 27.6556, "lon": -80.4179}, "countryCode": "US"}, "averageDailyFlights": 0.71, "operators": [{"name": "KPO"}]}, {"destination": {"icao": "KPDK", "iata": "PDK", "name": "Atlanta DeKalb Peachtree", "shortName": "DeKalb Peachtree", "municipalityName": "Atlanta", "location": {"lat": 33.8756, "lon": -84.302}, "countryCode": "US"}, "averageDailyFlights": 0.57, "operators": [{"name": "FWK"}, {"name": "KPO"}, {"name": "GAJ"}]}, {"destination": {"icao": "KBVY", "iata": "BVY", "name": "Beverly Municipal", "shortName": "Municipal", "municipalityName": "Beverly", "location": {"lat": 42.5842, "lon": -70.9165}, "countryCode": "US"}, "averageDailyFlights": 0.57, "operators": [{"name": "NetJets Aviation", "iata": "1I", "icao": "EJA"}, {"name": "Tradewind Aviation", "iata": "TJ", "icao": "GPD"}, {"name": "CNS"}]}, {"destination": {"icao": "KSWF", "iata": "SWF", "name": "Newburgh Stewart", "shortName": "Stewart", "municipalityName": "Newburgh", "location": {"lat": 41.5041, "lon": -74.1048}, "countryCode": "US"}, "averageDailyFlights": 0.57, "operators": [{"name": "JAS"}, {"name": "TWY"}]}, {"destination": {"icao": "KPWM", "iata": "PWM", "name": "Portland Jetport", "shortName": "Jetport", "municipalityName": "Portland", "location": {"lat": 43.6462, "lon": -70.3093}, "countryCode": "US"}, "averageDailyFlights": 0.57, "operators": [{"name": "VNT"}, {"name": "GAJ"}, {"name": "NetJets Aviation", "iata": "1I", "icao": "EJA"}, {"name": "DPJ"}]}, {"destination": {"icao": "KCHO", "iata": "CHO", "name": "Charlottesville Albemarle", "shortName": "Albemarle", "municipalityName": "Charlottesville", "location": {"lat": 38.1386, "lon": -78.4529}, "countryCode": "US"}, "averageDailyFlights": 0.43, "operators": [{"name": "CNS"}, {"name": "NetJets Aviation", "iata": "1I", "icao": "EJA"}]}, {"destination": {"icao": "KHOU", "iata": "HOU", "name": "Houston William P Hobby", "shortName": "William P Hobby", "municipalityName": "Houston", "location": {"lat": 29.6454, "lon": -95.2789}, "countryCode": "US"}, "averageDailyFlights": 0.43, "operators": [{"name": "LXJ"}, {"name": "SCM"}, {"name": "NetJets Aviation", "iata": "1I", "icao": "EJA"}]}, {"destination": {"icao": "KISP", "iata": "ISP", "name": "Islip Long Island Mac Arthur", "shortName": "Long Island Mac Arthur", "municipalityName": "Islip", "location": {"lat": 40.7952, "lon": -73.1002}, "countryCode": "US"}, "averageDailyFlights": 0.43, "operators": [{"name": "XLS"}]}, {"destination": {"icao": "KLBE", "iata": "LBE", "name": "Latrobe Arnold Palmer Regional", "shortName": "Arnold Palmer Regional", "municipalityName": "Latrobe", "location": {"lat": 40.2759, "lon": -79.4048}, "countryCode": "US"}, "averageDailyFlights": 0.43, "operators": [{"name": "LJY"}]}, {"destination": {"icao": "KMMU", "iata": "MMU", "name": "Morristown Municipal", "shortName": "Municipal", "municipalityName": "Morristown", "location": {"lat": 40.7994, "lon": -74.4149}, "countryCode": "US"}, "averageDailyFlights": 0.43, "operators": [{"name": "NetJets Aviation", "iata": "1I", "icao": "EJA"}, {"name": "CNS"}]}, {"destination": {"icao": "KSYR", "iata": "SYR", "name": "Syracuse Hancock", "shortName": "Hancock", "municipalityName": "Syracuse", "location": {"lat": 43.1112, "lon": -76.1063}, "countryCode": "US"}, "averageDailyFlights": 0.43, "operators": [{"name": "NUS"}, {"name": "DPJ"}]}, {"destination": {"icao": "KVNY", "iata": "VNY", "name": "Van Nuys ", "shortName": "Van Nuys", "municipalityName": "Van Nuys", "location": {"lat": 34.2098, "lon": -118.49}, "countryCode": "US"}, "averageDailyFlights": 0.43, "operators": [{"name": "TIV"}]}, {"destination": {"icao": "KPBI", "iata": "PBI", "name": "West Palm Beach Palm Beach", "shortName": "Palm Beach", "municipalityName": "West Palm Beach", "location": {"lat": 26.6832, "lon": -80.0956}, "countryCode": "US"}, "averageDailyFlights": 0.43, "operators": [{"name": "NetJets Aviation", "iata": "1I", "icao": "EJA"}, {"name": "Jet Linx Aviation", "iata": "JL", "icao": "JTL"}, {"name": "TIV"}]}, {"destination": {"icao": "KCAK", "iata": "CAK", "name": "Akron Canton Regional", "shortName": "Canton Regional", "municipalityName": "Akron", "location": {"lat": 40.9161, "lon": -81.4422}, "countryCode": "US"}, "averageDailyFlights": 0.29, "operators": [{"name": "ERY"}, {"name": "NetJets Aviation", "iata": "1I", "icao": "EJA"}]}, {"destination": {"icao": "KABE", "iata": "ABE", "name": "Allentown Lehigh Valley", "shortName": "Lehigh Valley", "municipalityName": "Allentown", "location": {"lat": 40.6521, "lon": -75.4408}, "countryCode": "US"}, "averageDailyFlights": 0.29, "operators": [{"name": "NetJets Aviation", "iata": "1I", "icao": "EJA"}, {"name": "DPJ"}]}, {"destination": {"icao": "KACY", "iata": "ACY", "name": "Atlantic City ", "shortName": "Atlantic City", "municipalityName": "Atlantic City", "location": {"lat": 39.4576, "lon": -74.5772}, "countryCode": "US"}, "averageDailyFlights": 0.29, "operators": [{"name": "WSP"}]}, {"destination": {"icao": "KCAE", "iata": "CAE", "name": "Columbia Metropolitan", "shortName": "Metropolitan", "municipalityName": "Columbia", "location": {"lat": 33.9388, "lon": -81.1195}, "countryCode": "US"}, "averageDailyFlights": 0.29, "operators": [{"name": "KPO"}]}, {"destination": {"icao": "KDAL", "iata": "DAL", "name": "Dallas Love Field", "shortName": "Love Field", "municipalityName": "Dallas", "location": {"lat": 32.8471, "lon": -96.8518}, "countryCode": "US"}, "averageDailyFlights": 0.29, "operators": [{"name": "NetJets Aviation", "iata": "1I", "icao": "EJA"}, {"name": "FTH"}]}, {"destination": {"icao": "KINL", "iata": "INL", "name": "International Falls Falls", "shortName": "Falls", "municipalityName": "International Falls", "location": {"lat": 48.5662, "lon": -93.4031}, "countryCode": "US"}, "averageDailyFlights": 0.29, "operators": [{"name": "XLS"}]}, {"destination": {"icao": "LGMK", "iata": "JMK", "name": "Mykonos Island Mikonos", "shortName": "Mikonos", "municipalityName": "Mykonos Island", "location": {"lat": 37.4351, "lon": 25.3481}, "countryCode": "GR"}, "averageDailyFlights": 0.29, "operators": [{"name": "TWY"}]}, {"destination": {"icao": "KLOM", "iata": "BBX", "name": "Philadelphia Wings Field", "shortName": "Wings Field", "municipalityName": "Philadelphia", "location": {"lat": 40.1375, "lon": -75.2651}, "countryCode": "US"}, "averageDailyFlights": 0.29, "operators": [{"name": "NetJets Aviation", "iata": "1I", "icao": "EJA"}, {"name": "National Airlines", "iata": "N8", "icao": "NCR"}]}, {"destination": {"icao": "KRDU", "iata": "RDU", "name": "Raleigh/Durham Raleigh Durham", "shortName": "Raleigh Durham", "municipalityName": "Raleigh/Durham", "location": {"lat": 35.8776, "lon": -78.7875}, "countryCode": "US"}, "averageDailyFlights": 0.29, "operators": [{"name": "JNY"}, {"name": "NetJets Aviation", "iata": "1I", "icao": "EJA"}]}, {"destination": {"icao": "KSJC", "iata": "SJC", "name": "San Jose Norman Y. Mineta", "shortName": "Norman Y. Mineta", "municipalityName": "San Jose", "location": {"lat": 37.3626, "lon": -121.929}, "countryCode": "US"}, "averageDailyFlights": 0.29, "operators": [{"name": "NetJets Aviation", "iata": "1I", "icao": "EJA"}, {"name": "TWY"}]}, {"destination": {"icao": "KSBA", "iata": "SBA", "name": "Santa Barbara Municipal", "shortName": "Municipal", "municipalityName": "Santa Barbara", "location": {"lat": 34.4262, "lon": -119.84}, "countryCode": "US"}, "averageDailyFlights": 0.29, "operators": [{"name": "TWY"}]}, {"destination": {"icao": "KBFI", "iata": "BFI", "name": "Seattle Boeing Field King County", "shortName": "Boeing Field King County", "municipalityName": "Seattle", "location": {"lat": 47.53, "lon": -122.302}, "countryCode": "US"}, "averageDailyFlights": 0.29, "operators": [{"name": "JAS"}, {"name": "TWY"}]}, {"destination": {"icao": "KCEF", "iata": "CEF", "name": "Springfield/Chicopee Metropolitan", "shortName": "Metropolitan", "municipalityName": "Springfield/Chicopee", "location": {"lat": 42.194, "lon": -72.5348}, "countryCode": "US"}, "averageDailyFlights": 0.29, "operators": [{"name": "CNS"}, {"name": "GAJ"}]}, {"destination": {"icao": "CYYZ", "iata": "YYZ", "name": "Toronto Pearson", "shortName": "Pearson", "municipalityName": "Toronto", "location": {"lat": 43.6772, "lon": -79.6306}, "countryCode": "CA"}, "averageDailyFlights": 0.29, "operators": [{"name": "HRT"}]}, {"destination": {"icao": "KAVL", "iata": "AVL", "name": "Asheville Regional", "shortName": "Regional", "municipalityName": "Asheville", "location": {"lat": 35.4362, "lon": -82.5418}, "countryCode": "US"}, "averageDailyFlights": 0.14, "operators": [{"name": "LAK"}]}, {"destination": {"icao": "KATL", "iata": "ATL", "name": "Atlanta Hartsfield Jackson", "shortName": "Hartsfield Jackson", "municipalityName": "Atlanta", "location": {"lat": 33.6367, "lon": -84.4281}, "countryCode": "US"}, "averageDailyFlights": 0.14, "operators": [{"name": "LXJ"}]}, {"destination": {"icao": "KAUS", "iata": "AUS", "name": "Austin Bergstrom", "shortName": "Bergstrom", "municipalityName": "Austin", "location": {"lat": 30.194498, "lon": -97.6699}, "countryCode": "US"}, "averageDailyFlights": 0.14, "operators": [{"name": "TWY"}]}, {"destination": {"icao": "KBGR", "iata": "BGR", "name": "Bangor ", "shortName": "Bangor", "municipalityName": "Bangor", "location": {"lat": 44.8074, "lon": -68.8281}, "countryCode": "US"}, "averageDailyFlights": 0.14, "operators": [{"name": "NetJets Aviation", "iata": "1I", "icao": "EJA"}]}, {"destination": {"icao": "KBID", "iata": "BID", "name": "Block Island State", "shortName": "State", "municipalityName": "Block Island", "location": {"lat": 41.1681, "lon": -71.5778}, "countryCode": "US"}, "averageDailyFlights": 0.14, "operators": [{"name": "CNS"}]}, {"destination": {"icao": "KBXM", "iata": "NHZ", "name": "Brunswick Executive", "shortName": "Executive", "municipalityName": "Brunswick", "location": {"lat": 43.8922, "lon": -69.9386}, "countryCode": "US"}, "averageDailyFlights": 0.14, "operators": [{"name": "EJM"}]}, {"destination": {"icao": "KBUF", "iata": "BUF", "name": "Buffalo Niagara", "shortName": "Niagara", "municipalityName": "Buffalo", "location": {"lat": 42.9405, "lon": -78.7322}, "countryCode": "US"}, "averageDailyFlights": 0.14, "operators": [{"name": "JAS"}]}, {"destination": {"icao": "KCLT", "iata": "CLT", "name": "Charlotte Douglas", "shortName": "Douglas", "municipalityName": "Charlotte", "location": {"lat": 35.214, "lon": -80.9431}, "countryCode": "US"}, "averageDailyFlights": 0.14, "operators": [{"name": "Envoy Air", "iata": "MQ", "icao": "ENY"}]}, {"destination": {"icao": "KCHA", "iata": "CHA", "name": "Chattanooga Lovell Field", "shortName": "Lovell Field", "municipalityName": "Chattanooga", "location": {"lat": 35.0353, "lon": -85.2038}, "countryCode": "US"}, "averageDailyFlights": 0.14, "operators": [{"name": "American Airlines", "iata": "AA", "icao": "AAL"}]}, {"destination": {"icao": "KORD", "iata": "ORD", "name": "Chicago O'Hare", "shortName": "O'Hare", "municipalityName": "Chicago", "location": {"lat": 41.9786, "lon": -87.9048}, "countryCode": "US"}, "averageDailyFlights": 0.14, "operators": [{"name": "American Airlines", "iata": "AA", "icao": "AAL"}]}, {"destination": {"icao": "KBKL", "iata": "BKL", "name": "Cleveland Burke Lakefront", "shortName": "Burke Lakefront", "municipalityName": "Cleveland", "location": {"lat": 41.5175, "lon": -81.6833}, "countryCode": "US"}, "averageDailyFlights": 0.14, "operators": [{"name": "LXJ"}]}, {"destination": {"icao": "KCGF", "iata": "CGF", "name": "Cleveland Cuyahoga County", "shortName": "Cuyahoga County", "municipalityName": "Cleveland", "location": {"lat": 41.5651, "lon": -81.4864}, "countryCode": "US"}, "averageDailyFlights": 0.14, "operators": [{"name": "DPJ"}]}, {"destination": {"icao": "KMQS", "iata": "CTH", "name": "Coatesville Chester County G O Carlson", "shortName": "Chester County G O Carlson", "municipalityName": "Coatesville", "location": {"lat": 39.979, "lon": -75.8655}, "countryCode": "US"}, "averageDailyFlights": 0.14, "operators": [{"name": "GAJ"}]}, {"destination": {"icao": "KAPA", "iata": "APA", "name": "Denver Centennial", "shortName": "Centennial", "municipalityName": "Denver", "location": {"lat": 39.5701, "lon": -104.849}, "countryCode": "US"}, "averageDailyFlights": 0.14, "operators": [{"name": "LXJ"}]}, {"destination": {"icao": "KDTW", "iata": "DTW", "name": "Detroit Metropolitan Wayne County", "shortName": "Metropolitan Wayne County", "municipalityName": "Detroit", "location": {"lat": 42.2124, "lon": -83.3534}, "countryCode": "US"}, "averageDailyFlights": 0.14, "operators": [{"name": "CNS"}]}, {"destination": {"icao": "KHTO", "iata": "HTO", "name": "East Hampton ", "shortName": "East Hampton", "municipalityName": "East Hampton", "location": {"lat": 40.9596, "lon": -72.2518}, "countryCode": "US"}, "averageDailyFlights": 0.14, "operators": [{"name": "GAJ"}]}, {"destination": {"icao": "KFAY", "iata": "FAY", "name": "Fayetteville Regional Grannis Field", "shortName": "Regional Grannis Field", "municipalityName": "Fayetteville", "location": {"lat": 34.9912, "lon": -78.8803}, "countryCode": "US"}, "averageDailyFlights": 0.14, "operators": [{"name": "FTH"}]}, {"destination": {"icao": "KGAI", "iata": "GAI", "name": "Gaithersburg Montgomery County Airpark", "shortName": "Montgomery County Airpark", "municipalityName": "Gaithersburg", "location": {"lat": 39.1683, "lon": -77.166}, "countryCode": "US"}, "averageDailyFlights": 0.14, "operators": [{"name": "JTZ"}]}, {"destination": {"icao": "KGED", "iata": "GED", "name": "Georgetown Sussex County", "shortName": "Sussex County", "municipalityName": "Georgetown", "location": {"lat": 38.6892, "lon": -75.3589}, "countryCode": "US"}, "averageDailyFlights": 0.14, "operators": [{"name": "NetJets Aviation", "iata": "1I", "icao": "EJA"}]}, {"destination": {"icao": "KGON", "iata": "GON", "name": "Groton (New London) Groton New London", "shortName": "Groton New London", "municipalityName": "Groton (New London)", "location": {"lat": 41.3301, "lon": -72.0451}, "countryCode": "US"}, "averageDailyFlights": 0.14, "operators": [{"name": "CNS"}]}, {"destination": {"icao": "KMDT", "iata": "MDT", "name": "Harrisburg ", "shortName": "Harrisburg", "municipalityName": "Harrisburg", "location": {"lat": 40.1935, "lon": -76.7634}, "countryCode": "US"}, "averageDailyFlights": 0.14, "operators": [{"name": "CNS"}]}, {"destination": {"icao": "KCXY", "iata": "HAR", "name": "Harrisburg Capital City", "shortName": "Capital City", "municipalityName": "Harrisburg", "location": {"lat": 40.2171, "lon": -76.8515}, "countryCode": "US"}, "averageDailyFlights": 0.14, "operators": [{"name": "GAJ"}]}, {"destination": {"icao": "KCXO", "iata": "CXO", "name": "Houston Lone Star Executive", "shortName": "Lone Star Executive", "municipalityName": "Houston", "location": {"lat": 30.3518, "lon": -95.4145}, "countryCode": "US"}, "averageDailyFlights": 0.14, "operators": [{"name": "Ultimate Air Shuttle", "iata": "UE", "icao": "UJC"}]}, {"destination": {"icao": "KIND", "iata": "IND", "name": "Indianapolis ", "shortName": "Indianapolis", "municipalityName": "Indianapolis", "location": {"lat": 39.7173, "lon": -86.2944}, "countryCode": "US"}, "averageDailyFlights": 0.14, "operators": [{"name": "Tradewind Aviation", "iata": "TJ", "icao": "GPD"}]}, {"destination": {"icao": "KJAX", "iata": "JAX", "name": "Jacksonville ", "shortName": "Jacksonville", "municipalityName": "Jacksonville", "location": {"lat": 30.4941, "lon": -81.6879}, "countryCode": "US"}, "averageDailyFlights": 0.14, "operators": [{"name": "Jet Linx Aviation", "iata": "JL", "icao": "JTL"}]}, {"destination": {"icao": "KJHW", "iata": "JHW", "name": "Jamestown Chautauqua County-", "shortName": "Chautauqua County-", "municipalityName": "Jamestown", "location": {"lat": 42.1534, "lon": -79.258}, "countryCode": "US"}, "averageDailyFlights": 0.14, "operators": [{"name": "GAJ"}]}, {"destination": {"icao": "KLCI", "iata": "LCI", "name": "Laconia Municipal", "shortName": "Municipal", "municipalityName": "Laconia", "location": {"lat": 43.5727, "lon": -71.4189}, "countryCode": "US"}, "averageDailyFlights": 0.14, "operators": [{"name": "CNS"}]}, {"destination": {"icao": "KLKP", "iata": "LKP", "name": "Lake Placid ", "shortName": "Lake Placid", "municipalityName": "Lake Placid", "location": {"lat": 44.2645, "lon": -73.9619}, "countryCode": "US"}, "averageDailyFlights": 0.14, "operators": [{"name": "Tradewind Aviation", "iata": "TJ", "icao": "GPD"}]}, {"destination": {"icao": "KLNS", "iata": "LNS", "name": "Lancaster ", "shortName": "Lancaster", "municipalityName": "Lancaster", "location": {"lat": 40.1217, "lon": -76.2961}, "countryCode": "US"}, "averageDailyFlights": 0.14, "operators": [{"name": "LXJ"}]}, {"destination": {"icao": "KLEB", "iata": "LEB", "name": "Lebanon Municipal", "shortName": "Municipal", "municipalityName": "Lebanon", "location": {"lat": 43.6261, "lon": -72.3042}, "countryCode": "US"}, "averageDailyFlights": 0.14, "operators": [{"name": "NetJets Aviation", "iata": "1I", "icao": "EJA"}]}, {"destination": {"icao": "KLDM", "iata": "LDM", "name": "Ludington Mason County", "shortName": "Mason County", "municipalityName": "Ludington", "location": {"lat": 43.9625, "lon": -86.4079}, "countryCode": "US"}, "averageDailyFlights": 0.14, "operators": [{"name": "PGN"}]}, {"destination": {"icao": "KMHT", "iata": "MHT", "name": "Manchester ", "shortName": "Manchester", "municipalityName": "Manchester", "location": {"lat": 42.9326, "lon": -71.4357}, "countryCode": "US"}, "averageDailyFlights": 0.14, "operators": [{"name": "CNS"}]}, {"destination": {"icao": "KMSP", "iata": "MSP", "name": "Minneapolis Wold-Chamberlain", "shortName": "Wold-Chamberlain", "municipalityName": "Minneapolis", "location": {"lat": 44.882, "lon": -93.2218}, "countryCode": "US"}, "averageDailyFlights": 0.14, "operators": [{"name": "NetJets Aviation", "iata": "1I", "icao": "EJA"}]}, {"destination": {"icao": "KAPF", "iata": "APF", "name": "Naples Municipal", "shortName": "Municipal", "municipalityName": "Naples", "location": {"lat": 26.1526, "lon": -81.7753}, "countryCode": "US"}, "averageDailyFlights": 0.14, "operators": [{"name": "NetJets Aviation", "iata": "1I", "icao": "EJA"}]}, {"destination": {"icao": "KHVN", "iata": "HVN", "name": "New Haven Tweed", "shortName": "Tweed", "municipalityName": "New Haven", "location": {"lat": 41.2637, "lon": -72.8868}, "countryCode": "US"}, "averageDailyFlights": 0.14, "operators": [{"name": "CNS"}]}, {"destination": {"icao": "KMSY", "iata": "MSY", "name": "New Orleans Louis Armstrong", "shortName": "Louis Armstrong", "municipalityName": "New Orleans", "location": {"lat": 29.9934, "lon": -90.258}, "countryCode": "US"}, "averageDailyFlights": 0.14, "operators": [{"name": "NetJets Aviation", "iata": "1I", "icao": "EJA"}]}, {"destination": {"icao": "KLGA", "iata": "LGA", "name": "New York La Guardia", "shortName": "La Guardia", "municipalityName": "New York", "location": {"lat": 40.7772, "lon": -73.8726}, "countryCode": "US"}, "averageDailyFlights": 0.14, "operators": [{"name": "RLI"}]}, {"destination": {"icao": "KORF", "iata": "ORF", "name": "Norfolk ", "shortName": "Norfolk", "municipalityName": "Norfolk", "location": {"lat": 36.8946, "lon": -76.2012}, "countryCode": "US"}, "averageDailyFlights": 0.14, "operators": [{"name": "LXJ"}]}, {"destination": {"icao": "KISM", "iata": "ISM", "name": "Orlando Kissimmee Gateway", "shortName": "Kissimmee Gateway", "municipalityName": "Orlando", "location": {"lat": 28.2898, "lon": -81.4371}, "countryCode": "US"}, "averageDailyFlights": 0.14, "operators": [{"name": "KPO"}]}, {"destination": {"icao": "KAGC", "iata": "AGC", "name": "Pittsburgh Allegheny County", "shortName": "Allegheny County", "municipalityName": "Pittsburgh", "location": {"lat": 40.3544, "lon": -79.9302}, "countryCode": "US"}, "averageDailyFlights": 0.14, "operators": [{"name": "LXJ"}]}, {"destination": {"icao": "KPIT", "iata": "PIT", "name": "Pittsburgh ", "shortName": "Pittsburgh", "municipalityName": "Pittsburgh", "location": {"lat": 40.4915, "lon": -80.2329}, "countryCode": "US"}, "averageDailyFlights": 0.14, "operators": [{"name": "CNS"}]}, {"destination": {"icao": "CYPD", "iata": "YPS", "name": "Port Hawkesbury ", "shortName": "Port Hawkesbury", "municipalityName": "Port Hawkesbury", "location": {"lat": 45.6567, "lon": -61.3681}, "countryCode": "CA"}, "averageDailyFlights": 0.14, "operators": [{"name": "TFF"}]}, {"destination": {"icao": "KPQI", "iata": "PQI", "name": "Presque Isle Northern Maine Regional  at", "shortName": "Northern Maine Regional  at", "municipalityName": "Presque Isle", "location": {"lat": 46.689, "lon": -68.0448}, "countryCode": "US"}, "averageDailyFlights": 0.14, "operators": [{"name": "WSP"}]}, {"destination": {"icao": "KPVC", "iata": "PVC", "name": "Provincetown Municipal", "shortName": "Municipal", "municipalityName": "Provincetown", "location": {"lat": 42.0719, "lon": -70.2214}, "countryCode": "US"}, "averageDailyFlights": 0.14, "operators": [{"name": "NetJets Aviation", "iata": "1I", "icao": "EJA"}]}, {"destination": {"icao": "SEQM", "iata": "UIO", "name": "Quito Mariscal Sucre", "shortName": "Mariscal Sucre", "municipalityName": "Quito", "location": {"lat": -0.129166, "lon": -78.3575}, "countryCode": "EC"}, "averageDailyFlights": 0.14, "operators": [{"name": "TWY"}]}, {"destination": {"icao": "KRIC", "iata": "RIC", "name": "Richmond ", "shortName": "Richmond", "municipalityName": "Richmond", "location": {"lat": 37.5052, "lon": -77.3197}, "countryCode": "US"}, "averageDailyFlights": 0.14, "operators": [{"name": "National Airlines", "iata": "N8", "icao": "NCR"}]}, {"destination": {"icao": "KROC", "iata": "ROC", "name": "Rochester Greater", "shortName": "Greater", "municipalityName": "Rochester", "location": {"lat": 43.1189, "lon": -77.6724}, "countryCode": "US"}, "averageDailyFlights": 0.14, "operators": [{"name": "NetJets Aviation", "iata": "1I", "icao": "EJA"}]}, {"destination": {"icao": "KRUT", "iata": "RUT", "name": "Rutland - Southern Vermont Regional", "shortName": "- Southern Vermont Regional", "municipalityName": "Rutland", "location": {"lat": 43.5294, "lon": -72.9496}, "countryCode": "US"}, "averageDailyFlights": 0.14, "operators": [{"name": "LXJ"}]}, {"destination": {"icao": "KSLC", "iata": "SLC", "name": "Salt Lake City ", "shortName": "Salt Lake City", "municipalityName": "Salt Lake City", "location": {"lat": 40.7884, "lon": -111.978}, "countryCode": "US"}, "averageDailyFlights": 0.14, "operators": [{"name": "TWY"}]}, {"destination": {"icao": "KSAN", "iata": "SAN", "name": "San Diego ", "shortName": "San Diego", "municipalityName": "San Diego", "location": {"lat": 32.7336, "lon": -117.19}, "countryCode": "US"}, "averageDailyFlights": 0.14, "operators": [{"name": "EDG"}]}, {"destination": {"icao": "KSFM", "iata": "SFM", "name": "Sanford Seacoast Regional", "shortName": "Seacoast Regional", "municipalityName": "Sanford", "location": {"lat": 43.3939, "lon": -70.708}, "countryCode": "US"}, "averageDailyFlights": 0.14, "operators": [{"name": "WSP"}]}, {"destination": {"icao": "KSRQ", "iata": "SRQ", "name": "Sarasota/Bradenton Sarasota Bradenton", "shortName": "Sarasota Bradenton", "municipalityName": "Sarasota/Bradenton", "location": {"lat": 27.3954, "lon": -82.5544}, "countryCode": "US"}, "averageDailyFlights": 0.14, "operators": [{"name": "DPJ"}]}, {"destination": {"icao": "KTPA", "iata": "TPA", "name": "Tampa ", "shortName": "Tampa", "municipalityName": "Tampa", "location": {"lat": 27.9755, "lon": -82.5332}, "countryCode": "US"}, "averageDailyFlights": 0.14, "operators": [{"name": "EJM"}]}, {"destination": {"icao": "CYTZ", "iata": "YTZ", "name": "Toronto Billy Bishop  City Centre", "shortName": "Billy Bishop  City Centre", "municipalityName": "Toronto", "location": {"lat": 43.6275, "lon": -79.3962}, "countryCode": "CA"}, "averageDailyFlights": 0.14, "operators": [{"name": "GAJ"}]}, {"destination": {"icao": "KTVC", "iata": "TVC", "name": "Traverse City Cherry Capital", "shortName": "Cherry Capital", "municipalityName": "Traverse City", "location": {"lat": 44.7414, "lon": -85.5822}, "countryCode": "US"}, "averageDailyFlights": 0.14, "operators": [{"name": "EDG"}]}, {"destination": {"icao": "KTTN", "iata": "TTN", "name": "Trenton Mercer", "shortName": "Mercer", "municipalityName": "Trenton", "location": {"lat": 40.2767, "lon": -74.8135}, "countryCode": "US"}, "averageDailyFlights": 0.14, "operators": [{"name": "NetJets Aviation", "iata": "1I", "icao": "EJA"}]}, {"destination": {"icao": "KTCL", "iata": "TCL", "name": "Tuscaloosa Regional", "shortName": "Regional", "municipalityName": "Tuscaloosa", "location": {"lat": 33.2206, "lon": -87.6114}, "countryCode": "US"}, "averageDailyFlights": 0.14, "operators": [{"name": "SJJ"}]}, {"destination": {"icao": "KWST", "iata": "WST", "name": "Westerly State", "shortName": "State", "municipalityName": "Westerly", "location": {"lat": 41.3496, "lon": -71.8034}, "countryCode": "US"}, "averageDailyFlights": 0.14, "operators": [{"name": "TEK"}]}, {"destination": {"icao": "KBAF", "iata": "BAF", "name": "Westfield/Springfield Barnes Municipal", "shortName": "Barnes Municipal", "municipalityName": "Westfield/Springfield", "location": {"lat": 42.1578, "lon": -72.7156}, "countryCode": "US"}, "averageDailyFlights": 0.14, "operators": [{"name": "MVP"}]}, {"destination": {"icao": "KWWD", "iata": "WWD", "name": "Wildwood Cape May County", "shortName": "Cape May County", "municipalityName": "Wildwood", "location": {"lat": 39.0085, "lon": -74.9083}, "countryCode": "US"}, "averageDailyFlights": 0.14, "operators": [{"name": "LXJ"}]}]}