{"routes": [{"destination": {"icao": "KORD", "iata": "ORD", "name": "Chicago O'Hare", "shortName": "O'Hare", "municipalityName": "Chicago", "location": {"lat": 41.9786, "lon": -87.9048}, "countryCode": "US"}, "averageDailyFlights": 2.29, "operators": [{"name": "Southern Airways Express", "iata": "9X", "icao": "FDY"}]}, {"destination": {"icao": "KSTL", "iata": "STL", "name": "Saint Louis Lambert St Louis", "shortName": "Lambert St Louis", "municipalityName": "Saint Louis", "location": {"lat": 38.7487, "lon": -90.37}, "countryCode": "US"}, "averageDailyFlights": 1.14, "operators": [{"name": "Southern Airways Express", "iata": "9X", "icao": "FDY"}]}, {"destination": {"icao": "KSYI", "iata": "SYI", "name": "Shelbyville Bomar Field  Municipal", "shortName": "Bomar Field  Municipal", "municipalityName": "Shelbyville", "location": {"lat": 35.5601, "lon": -86.4425}, "countryCode": "US"}, "averageDailyFlights": 0.43, "operators": [{"name": "N2F"}]}, {"destination": {"icao": "KCID", "iata": "CID", "name": "Cedar Rapids The Eastern Iowa", "shortName": "The Eastern Iowa", "municipalityName": "Cedar Rapids", "location": {"lat": 41.8847, "lon": -91.7108}, "countryCode": "US"}, "averageDailyFlights": 0.29, "operators": [{"name": "JRE"}]}, {"destination": {"icao": "KUIN", "iata": "UIN", "name": "Quincy Regional Baldwin Field", "shortName": "Regional Baldwin Field", "municipalityName": "Quincy", "location": {"lat": 39.9427, "lon": -91.1946}, "countryCode": "US"}, "averageDailyFlights": 0.14, "operators": [{"name": "Southern Airways Express", "iata": "9X", "icao": "FDY"}]}]}