{"routes": [{"destination": {"icao": "KBIL", "iata": "BIL", "name": "Billings Metropolitan Area Billings Logan", "shortName": "Billings Logan", "municipalityName": "Billings Metropolitan Area", "location": {"lat": 45.8077, "lon": -108.543}, "countryCode": "US"}, "averageDailyFlights": 2.29, "operators": [{"name": "Alpine Air Express", "iata": "5A", "icao": "AIP"}]}, {"destination": {"icao": "KSLC", "iata": "SLC", "name": "Salt Lake City ", "shortName": "Salt Lake City", "municipalityName": "Salt Lake City", "location": {"lat": 40.7884, "lon": -111.978}, "countryCode": "US"}, "averageDailyFlights": 2.0, "operators": [{"name": "Delta Air Lines", "iata": "DL", "icao": "DAL"}]}, {"destination": {"icao": "KBZN", "iata": "BZN", "name": "Bozeman Gallatin Field", "shortName": "Gallatin Field", "municipalityName": "Bozeman", "location": {"lat": 45.7775, "lon": -111.153}, "countryCode": "US"}, "averageDailyFlights": 0.71, "operators": [{"name": "Libyan Airlines", "iata": "LN", "icao": "LAA"}, {"name": "Jet Linx Aviation", "iata": "JL", "icao": "JTL"}, {"name": "WAE"}, {"name": "Alpine Air Express", "iata": "5A", "icao": "AIP"}]}, {"destination": {"icao": "KMSO", "iata": "MSO", "name": "Missoula ", "shortName": "Missoula", "municipalityName": "Missoula", "location": {"lat": 46.9163, "lon": -114.091}, "countryCode": "US"}, "averageDailyFlights": 0.57, "operators": [{"name": "Libyan Airlines", "iata": "LN", "icao": "LAA"}]}, {"destination": {"icao": "KSFO", "iata": "SFO", "name": "San Francisco ", "shortName": "San Francisco", "municipalityName": "San Francisco", "location": {"lat": 37.619, "lon": -122.375}, "countryCode": "US"}, "averageDailyFlights": 0.29, "operators": [{"name": "JRE"}]}, {"destination": {"icao": "KGRK", "iata": "GRK", "name": "Fort Hood/Killeen Robert Gray  Army Air Field", "shortName": "Robert Gray  Army Air Field", "municipalityName": "Fort Hood/Killeen", "location": {"lat": 31.0672, "lon": -97.8289}, "countryCode": "US"}, "averageDailyFlights": 0.14, "operators": [{"name": "Sierra Pacific Airlines", "iata": "SI", "icao": "SPA"}]}, {"destination": {"icao": "KDWH", "iata": "DWH", "name": "Houston David Wayne Hooks Memorial", "shortName": "David Wayne Hooks Memorial", "municipalityName": "Houston", "location": {"lat": 30.0618, "lon": -95.5528}, "countryCode": "US"}, "averageDailyFlights": 0.14, "operators": [{"name": "EDG"}]}, {"destination": {"icao": "KHSV", "iata": "HSV", "name": "Huntsville Carl T Jones Field", "shortName": "Carl T Jones Field", "municipalityName": "Huntsville", "location": {"lat": 34.6372, "lon": -86.7751}, "countryCode": "US"}, "averageDailyFlights": 0.14, "operators": [{"name": "NetJets Aviation", "iata": "1I", "icao": "EJA"}]}, {"destination": {"icao": "KIDA", "iata": "IDA", "name": "Idaho Falls Regional", "shortName": "Regional", "municipalityName": "Idaho Falls", "location": {"lat": 43.5146, "lon": -112.071}, "countryCode": "US"}, "averageDailyFlights": 0.14, "operators": [{"name": "Libyan Airlines", "iata": "LN", "icao": "LAA"}]}, {"destination": {"icao": "KMKC", "iata": "MKC", "name": "Kansas City Charles B. Wheeler Downtown", "shortName": "Charles B. Wheeler Downtown", "municipalityName": "Kansas City", "location": {"lat": 39.1232, "lon": -94.5928}, "countryCode": "US"}, "averageDailyFlights": 0.14, "operators": [{"name": "CNS"}]}, {"destination": {"icao": "KLVK", "iata": "LVK", "name": "Livermore Municipal", "shortName": "Municipal", "municipalityName": "Livermore", "location": {"lat": 37.6934, "lon": -121.82}, "countryCode": "US"}, "averageDailyFlights": 0.14, "operators": [{"name": "NetJets Aviation", "iata": "1I", "icao": "EJA"}]}, {"destination": {"icao": "KSMN", "iata": "SMN", "name": "Salmon Lemhi County", "shortName": "Lemhi County", "municipalityName": "Salmon", "location": {"lat": 45.1238, "lon": -113.881}, "countryCode": "US"}, "averageDailyFlights": 0.14, "operators": [{"name": "Libyan Airlines", "iata": "LN", "icao": "LAA"}]}, {"destination": {"icao": "KSNA", "iata": "SNA", "name": "Santa Ana John Wayne -Orange County", "shortName": "John Wayne -Orange County", "municipalityName": "Santa Ana", "location": {"lat": 33.6757, "lon": -117.868}, "countryCode": "US"}, "averageDailyFlights": 0.14, "operators": [{"name": "CBC"}]}, {"destination": {"icao": "KSBN", "iata": "SBN", "name": "South Bend Regional", "shortName": "Regional", "municipalityName": "South Bend", "location": {"lat": 41.7087, "lon": -86.3173}, "countryCode": "US"}, "averageDailyFlights": 0.14, "operators": [{"name": "CNS"}]}, {"destination": {"icao": "KHPN", "iata": "HPN", "name": "White Plains Westchester County", "shortName": "Westchester County", "municipalityName": "White Plains", "location": {"lat": 41.067, "lon": -73.7076}, "countryCode": "US"}, "averageDailyFlights": 0.14, "operators": [{"name": "EDG"}]}]}