{"routes": [{"destination": {"icao": "KOAK", "iata": "OAK", "name": "Oakland Metropolitan", "shortName": "Metropolitan", "municipalityName": "Oakland", "location": {"lat": 37.7213, "lon": -122.221}, "countryCode": "US"}, "averageDailyFlights": 1.71, "operators": [{"name": "Contour Aviation", "iata": "LF", "icao": "VTE"}]}, {"destination": {"icao": "KOTH", "iata": "OTH", "name": "North Bend Southwest Oregon Regional", "shortName": "Southwest Oregon Regional", "municipalityName": "North Bend", "location": {"lat": 43.4171, "lon": -124.246}, "countryCode": "US"}, "averageDailyFlights": 1.0, "operators": [{"name": "Ameriflight", "iata": "A8", "icao": "AMF"}]}, {"destination": {"icao": "KSMF", "iata": "SMF", "name": "Sacramento ", "shortName": "Sacramento", "municipalityName": "Sacramento", "location": {"lat": 38.6954, "lon": -121.591}, "countryCode": "US"}, "averageDailyFlights": 0.86, "operators": [{"name": "PCM"}]}, {"destination": {"icao": "KMFR", "iata": "MFR", "name": "Medford Rogue Valley", "shortName": "Rogue Valley", "municipalityName": "Medford", "location": {"lat": 42.3742, "lon": -122.873}, "countryCode": "US"}, "averageDailyFlights": 0.29, "operators": [{"name": "REH"}, {"name": "CMD"}]}, {"destination": {"icao": "KPHX", "iata": "PHX", "name": "Phoenix Sky Harbor", "shortName": "Sky Harbor", "municipalityName": "Phoenix", "location": {"lat": 33.4343, "lon": -112.012}, "countryCode": "US"}, "averageDailyFlights": 0.29, "operators": [{"name": "CTF"}]}, {"destination": {"icao": "KACV", "iata": "ACV", "name": "Arcata/Eureka Arcata", "shortName": "Arcata", "municipalityName": "Arcata/Eureka", "location": {"lat": 40.9781, "lon": -124.109}, "countryCode": "US"}, "averageDailyFlights": 0.14, "operators": [{"name": "PCM"}]}, {"destination": {"icao": "KHND", "iata": "HSH", "name": "Las Vegas Henderson Executive", "shortName": "Henderson Executive", "municipalityName": "Las Vegas", "location": {"lat": 35.9728, "lon": -115.134}, "countryCode": "US"}, "averageDailyFlights": 0.14, "operators": [{"name": "Vuela El Salvador", "iata": "N3", "icao": "VOS"}]}]}