{"routes": [{"destination": {"icao": "KDEN", "iata": "DEN", "name": "Denver ", "shortName": "Denver", "municipalityName": "Denver", "location": {"lat": 39.8617, "lon": -104.673}, "countryCode": "US"}, "averageDailyFlights": 1.14, "operators": [{"name": "Alpine Air Express", "iata": "5A", "icao": "AIP"}]}, {"destination": {"icao": "KCEZ", "iata": "CEZ", "name": "Cortez Municipal", "shortName": "Municipal", "municipalityName": "Cortez", "location": {"lat": 37.303, "lon": -108.628}, "countryCode": "US"}, "averageDailyFlights": 0.29, "operators": [{"name": "FFL"}]}, {"destination": {"icao": "KBOI", "iata": "BOI", "name": "Boise Gowen field", "shortName": "Gowen field", "municipalityName": "Boise", "location": {"lat": 43.5644, "lon": -116.223}, "countryCode": "US"}, "averageDailyFlights": 0.14, "operators": [{"name": "NetJets Aviation", "iata": "1I", "icao": "EJA"}]}, {"destination": {"icao": "KCOS", "iata": "COS", "name": "Colorado Springs City of  Municipal", "shortName": "City of  Municipal", "municipalityName": "Colorado Springs", "location": {"lat": 38.8058, "lon": -104.701}, "countryCode": "US"}, "averageDailyFlights": 0.14, "operators": [{"name": "CXK"}]}, {"destination": {"icao": "KMSO", "iata": "MSO", "name": "Missoula ", "shortName": "Missoula", "municipalityName": "Missoula", "location": {"lat": 46.9163, "lon": -114.091}, "countryCode": "US"}, "averageDailyFlights": 0.14, "operators": [{"name": "Aerolineas Argentinas", "iata": "AR", "icao": "ARG"}]}, {"destination": {"icao": "KOMA", "iata": "OMA", "name": "Omaha Eppley Airfield", "shortName": "Eppley Airfield", "municipalityName": "Omaha", "location": {"lat": 41.3032, "lon": -95.8941}, "countryCode": "US"}, "averageDailyFlights": 0.14, "operators": [{"name": "NetJets Aviation", "iata": "1I", "icao": "EJA"}]}, {"destination": {"icao": "KDVT", "iata": "DVT", "name": "Phoenix Deer Valley", "shortName": "Deer Valley", "municipalityName": "Phoenix", "location": {"lat": 33.6883, "lon": -112.083}, "countryCode": "US"}, "averageDailyFlights": 0.14, "operators": [{"name": "NetJets Aviation", "iata": "1I", "icao": "EJA"}]}, {"destination": {"icao": "KMHR", "iata": "MHR", "name": "Sacramento Mather", "shortName": "Mather", "municipalityName": "Sacramento", "location": {"lat": 38.5539, "lon": -121.298}, "countryCode": "US"}, "averageDailyFlights": 0.14, "operators": [{"name": "NetJets Aviation", "iata": "1I", "icao": "EJA"}]}, {"destination": {"icao": "KSFO", "iata": "SFO", "name": "San Francisco ", "shortName": "San Francisco", "municipalityName": "San Francisco", "location": {"lat": 37.619, "lon": -122.375}, "countryCode": "US"}, "averageDailyFlights": 0.14, "operators": [{"name": "LXJ"}]}, {"destination": {"icao": "KSIK", "iata": "SIK", "name": "Sikeston Memorial Municipal", "shortName": "Memorial Municipal", "municipalityName": "Sikeston", "location": {"lat": 36.8989, "lon": -89.5618}, "countryCode": "US"}, "averageDailyFlights": 0.14, "operators": [{"name": "TCA", "iata": "N6", "icao": "TZS"}]}]}