{"routes": [{"destination": {"icao": "KATL", "iata": "ATL", "name": "Atlanta Hartsfield Jackson", "shortName": "Hartsfield Jackson", "municipalityName": "Atlanta", "location": {"lat": 33.6367, "lon": -84.4281}, "countryCode": "US"}, "averageDailyFlights": 6.86, "operators": [{"name": "Delta Air Lines", "iata": "DL", "icao": "DAL"}, {"name": "Southwest Airlines", "iata": "WN", "icao": "SWA"}]}, {"destination": {"icao": "KDFW", "iata": "DFW", "name": "Dallas-Fort Worth ", "shortName": "Dallas-Fort Worth", "municipalityName": "Dallas-Fort Worth", "location": {"lat": 32.8968, "lon": -97.038}, "countryCode": "US"}, "averageDailyFlights": 6.86, "operators": [{"name": "Envoy Air", "iata": "MQ", "icao": "ENY"}, {"name": "American Airlines", "iata": "AA", "icao": "AAL"}]}, {"destination": {"icao": "KORD", "iata": "ORD", "name": "Chicago O'Hare", "shortName": "O'Hare", "municipalityName": "Chicago", "location": {"lat": 41.9786, "lon": -87.9048}, "countryCode": "US"}, "averageDailyFlights": 4.71, "operators": [{"name": "United Airlines", "iata": "UA", "icao": "UAL"}, {"name": "Envoy Air", "iata": "MQ", "icao": "ENY"}, {"name": "Air Wisconsin", "iata": "ZW", "icao": "AWI"}, {"name": "Delta Air Lines", "iata": "DL", "icao": "DAL"}]}, {"destination": {"icao": "KDEN", "iata": "DEN", "name": "Denver ", "shortName": "Denver", "municipalityName": "Denver", "location": {"lat": 39.8617, "lon": -104.673}, "countryCode": "US"}, "averageDailyFlights": 4.43, "operators": [{"name": "Southwest Airlines", "iata": "WN", "icao": "SWA"}, {"name": "United Airlines", "iata": "UA", "icao": "UAL"}, {"name": "Frontier Airlines", "iata": "F9", "icao": "FFT"}, {"name": "Delta Air Lines", "iata": "DL", "icao": "DAL"}]}, {"destination": {"icao": "KDAL", "iata": "DAL", "name": "Dallas Love Field", "shortName": "Love Field", "municipalityName": "Dallas", "location": {"lat": 32.8471, "lon": -96.8518}, "countryCode": "US"}, "averageDailyFlights": 3.86, "operators": [{"name": "Southwest Airlines", "iata": "WN", "icao": "SWA"}, {"name": "SCM"}, {"name": "Libyan Airlines", "iata": "LN", "icao": "LAA"}, {"name": "NetJets Aviation", "iata": "1I", "icao": "EJA"}]}, {"destination": {"icao": "KIAH", "iata": "IAH", "name": "Houston George Bush", "shortName": "George Bush", "municipalityName": "Houston", "location": {"lat": 29.9844, "lon": -95.3414}, "countryCode": "US"}, "averageDailyFlights": 3.57, "operators": [{"name": "United Airlines", "iata": "UA", "icao": "UAL"}]}, {"destination": {"icao": "KCLT", "iata": "CLT", "name": "Charlotte Douglas", "shortName": "Douglas", "municipalityName": "Charlotte", "location": {"lat": 35.214, "lon": -80.9431}, "countryCode": "US"}, "averageDailyFlights": 3.0, "operators": [{"name": "Envoy Air", "iata": "MQ", "icao": "ENY"}, {"name": "American Airlines", "iata": "AA", "icao": "AAL"}]}, {"destination": {"icao": "KSTL", "iata": "STL", "name": "Saint Louis Lambert St Louis", "shortName": "Lambert St Louis", "municipalityName": "Saint Louis", "location": {"lat": 38.7487, "lon": -90.37}, "countryCode": "US"}, "averageDailyFlights": 2.29, "operators": [{"name": "Southwest Airlines", "iata": "WN", "icao": "SWA"}, {"name": "NetJets Aviation", "iata": "1I", "icao": "EJA"}]}, {"destination": {"icao": "KLGA", "iata": "LGA", "name": "New York La Guardia", "shortName": "La Guardia", "municipalityName": "New York", "location": {"lat": 40.7772, "lon": -73.8726}, "countryCode": "US"}, "averageDailyFlights": 2.0, "operators": [{"name": "Delta Air Lines", "iata": "DL", "icao": "DAL"}, {"name": "American Airlines", "iata": "AA", "icao": "AAL"}]}, {"destination": {"icao": "KASG", "iata": "SPZ", "name": "Springdale Municipal", "shortName": "Municipal", "municipalityName": "Springdale", "location": {"lat": 36.1764, "lon": -94.1193}, "countryCode": "US"}, "averageDailyFlights": 1.71, "operators": [{"name": "N1"}, {"name": "Libyan Airlines", "iata": "LN", "icao": "LAA"}, {"name": "VYR"}]}, {"destination": {"icao": "KDCA", "iata": "DCA", "name": "District of Columbia Ronald Reagan Washington National", "shortName": "Ronald Reagan Washington National", "municipalityName": "District of Columbia", "location": {"lat": 38.8521, "lon": -77.0377}, "countryCode": "US"}, "averageDailyFlights": 1.14, "operators": [{"name": "Envoy Air", "iata": "MQ", "icao": "ENY"}]}, {"destination": {"icao": "KPDK", "iata": "PDK", "name": "Atlanta DeKalb Peachtree", "shortName": "DeKalb Peachtree", "municipalityName": "Atlanta", "location": {"lat": 33.8756, "lon": -84.302}, "countryCode": "US"}, "averageDailyFlights": 0.86, "operators": [{"name": "My Jet Xpress Airlines", "iata": "N7", "icao": "NEP"}, {"name": "NetJets Aviation", "iata": "1I", "icao": "EJA"}, {"name": "Libyan Airlines", "iata": "LN", "icao": "LAA"}]}, {"destination": {"icao": "KMIA", "iata": "MIA", "name": "Miami ", "shortName": "Miami", "municipalityName": "Miami", "location": {"lat": 25.7932, "lon": -80.2906}, "countryCode": "US"}, "averageDailyFlights": 0.86, "operators": [{"name": "Envoy Air", "iata": "MQ", "icao": "ENY"}, {"name": "American Airlines", "iata": "AA", "icao": "AAL"}]}, {"destination": {"icao": "KYIP", "iata": "YIP", "name": "Detroit Willow Run", "shortName": "Willow Run", "municipalityName": "Detroit", "location": {"lat": 42.2379, "lon": -83.5304}, "countryCode": "US"}, "averageDailyFlights": 0.57, "operators": [{"name": "USA Jet Airlines", "iata": "UJ", "icao": "JUS"}, {"name": "KCR"}]}, {"destination": {"icao": "KTXK", "iata": "TXK", "name": "Texarkana Regional Webb Field", "shortName": "Regional Webb Field", "municipalityName": "Texarkana", "location": {"lat": 33.4537, "lon": -93.991}, "countryCode": "US"}, "averageDailyFlights": 0.57, "operators": [{"name": "Libyan Airlines", "iata": "LN", "icao": "LAA"}, {"name": "TCA", "iata": "N6", "icao": "TZS"}]}, {"destination": {"icao": "KFMY", "iata": "FMY", "name": "Fort Myers Page Field", "shortName": "Page Field", "municipalityName": "Fort Myers", "location": {"lat": 26.5866, "lon": -81.8633}, "countryCode": "US"}, "averageDailyFlights": 0.43, "operators": [{"name": "SUP"}]}, {"destination": {"icao": "KMKC", "iata": "MKC", "name": "Kansas City Charles B. Wheeler Downtown", "shortName": "Charles B. Wheeler Downtown", "municipalityName": "Kansas City", "location": {"lat": 39.1232, "lon": -94.5928}, "countryCode": "US"}, "averageDailyFlights": 0.43, "operators": [{"name": "TCA", "iata": "N6", "icao": "TZS"}, {"name": "NetJets Aviation", "iata": "1I", "icao": "EJA"}]}, {"destination": {"icao": "KLRD", "iata": "LRD", "name": "Laredo ", "shortName": "Laredo", "municipalityName": "Laredo", "location": {"lat": 27.5438, "lon": -99.4616}, "countryCode": "US"}, "averageDailyFlights": 0.43, "operators": [{"name": "KCR"}, {"name": "USA Jet Airlines", "iata": "UJ", "icao": "JUS"}]}, {"destination": {"icao": "KLAS", "iata": "LAS", "name": "Las Vegas McCarran", "shortName": "McCarran", "municipalityName": "Las Vegas", "location": {"lat": 36.0801, "lon": -115.152}, "countryCode": "US"}, "averageDailyFlights": 0.43, "operators": [{"name": "Frontier Airlines", "iata": "F9", "icao": "FFT"}]}, {"destination": {"icao": "KPIE", "iata": "PIE", "name": "St Petersburg-Clearwater St Petersburg Clearwater", "shortName": "St Petersburg Clearwater", "municipalityName": "St Petersburg-Clearwater", "location": {"lat": 27.9102, "lon": -82.6874}, "countryCode": "US"}, "averageDailyFlights": 0.43, "operators": [{"name": "Allegiant Air", "iata": "G4", "icao": "AAY"}]}, {"destination": {"icao": "KVPS", "iata": "VPS", "name": "Valparaiso Eglin Air Force Base", "shortName": "Eglin Air Force Base", "municipalityName": "Valparaiso", "location": {"lat": 30.4832, "lon": -86.5254}, "countryCode": "US"}, "averageDailyFlights": 0.43, "operators": [{"name": "Allegiant Air", "iata": "G4", "icao": "AAY"}]}, {"destination": {"icao": "KASE", "iata": "ASE", "name": "Aspen Sardy Field", "shortName": "Sardy Field", "municipalityName": "Aspen", "location": {"lat": 39.2232, "lon": -106.869}, "countryCode": "US"}, "averageDailyFlights": 0.29, "operators": [{"name": "N1"}, {"name": "EDG"}]}, {"destination": {"icao": "KHDN", "iata": "HDN", "name": "Hayden Yampa Valley", "shortName": "Yampa Valley", "municipalityName": "Hayden", "location": {"lat": 40.4812, "lon": -107.218}, "countryCode": "US"}, "averageDailyFlights": 0.29, "operators": [{"name": "SUP"}]}, {"destination": {"icao": "KSGR", "iata": "SGR", "name": "Houston Sugar Land Regional", "shortName": "Sugar Land Regional", "municipalityName": "Houston", "location": {"lat": 29.6223, "lon": -95.6565}, "countryCode": "US"}, "averageDailyFlights": 0.29, "operators": [{"name": "XSR"}, {"name": "EDG"}]}, {"destination": {"icao": "KLIT", "iata": "LIT", "name": "Little Rock Adams Field", "shortName": "Adams Field", "municipalityName": "Little Rock", "location": {"lat": 34.7294, "lon": -92.2243}, "countryCode": "US"}, "averageDailyFlights": 0.29, "operators": [{"name": "CVF"}]}, {"destination": {"icao": "KLAX", "iata": "LAX", "name": "Los Angeles ", "shortName": "Los Angeles", "municipalityName": "Los Angeles", "location": {"lat": 33.9425, "lon": -118.408}, "countryCode": "US"}, "averageDailyFlights": 0.29, "operators": [{"name": "Allegiant Air", "iata": "G4", "icao": "AAY"}]}, {"destination": {"icao": "KMEM", "iata": "MEM", "name": "Memphis ", "shortName": "Memphis", "municipalityName": "Memphis", "location": {"lat": 35.0424, "lon": -89.9767}, "countryCode": "US"}, "averageDailyFlights": 0.29, "operators": [{"name": "FTD"}]}, {"destination": {"icao": "KMSP", "iata": "MSP", "name": "Minneapolis Wold-Chamberlain", "shortName": "Wold-Chamberlain", "municipalityName": "Minneapolis", "location": {"lat": 44.882, "lon": -93.2218}, "countryCode": "US"}, "averageDailyFlights": 0.29, "operators": [{"name": "RKK"}]}, {"destination": {"icao": "KSFB", "iata": "SFB", "name": "Orlando Sanford", "shortName": "Sanford", "municipalityName": "Orlando", "location": {"lat": 28.7776, "lon": -81.2375}, "countryCode": "US"}, "averageDailyFlights": 0.29, "operators": [{"name": "Allegiant Air", "iata": "G4", "icao": "AAY"}]}, {"destination": {"icao": "KECP", "iata": "ECP", "name": "Panama City Beach Northwest Florida Beaches", "shortName": "Northwest Florida Beaches", "municipalityName": "Panama City Beach", "location": {"lat": 30.3417, "lon": -85.7973}, "countryCode": "US"}, "averageDailyFlights": 0.29, "operators": [{"name": "FTD"}]}, {"destination": {"icao": "KBHB", "iata": "BHB", "name": "Bar Harbor Hancock County-", "shortName": "Hancock County-", "municipalityName": "Bar Harbor", "location": {"lat": 44.45, "lon": -68.3615}, "countryCode": "US"}, "averageDailyFlights": 0.14, "operators": [{"name": "N1"}]}, {"destination": {"icao": "KBED", "iata": "BED", "name": "Bedford Laurence G Hanscom Field", "shortName": "Laurence G Hanscom Field", "municipalityName": "Bedford", "location": {"lat": 42.47, "lon": -71.289}, "countryCode": "US"}, "averageDailyFlights": 0.14, "operators": [{"name": "RKK"}]}, {"destination": {"icao": "KBOS", "iata": "BOS", "name": "Boston General Edward Lawrence Logan", "shortName": "General Edward Lawrence Logan", "municipalityName": "Boston", "location": {"lat": 42.3643, "lon": -71.0052}, "countryCode": "US"}, "averageDailyFlights": 0.14, "operators": [{"name": "RKK"}]}, {"destination": {"icao": "KBZN", "iata": "BZN", "name": "Bozeman Gallatin Field", "shortName": "Gallatin Field", "municipalityName": "Bozeman", "location": {"lat": 45.7775, "lon": -111.153}, "countryCode": "US"}, "averageDailyFlights": 0.14, "operators": [{"name": "NetJets Aviation", "iata": "1I", "icao": "EJA"}]}, {"destination": {"icao": "KMDH", "iata": "MDH", "name": "Carbondale/Murphysboro Southern Illinois", "shortName": "Southern Illinois", "municipalityName": "Carbondale/Murphysboro", "location": {"lat": 37.7781, "lon": -89.252}, "countryCode": "US"}, "averageDailyFlights": 0.14, "operators": [{"name": "CBN"}]}, {"destination": {"icao": "KCZT", "iata": "CZT", "name": "Carrizo Springs Dimmit County", "shortName": "Dimmit County", "municipalityName": "Carrizo Springs", "location": {"lat": 28.5222, "lon": -99.8236}, "countryCode": "US"}, "averageDailyFlights": 0.14, "operators": [{"name": "NetJets Aviation", "iata": "1I", "icao": "EJA"}]}, {"destination": {"icao": "KCEU", "iata": "CEU", "name": "Clemson Oconee County Regional", "shortName": "Oconee County Regional", "municipalityName": "Clemson", "location": {"lat": 34.6719, "lon": -82.8865}, "countryCode": "US"}, "averageDailyFlights": 0.14, "operators": [{"name": "N1"}]}, {"destination": {"icao": "KCLE", "iata": "CLE", "name": "Cleveland Hopkins", "shortName": "Hopkins", "municipalityName": "Cleveland", "location": {"lat": 41.4117, "lon": -81.8498}, "countryCode": "US"}, "averageDailyFlights": 0.14, "operators": [{"name": "USA Jet Airlines", "iata": "UJ", "icao": "JUS"}]}, {"destination": {"icao": "KCRT", "iata": "CRT", "name": "Crossett Z M Jack Stell Field", "shortName": "Z M Jack Stell Field", "municipalityName": "Crossett", "location": {"lat": 33.1783, "lon": -91.8802}, "countryCode": "US"}, "averageDailyFlights": 0.14, "operators": [{"name": "Libyan Airlines", "iata": "LN", "icao": "LAA"}]}, {"destination": {"icao": "KBJC", "iata": "BJC", "name": "Denver Rocky Mountain Metropolitan", "shortName": "Rocky Mountain Metropolitan", "municipalityName": "Denver", "location": {"lat": 39.9088, "lon": -105.117}, "countryCode": "US"}, "averageDailyFlights": 0.14, "operators": [{"name": "NetJets Aviation", "iata": "1I", "icao": "EJA"}]}, {"destination": {"icao": "KXNA", "iata": "XNA", "name": "Fayetteville/Springdale/ Northwest Arkansas Regional", "shortName": "Northwest Arkansas Regional", "municipalityName": "Fayetteville/Springdale/", "location": {"lat": 36.2819, "lon": -94.3068}, "countryCode": "US"}, "averageDailyFlights": 0.14, "operators": [{"name": "Envoy Air", "iata": "MQ", "icao": "ENY"}]}, {"destination": {"icao": "KAFW", "iata": "AFW", "name": "Fort Worth Alliance", "shortName": "Alliance", "municipalityName": "Fort Worth", "location": {"lat": 32.9876, "lon": -97.3188}, "countryCode": "US"}, "averageDailyFlights": 0.14, "operators": [{"name": "FFL"}]}, {"destination": {"icao": "KJKA", "iata": "GUF", "name": "Gulf Shores Jack Edwards", "shortName": "Jack Edwards", "municipalityName": "Gulf Shores", "location": {"lat": 30.2905, "lon": -87.6718}, "countryCode": "US"}, "averageDailyFlights": 0.14, "operators": [{"name": "TMB"}]}, {"destination": {"icao": "KEFD", "iata": "EFD", "name": "Houston Ellington", "shortName": "Ellington", "municipalityName": "Houston", "location": {"lat": 29.6073, "lon": -95.1588}, "countryCode": "US"}, "averageDailyFlights": 0.14, "operators": [{"name": "NetJets Aviation", "iata": "1I", "icao": "EJA"}]}, {"destination": {"icao": "KHHW", "iata": "HUJ", "name": "Hugo Stan Stamper Municipal", "shortName": "Stan Stamper Municipal", "municipalityName": "Hugo", "location": {"lat": 34.0348, "lon": -95.5419}, "countryCode": "US"}, "averageDailyFlights": 0.14, "operators": [{"name": "Libyan Airlines", "iata": "LN", "icao": "LAA"}]}, {"destination": {"icao": "KJBR", "iata": "JBR", "name": "Jonesboro Municipal", "shortName": "Municipal", "municipalityName": "Jonesboro", "location": {"lat": 35.8317, "lon": -90.6464}, "countryCode": "US"}, "averageDailyFlights": 0.14, "operators": [{"name": "GAJ"}]}, {"destination": {"icao": "KAIZ", "iata": "AIZ", "name": "Kaiser Lake Ozark Lee C Fine Memorial", "shortName": "Lee C Fine Memorial", "municipalityName": "Kaiser Lake Ozark", "location": {"lat": 38.096, "lon": -92.5495}, "countryCode": "US"}, "averageDailyFlights": 0.14, "operators": [{"name": "TMB"}]}, {"destination": {"icao": "KLFT", "iata": "LFT", "name": "Lafayette Regional", "shortName": "Regional", "municipalityName": "Lafayette", "location": {"lat": 30.2053, "lon": -91.9876}, "countryCode": "US"}, "averageDailyFlights": 0.14, "operators": [{"name": "Nolinor", "iata": "N5", "icao": "NRL"}]}, {"destination": {"icao": "KLAN", "iata": "LAN", "name": "Lansing Capital City", "shortName": "Capital City", "municipalityName": "Lansing", "location": {"lat": 42.7787, "lon": -84.5874}, "countryCode": "US"}, "averageDailyFlights": 0.14, "operators": [{"name": "RAX"}]}, {"destination": {"icao": "KLZU", "iata": "LZU", "name": "Lawrenceville Gwinnett County Briscoe Field", "shortName": "Gwinnett County Briscoe Field", "municipalityName": "Lawrenceville", "location": {"lat": 33.9781, "lon": -83.9624}, "countryCode": "US"}, "averageDailyFlights": 0.14, "operators": [{"name": "CXK"}]}, {"destination": {"icao": "KLEX", "iata": "LEX", "name": "Lexington Blue Grass", "shortName": "Blue Grass", "municipalityName": "Lexington", "location": {"lat": 38.0365, "lon": -84.6059}, "countryCode": "US"}, "averageDailyFlights": 0.14, "operators": [{"name": "NetJets Aviation", "iata": "1I", "icao": "EJA"}]}, {"destination": {"icao": "KMVY", "iata": "MVY", "name": "Martha's Vineyard ", "shortName": "Martha's Vineyard", "municipalityName": "Martha's Vineyard", "location": {"lat": 41.3931, "lon": -70.6143}, "countryCode": "US"}, "averageDailyFlights": 0.14, "operators": [{"name": "XSR"}]}, {"destination": {"icao": "KMDD", "iata": "MDD", "name": "Midland Airpark", "shortName": "Airpark", "municipalityName": "Midland", "location": {"lat": 32.0365, "lon": -102.101}, "countryCode": "US"}, "averageDailyFlights": 0.14, "operators": [{"name": "JTZ"}]}, {"destination": {"icao": "KBFM", "iata": "BFM", "name": "Mobile Downtown", "shortName": "Downtown", "municipalityName": "Mobile", "location": {"lat": 30.6268, "lon": -88.0681}, "countryCode": "US"}, "averageDailyFlights": 0.14, "operators": [{"name": "NetJets Aviation", "iata": "1I", "icao": "EJA"}]}, {"destination": {"icao": "KMMU", "iata": "MMU", "name": "Morristown Municipal", "shortName": "Municipal", "municipalityName": "Morristown", "location": {"lat": 40.7994, "lon": -74.4149}, "countryCode": "US"}, "averageDailyFlights": 0.14, "operators": [{"name": "FTH"}]}, {"destination": {"icao": "KBPK", "iata": "WMH", "name": "Mountain Home Ozark Regional", "shortName": "Ozark Regional", "municipalityName": "Mountain Home", "location": {"lat": 36.3689, "lon": -92.4705}, "countryCode": "US"}, "averageDailyFlights": 0.14, "operators": [{"name": "Libyan Airlines", "iata": "LN", "icao": "LAA"}]}, {"destination": {"icao": "KIAG", "iata": "IAG", "name": "Niagara Falls ", "shortName": "Niagara Falls", "municipalityName": "Niagara Falls", "location": {"lat": 43.1073, "lon": -78.9462}, "countryCode": "US"}, "averageDailyFlights": 0.14, "operators": [{"name": "USA Jet Airlines", "iata": "UJ", "icao": "JUS"}]}, {"destination": {"icao": "KOLV", "iata": "OLV", "name": "Olive Branch ", "shortName": "Olive Branch", "municipalityName": "Olive Branch", "location": {"lat": 34.9787, "lon": -89.7869}, "countryCode": "US"}, "averageDailyFlights": 0.14, "operators": [{"name": "CXK"}]}, {"destination": {"icao": "KSAV", "iata": "SAV", "name": "Savannah Hilton Head", "shortName": "Hilton Head", "municipalityName": "Savannah", "location": {"lat": 32.1276, "lon": -81.2021}, "countryCode": "US"}, "averageDailyFlights": 0.14, "operators": [{"name": "NetJets Aviation", "iata": "1I", "icao": "EJA"}]}, {"destination": {"icao": "KSDL", "iata": "SCF", "name": "Scottsdale ", "shortName": "Scottsdale", "municipalityName": "Scottsdale", "location": {"lat": 33.6229, "lon": -111.911}, "countryCode": "US"}, "averageDailyFlights": 0.14, "operators": [{"name": "JRE"}]}, {"destination": {"icao": "KSBM", "iata": "SBM", "name": "Sheboygan County Memorial", "shortName": "County Memorial", "municipalityName": "Sheboygan", "location": {"lat": 43.7696, "lon": -87.8514}, "countryCode": "US"}, "averageDailyFlights": 0.14, "operators": [{"name": "NetJets Aviation", "iata": "1I", "icao": "EJA"}]}, {"destination": {"icao": "KSGF", "iata": "SGF", "name": "Springfield Branson National", "shortName": "Branson National", "municipalityName": "Springfield", "location": {"lat": 37.2457, "lon": -93.3886}, "countryCode": "US"}, "averageDailyFlights": 0.14, "operators": [{"name": "CXK"}]}, {"destination": {"icao": "KTEB", "iata": "TEB", "name": "Teterboro ", "shortName": "Teterboro", "municipalityName": "Teterboro", "location": {"lat": 40.8501, "lon": -74.0608}, "countryCode": "US"}, "averageDailyFlights": 0.14, "operators": [{"name": "FTD"}]}, {"destination": {"icao": "KRVS", "iata": "RVS", "name": "Tulsa Richard Lloyd Jones Jr", "shortName": "Richard Lloyd Jones Jr", "municipalityName": "Tulsa", "location": {"lat": 36.0396, "lon": -95.9846}, "countryCode": "US"}, "averageDailyFlights": 0.14, "operators": [{"name": "FTH"}]}]}