{"routes": [{"destination": {"icao": "KSDL", "iata": "SCF", "name": "Scottsdale ", "shortName": "Scottsdale", "municipalityName": "Scottsdale", "location": {"lat": 33.6229, "lon": -111.911}, "countryCode": "US"}, "averageDailyFlights": 0.43, "operators": [{"name": "CBC"}]}, {"destination": {"icao": "KSGU", "iata": "SGU", "name": "St. George St George Municipal", "shortName": "St George Municipal", "municipalityName": "St. George", "location": {"lat": 37.03639, "lon": -113.51031}, "countryCode": "US"}, "averageDailyFlights": 0.43, "operators": [{"name": "CBC"}]}, {"destination": {"icao": "KORD", "iata": "ORD", "name": "Chicago O'Hare", "shortName": "O'Hare", "municipalityName": "Chicago", "location": {"lat": 41.9786, "lon": -87.9048}, "countryCode": "US"}, "averageDailyFlights": 0.29, "operators": [{"name": "PXT"}]}, {"destination": {"icao": "KPAE", "iata": "PAE", "name": "Everett Snohomish County (Paine Field)", "shortName": "Snohomish County (Paine Field)", "municipalityName": "Everett", "location": {"lat": 47.9063, "lon": -122.282}, "countryCode": "US"}, "averageDailyFlights": 0.29, "operators": [{"name": "PXT"}]}, {"destination": {"icao": "KFAT", "iata": "FAT", "name": "Fresno Yosemite", "shortName": "Yosemite", "municipalityName": "Fresno", "location": {"lat": 36.7762, "lon": -119.718}, "countryCode": "US"}, "averageDailyFlights": 0.29, "operators": [{"name": "CBC"}]}, {"destination": {"icao": "KIDA", "iata": "IDA", "name": "Idaho Falls Regional", "shortName": "Regional", "municipalityName": "Idaho Falls", "location": {"lat": 43.5146, "lon": -112.071}, "countryCode": "US"}, "averageDailyFlights": 0.29, "operators": [{"name": "CXK"}]}, {"destination": {"icao": "KMWL", "iata": "MWL", "name": "Mineral Wells ", "shortName": "Mineral Wells", "municipalityName": "Mineral Wells", "location": {"lat": 32.7816, "lon": -98.0602}, "countryCode": "US"}, "averageDailyFlights": 0.29, "operators": [{"name": "CBC"}]}, {"destination": {"icao": "KTWF", "iata": "TWF", "name": "Twin Falls Joslin Field Magic Valley Regional", "shortName": "Joslin Field Magic Valley Regional", "municipalityName": "Twin Falls", "location": {"lat": 42.4818, "lon": -114.488}, "countryCode": "US"}, "averageDailyFlights": 0.29, "operators": [{"name": "CBC"}]}, {"destination": {"icao": "KBED", "iata": "BED", "name": "Bedford Laurence G Hanscom Field", "shortName": "Laurence G Hanscom Field", "municipalityName": "Bedford", "location": {"lat": 42.47, "lon": -71.289}, "countryCode": "US"}, "averageDailyFlights": 0.14, "operators": [{"name": "LXJ"}]}, {"destination": {"icao": "KBOI", "iata": "BOI", "name": "Boise Gowen field", "shortName": "Gowen field", "municipalityName": "Boise", "location": {"lat": 43.5644, "lon": -116.223}, "countryCode": "US"}, "averageDailyFlights": 0.14, "operators": [{"name": "XCN"}]}, {"destination": {"icao": "KBYI", "iata": "BYI", "name": "Burley Municipal", "shortName": "Municipal", "municipalityName": "Burley", "location": {"lat": 42.5426, "lon": -113.772}, "countryCode": "US"}, "averageDailyFlights": 0.14, "operators": [{"name": "CXK"}]}, {"destination": {"icao": "KDBQ", "iata": "DBQ", "name": "Dubuque Regional", "shortName": "Regional", "municipalityName": "Dubuque", "location": {"lat": 42.402, "lon": -90.7095}, "countryCode": "US"}, "averageDailyFlights": 0.14, "operators": [{"name": "Libyan Airlines", "iata": "LN", "icao": "LAA"}]}, {"destination": {"icao": "KHWD", "iata": "HWD", "name": "Hayward Executive", "shortName": "Executive", "municipalityName": "Hayward", "location": {"lat": 37.6592, "lon": -122.122}, "countryCode": "US"}, "averageDailyFlights": 0.14, "operators": [{"name": "CBC"}]}, {"destination": {"icao": "KJAC", "iata": "JAC", "name": "Jackson Hole", "shortName": "Hole", "municipalityName": "Jackson", "location": {"lat": 43.6073, "lon": -110.738}, "countryCode": "US"}, "averageDailyFlights": 0.14, "operators": [{"name": "CBC"}]}, {"destination": {"icao": "KLAX", "iata": "LAX", "name": "Los Angeles ", "shortName": "Los Angeles", "municipalityName": "Los Angeles", "location": {"lat": 33.9425, "lon": -118.408}, "countryCode": "US"}, "averageDailyFlights": 0.14, "operators": [{"name": "CBC"}]}, {"destination": {"icao": "KDVT", "iata": "DVT", "name": "Phoenix Deer Valley", "shortName": "Deer Valley", "municipalityName": "Phoenix", "location": {"lat": 33.6883, "lon": -112.083}, "countryCode": "US"}, "averageDailyFlights": 0.14, "operators": [{"name": "NetJets Aviation", "iata": "1I", "icao": "EJA"}]}, {"destination": {"icao": "KSLC", "iata": "SLC", "name": "Salt Lake City ", "shortName": "Salt Lake City", "municipalityName": "Salt Lake City", "location": {"lat": 40.7884, "lon": -111.978}, "countryCode": "US"}, "averageDailyFlights": 0.14, "operators": [{"name": "EJM"}]}, {"destination": {"icao": "KABQ", "iata": "ABQ", "name": "The Duke City Albuquerque  Sunport", "shortName": "Albuquerque  Sunport", "municipalityName": "The Duke City", "location": {"lat": 35.0402, "lon": -106.609}, "countryCode": "US"}, "averageDailyFlights": 0.14, "operators": [{"name": "Delta Air Lines", "iata": "DL", "icao": "DAL"}]}, {"destination": {"icao": "MMTO", "iata": "TLC", "name": "Toluca Licenciado Adolfo Lopez Mateos", "shortName": "Licenciado Adolfo Lopez Mateos", "municipalityName": "Toluca", "location": {"lat": 19.3371, "lon": -99.566}, "countryCode": "MX"}, "averageDailyFlights": 0.14, "operators": [{"name": "LET"}]}]}