{"routes": [{"destination": {"icao": "KSLC", "iata": "SLC", "name": "Salt Lake City ", "shortName": "Salt Lake City", "municipalityName": "Salt Lake City", "location": {"lat": 40.7884, "lon": -111.978}, "countryCode": "US"}, "averageDailyFlights": 4.86, "operators": [{"name": "CBC"}, {"name": "Delta Air Lines", "iata": "DL", "icao": "DAL"}, {"name": "STV"}, {"name": "Alpine Air Express", "iata": "5A", "icao": "AIP"}]}, {"destination": {"icao": "KDEN", "iata": "DEN", "name": "Denver ", "shortName": "Denver", "municipalityName": "Denver", "location": {"lat": 39.8617, "lon": -104.673}, "countryCode": "US"}, "averageDailyFlights": 2.0, "operators": [{"name": "United Airlines", "iata": "UA", "icao": "UAL"}]}, {"destination": {"icao": "KPHX", "iata": "PHX", "name": "Phoenix Sky Harbor", "shortName": "Sky Harbor", "municipalityName": "Phoenix", "location": {"lat": 33.4343, "lon": -112.012}, "countryCode": "US"}, "averageDailyFlights": 1.29, "operators": [{"name": "American Airlines", "iata": "AA", "icao": "AAL"}]}, {"destination": {"icao": "KLAS", "iata": "LAS", "name": "Las Vegas McCarran", "shortName": "McCarran", "municipalityName": "Las Vegas", "location": {"lat": 36.0801, "lon": -115.152}, "countryCode": "US"}, "averageDailyFlights": 0.86, "operators": [{"name": "PCM"}]}, {"destination": {"icao": "KOGD", "iata": "OGD", "name": "Ogden Hinckley", "shortName": "Hinckley", "municipalityName": "Ogden", "location": {"lat": 41.1959, "lon": -112.012}, "countryCode": "US"}, "averageDailyFlights": 0.71, "operators": [{"name": "CBC"}]}, {"destination": {"icao": "KCOE", "iata": "COE", "name": "Coeur d'Alene - Pappy Boyington Field", "shortName": "- Pappy Boyington Field", "municipalityName": "Coeur d'Alene", "location": {"lat": 47.7743, "lon": -116.82}, "countryCode": "US"}, "averageDailyFlights": 0.29, "operators": [{"name": "TIV"}]}, {"destination": {"icao": "KASE", "iata": "ASE", "name": "Aspen Sardy Field", "shortName": "Sardy Field", "municipalityName": "Aspen", "location": {"lat": 39.2232, "lon": -106.869}, "countryCode": "US"}, "averageDailyFlights": 0.14, "operators": [{"name": "SkyWest Airlines", "iata": "OO", "icao": "SKW"}]}, {"destination": {"icao": "KLGU", "iata": "LGU", "name": "Logan -Cache", "shortName": "-Cache", "municipalityName": "Logan", "location": {"lat": 41.7912, "lon": -111.852}, "countryCode": "US"}, "averageDailyFlights": 0.14, "operators": [{"name": "NetJets Aviation", "iata": "1I", "icao": "EJA"}]}, {"destination": {"icao": "KSNA", "iata": "SNA", "name": "Santa Ana John Wayne -Orange County", "shortName": "John Wayne -Orange County", "municipalityName": "Santa Ana", "location": {"lat": 33.6757, "lon": -117.868}, "countryCode": "US"}, "averageDailyFlights": 0.14, "operators": [{"name": "NetJets Aviation", "iata": "1I", "icao": "EJA"}]}, {"destination": {"icao": "KSDY", "iata": "SDY", "name": "Sidney Richland Municipal", "shortName": "Richland Municipal", "municipalityName": "Sidney", "location": {"lat": 47.7069, "lon": -104.193}, "countryCode": "US"}, "averageDailyFlights": 0.14, "operators": [{"name": "NetJets Aviation", "iata": "1I", "icao": "EJA"}]}, {"destination": {"icao": "KABQ", "iata": "ABQ", "name": "The Duke City Albuquerque  Sunport", "shortName": "Albuquerque  Sunport", "municipalityName": "The Duke City", "location": {"lat": 35.0402, "lon": -106.609}, "countryCode": "US"}, "averageDailyFlights": 0.14, "operators": [{"name": "N2"}]}, {"destination": {"icao": "KTUS", "iata": "TUS", "name": "Tucson ", "shortName": "Tucson", "municipalityName": "Tucson", "location": {"lat": 32.1161, "lon": -110.941}, "countryCode": "US"}, "averageDailyFlights": 0.14, "operators": [{"name": "American Airlines", "iata": "AA", "icao": "AAL"}]}, {"destination": {"icao": "KVNY", "iata": "VNY", "name": "Van Nuys ", "shortName": "Van Nuys", "municipalityName": "Van Nuys", "location": {"lat": 34.2098, "lon": -118.49}, "countryCode": "US"}, "averageDailyFlights": 0.14, "operators": [{"name": "EDG"}]}]}