{"routes": [{"destination": {"icao": "KDFW", "iata": "DFW", "name": "Dallas-Fort Worth ", "shortName": "Dallas-Fort Worth", "municipalityName": "Dallas-Fort Worth", "location": {"lat": 32.8968, "lon": -97.038}, "countryCode": "US"}, "averageDailyFlights": 5.86, "operators": [{"name": "Envoy Air", "iata": "MQ", "icao": "ENY"}, {"name": "SkyWest Airlines", "iata": "OO", "icao": "SKW"}, {"name": "American Airlines", "iata": "AA", "icao": "AAL"}, {"name": "GAJ"}]}, {"destination": {"icao": "KIAH", "iata": "IAH", "name": "Houston George Bush", "shortName": "George Bush", "municipalityName": "Houston", "location": {"lat": 29.9844, "lon": -95.3414}, "countryCode": "US"}, "averageDailyFlights": 3.71, "operators": [{"name": "United Airlines", "iata": "UA", "icao": "UAL"}, {"name": "GAJ"}]}, {"destination": {"icao": "KATL", "iata": "ATL", "name": "Atlanta Hartsfield Jackson", "shortName": "Hartsfield Jackson", "municipalityName": "Atlanta", "location": {"lat": 33.6367, "lon": -84.4281}, "countryCode": "US"}, "averageDailyFlights": 3.0, "operators": [{"name": "Delta Air Lines", "iata": "DL", "icao": "DAL"}]}, {"destination": {"icao": "KCLT", "iata": "CLT", "name": "Charlotte Douglas", "shortName": "Douglas", "municipalityName": "Charlotte", "location": {"lat": 35.214, "lon": -80.9431}, "countryCode": "US"}, "averageDailyFlights": 2.43, "operators": [{"name": "American Airlines", "iata": "AA", "icao": "AAL"}]}, {"destination": {"icao": "KDEN", "iata": "DEN", "name": "Denver ", "shortName": "Denver", "municipalityName": "Denver", "location": {"lat": 39.8617, "lon": -104.673}, "countryCode": "US"}, "averageDailyFlights": 1.29, "operators": [{"name": "United Airlines", "iata": "UA", "icao": "UAL"}, {"name": "Sun Country Airlines", "iata": "SY", "icao": "SCX"}]}, {"destination": {"icao": "MMSP", "iata": "SLP", "name": "San Luis Potos\u00ed Ponciano Arriaga", "shortName": "Ponciano Arriaga", "municipalityName": "San Luis Potos\u00ed", "location": {"lat": 22.2543, "lon": -100.931}, "countryCode": "MX"}, "averageDailyFlights": 0.86, "operators": [{"name": "VTM"}, {"name": "Ameriflight", "iata": "A8", "icao": "AMF"}]}, {"destination": {"icao": "KBTR", "iata": "BTR", "name": "Baton Rouge Ryan Field", "shortName": "Ryan Field", "municipalityName": "Baton Rouge", "location": {"lat": 30.5332, "lon": -91.1496}, "countryCode": "US"}, "averageDailyFlights": 0.43, "operators": [{"name": "SWD"}, {"name": "N2"}]}, {"destination": {"icao": "KDTS", "iata": "DSI", "name": "Destin Fort Walton Beach", "shortName": "Fort Walton Beach", "municipalityName": "Destin", "location": {"lat": 30.4001, "lon": -86.4715}, "countryCode": "US"}, "averageDailyFlights": 0.43, "operators": [{"name": "JTZ"}, {"name": "GAJ"}]}, {"destination": {"icao": "KLAS", "iata": "LAS", "name": "Las Vegas McCarran", "shortName": "McCarran", "municipalityName": "Las Vegas", "location": {"lat": 36.0801, "lon": -115.152}, "countryCode": "US"}, "averageDailyFlights": 0.43, "operators": [{"name": "Allegiant Air", "iata": "G4", "icao": "AAY"}]}, {"destination": {"icao": "KLAX", "iata": "LAX", "name": "Los Angeles ", "shortName": "Los Angeles", "municipalityName": "Los Angeles", "location": {"lat": 33.9425, "lon": -118.408}, "countryCode": "US"}, "averageDailyFlights": 0.43, "operators": [{"name": "Allegiant Air", "iata": "G4", "icao": "AAY"}]}, {"destination": {"icao": "MMIO", "iata": "SLW", "name": "Saltillo Plan De Guadalupe", "shortName": "Plan De Guadalupe", "municipalityName": "Saltillo", "location": {"lat": 25.5495, "lon": -100.929}, "countryCode": "MX"}, "averageDailyFlights": 0.43, "operators": [{"name": "USA Jet Airlines", "iata": "UJ", "icao": "JUS"}, {"name": "XAVCP"}, {"name": "VTM"}]}, {"destination": {"icao": "KCMI", "iata": "CMI", "name": "Champaign/Urbana University of Illinois Willard", "shortName": "University of Illinois Willard", "municipalityName": "Champaign/Urbana", "location": {"lat": 40.0392, "lon": -88.2781}, "countryCode": "US"}, "averageDailyFlights": 0.29, "operators": [{"name": "JTZ"}]}, {"destination": {"icao": "KMOB", "iata": "MOB", "name": "Mobile Regional", "shortName": "Regional", "municipalityName": "Mobile", "location": {"lat": 30.6912, "lon": -88.2428}, "countryCode": "US"}, "averageDailyFlights": 0.29, "operators": [{"name": "JTZ"}]}, {"destination": {"icao": "KBNA", "iata": "BNA", "name": "Nashville ", "shortName": "Nashville", "municipalityName": "Nashville", "location": {"lat": 36.1245, "lon": -86.6782}, "countryCode": "US"}, "averageDailyFlights": 0.29, "operators": [{"name": "LXJ"}, {"name": "JRT"}]}, {"destination": {"icao": "KSFB", "iata": "SFB", "name": "Orlando Sanford", "shortName": "Sanford", "municipalityName": "Orlando", "location": {"lat": 28.7776, "lon": -81.2375}, "countryCode": "US"}, "averageDailyFlights": 0.29, "operators": [{"name": "Allegiant Air", "iata": "G4", "icao": "AAY"}]}, {"destination": {"icao": "KBHM", "iata": "BHM", "name": "Birmingham -Shuttlesworth", "shortName": "-Shuttlesworth", "municipalityName": "Birmingham", "location": {"lat": 33.5629, "lon": -86.7535}, "countryCode": "US"}, "averageDailyFlights": 0.14, "operators": [{"name": "NetJets Aviation", "iata": "1I", "icao": "EJA"}]}, {"destination": {"icao": "KCHS", "iata": "CHS", "name": "Charleston Air Force Base-", "shortName": "Air Force Base-", "municipalityName": "Charleston", "location": {"lat": 32.8986, "lon": -80.0405}, "countryCode": "US"}, "averageDailyFlights": 0.14, "operators": [{"name": "Swift Air", "iata": "WQ", "icao": "SWQ"}]}, {"destination": {"icao": "KDAL", "iata": "DAL", "name": "Dallas Love Field", "shortName": "Love Field", "municipalityName": "Dallas", "location": {"lat": 32.8471, "lon": -96.8518}, "countryCode": "US"}, "averageDailyFlights": 0.14, "operators": [{"name": "Delta Air Lines", "iata": "DL", "icao": "DAL"}]}, {"destination": {"icao": "KYIP", "iata": "YIP", "name": "Detroit Willow Run", "shortName": "Willow Run", "municipalityName": "Detroit", "location": {"lat": 42.2379, "lon": -83.5304}, "countryCode": "US"}, "averageDailyFlights": 0.14, "operators": [{"name": "USA Jet Airlines", "iata": "UJ", "icao": "JUS"}]}, {"destination": {"icao": "KGSO", "iata": "GSO", "name": "Greensboro Piedmont Triad", "shortName": "Piedmont Triad", "municipalityName": "Greensboro", "location": {"lat": 36.0978, "lon": -79.9373}, "countryCode": "US"}, "averageDailyFlights": 0.14, "operators": [{"name": "NetJets Aviation", "iata": "1I", "icao": "EJA"}]}, {"destination": {"icao": "KJKA", "iata": "GUF", "name": "Gulf Shores Jack Edwards", "shortName": "Jack Edwards", "municipalityName": "Gulf Shores", "location": {"lat": 30.2905, "lon": -87.6718}, "countryCode": "US"}, "averageDailyFlights": 0.14, "operators": [{"name": "DCM"}]}, {"destination": {"icao": "KCXO", "iata": "CXO", "name": "Houston Lone Star Executive", "shortName": "Lone Star Executive", "municipalityName": "Houston", "location": {"lat": 30.3518, "lon": -95.4145}, "countryCode": "US"}, "averageDailyFlights": 0.14, "operators": [{"name": "CXK"}]}, {"destination": {"icao": "KMEM", "iata": "MEM", "name": "Memphis ", "shortName": "Memphis", "municipalityName": "Memphis", "location": {"lat": 35.0424, "lon": -89.9767}, "countryCode": "US"}, "averageDailyFlights": 0.14, "operators": [{"name": "USA Jet Airlines", "iata": "UJ", "icao": "JUS"}]}, {"destination": {"icao": "KMLU", "iata": "MLU", "name": "Monroe Regional", "shortName": "Regional", "municipalityName": "Monroe", "location": {"lat": 32.5109, "lon": -92.0377}, "countryCode": "US"}, "averageDailyFlights": 0.14, "operators": [{"name": "DCM"}]}, {"destination": {"icao": "KECP", "iata": "ECP", "name": "Panama City Beach Northwest Florida Beaches", "shortName": "Northwest Florida Beaches", "municipalityName": "Panama City Beach", "location": {"lat": 30.3417, "lon": -85.7973}, "countryCode": "US"}, "averageDailyFlights": 0.14, "operators": [{"name": "NetJets Aviation", "iata": "1I", "icao": "EJA"}]}, {"destination": {"icao": "MMQT", "iata": "QRO", "name": "Quer\u00e9taro Intercontinental", "shortName": "Intercontinental", "municipalityName": "Quer\u00e9taro", "location": {"lat": 20.6173, "lon": -100.186}, "countryCode": "MX"}, "averageDailyFlights": 0.14, "operators": [{"name": "VTM"}]}, {"destination": {"icao": "KRNO", "iata": "RNO", "name": "Reno Tahoe", "shortName": "Tahoe", "municipalityName": "Reno", "location": {"lat": 39.4991, "lon": -119.768}, "countryCode": "US"}, "averageDailyFlights": 0.14, "operators": [{"name": "Sun Country Airlines", "iata": "SY", "icao": "SCX"}]}, {"destination": {"icao": "RKSI", "iata": "ICN", "name": "Seoul Incheon", "shortName": "Incheon", "municipalityName": "Seoul", "location": {"lat": 37.4691, "lon": 126.451}, "countryCode": "KR"}, "averageDailyFlights": 0.14, "operators": [{"name": "Western Global", "iata": "KD", "icao": "WGN"}]}, {"destination": {"icao": "MMLO", "iata": "BJX", "name": "Silao Del Baj\u00edo", "shortName": "Del Baj\u00edo", "municipalityName": "Silao", "location": {"lat": 20.9935, "lon": -101.481}, "countryCode": "MX"}, "averageDailyFlights": 0.14, "operators": [{"name": "VTM"}]}, {"destination": {"icao": "KMQY", "iata": "MQY", "name": "Smyrna ", "shortName": "Smyrna", "municipalityName": "Smyrna", "location": {"lat": 36.009, "lon": -86.5201}, "countryCode": "US"}, "averageDailyFlights": 0.14, "operators": [{"name": "USA Jet Airlines", "iata": "UJ", "icao": "JUS"}]}, {"destination": {"icao": "KTOL", "iata": "TOL", "name": "Toledo Express", "shortName": "Express", "municipalityName": "Toledo", "location": {"lat": 41.5868, "lon": -83.8078}, "countryCode": "US"}, "averageDailyFlights": 0.14, "operators": [{"name": "VTM"}]}, {"destination": {"icao": "KVPS", "iata": "VPS", "name": "Valparaiso Eglin Air Force Base", "shortName": "Eglin Air Force Base", "municipalityName": "Valparaiso", "location": {"lat": 30.4832, "lon": -86.5254}, "countryCode": "US"}, "averageDailyFlights": 0.14, "operators": [{"name": "Allegiant Air", "iata": "G4", "icao": "AAY"}]}]}