{"routes": [{"destination": {"icao": "LPPD", "iata": "PDL", "name": "Ponta Delgada Jo\u00e3o Paulo II", "shortName": "Jo\u00e3o Paulo II", "municipalityName": "Ponta Delgada", "location": {"lat": 37.7412, "lon": -25.6979}, "countryCode": "PT"}, "averageDailyFlights": 8.57, "operators": [{"name": "SATA Air Acores", "iata": "SP", "icao": "SAT"}, {"name": "TUI Airlines Nederland (Netherlands)", "iata": "OR", "icao": "TFL"}]}, {"destination": {"icao": "LPPT", "iata": "LIS", "name": "Lisbon Portela", "shortName": "Portela", "municipalityName": "Lisbon", "location": {"lat": 38.7813, "lon": -9.135919}, "countryCode": "PT"}, "averageDailyFlights": 2.87, "operators": [{"name": "TAP Air Portugal", "iata": "TP", "icao": "TAP"}, {"name": "Ryanair", "iata": "FR", "icao": "RYR"}, {"name": "Azores Airlines", "iata": "S4", "icao": "RZO"}]}, {"destination": {"icao": "LPPI", "iata": "PIX", "name": "Pico Island Pico", "shortName": "Pico", "municipalityName": "Pico Island", "location": {"lat": 38.5543, "lon": -28.4413}, "countryCode": "PT"}, "averageDailyFlights": 2.86, "operators": [{"name": "SATA Air Acores", "iata": "SP", "icao": "SAT"}]}, {"destination": {"icao": "LPHR", "iata": "HOR", "name": "Horta ", "shortName": "Horta", "municipalityName": "Horta", "location": {"lat": 38.5199, "lon": -28.7159}, "countryCode": "PT"}, "averageDailyFlights": 2.57, "operators": [{"name": "SATA Air Acores", "iata": "SP", "icao": "SAT"}]}, {"destination": {"icao": "LPGR", "iata": "GRW", "name": "Santa Cruz da Graciosa Graciosa", "shortName": "Graciosa", "municipalityName": "Santa Cruz da Graciosa", "location": {"lat": 39.0922, "lon": -28.0298}, "countryCode": "PT"}, "averageDailyFlights": 2.57, "operators": [{"name": "SATA Air Acores", "iata": "SP", "icao": "SAT"}]}, {"destination": {"icao": "LPSJ", "iata": "SJZ", "name": "Velas S\u00e3o Jorge", "shortName": "S\u00e3o Jorge", "municipalityName": "Velas", "location": {"lat": 38.6655, "lon": -28.1758}, "countryCode": "PT"}, "averageDailyFlights": 2.29, "operators": [{"name": "SATA Air Acores", "iata": "SP", "icao": "SAT"}]}, {"destination": {"icao": "LPPR", "iata": "OPO", "name": "Porto Francisco de S\u00e1 Carneiro", "shortName": "Francisco de S\u00e1 Carneiro", "municipalityName": "Porto", "location": {"lat": 41.2481, "lon": -8.681389}, "countryCode": "PT"}, "averageDailyFlights": 1.0, "operators": [{"name": "Ryanair", "iata": "FR", "icao": "RYR"}, {"name": "Azores Airlines", "iata": "S4", "icao": "RZO"}]}, {"destination": {"icao": "LPFL", "iata": "FLW", "name": "Santa Cruz das Flores Flores", "shortName": "Flores", "municipalityName": "Santa Cruz das Flores", "location": {"lat": 39.4553, "lon": -31.1314}, "countryCode": "PT"}, "averageDailyFlights": 0.71, "operators": [{"name": "SATA Air Acores", "iata": "SP", "icao": "SAT"}]}, {"destination": {"icao": "KJFK", "iata": "JFK", "name": "New York John F Kennedy", "shortName": "John F Kennedy", "municipalityName": "New York", "location": {"lat": 40.6398, "lon": -73.7789}, "countryCode": "US"}, "averageDailyFlights": 0.29, "operators": [{"name": "Azores Airlines", "iata": "S4", "icao": "RZO"}]}, {"destination": {"icao": "CYYZ", "iata": "YYZ", "name": "Toronto Pearson", "shortName": "Pearson", "municipalityName": "Toronto", "location": {"lat": 43.6772, "lon": -79.6306}, "countryCode": "CA"}, "averageDailyFlights": 0.29, "operators": [{"name": "Azores Airlines", "iata": "S4", "icao": "RZO"}]}, {"destination": {"icao": "KBOS", "iata": "BOS", "name": "Boston General Edward Lawrence Logan", "shortName": "General Edward Lawrence Logan", "municipalityName": "Boston", "location": {"lat": 42.3643, "lon": -71.0052}, "countryCode": "US"}, "averageDailyFlights": 0.14, "operators": [{"name": "Azores Airlines", "iata": "S4", "icao": "RZO"}]}, {"destination": {"icao": "CYUL", "iata": "YUL", "name": "Montreal Trudeau", "shortName": "Trudeau", "municipalityName": "Montreal", "location": {"lat": 45.4706, "lon": -73.7408}, "countryCode": "CA"}, "averageDailyFlights": 0.14, "operators": [{"name": "Azores Airlines", "iata": "S4", "icao": "RZO"}]}, {"destination": {"icao": "KOAK", "iata": "OAK", "name": "Oakland Metropolitan", "shortName": "Metropolitan", "municipalityName": "Oakland", "location": {"lat": 37.7213, "lon": -122.221}, "countryCode": "US"}, "averageDailyFlights": 0.14, "operators": [{"name": "Azores Airlines", "iata": "S4", "icao": "RZO"}]}]}