{"routes": [{"destination": {"icao": "LTFJ", "iata": "SAW", "name": "Istanbul Sabiha G\u00f6k\u00e7en", "shortName": "Sabiha G\u00f6k\u00e7en", "municipalityName": "Istanbul", "location": {"lat": 40.8986, "lon": 29.3092}, "countryCode": "TR"}, "averageDailyFlights": 14.71, "operators": [{"name": "Turkish Airlines", "iata": "TK", "icao": "THY"}, {"name": "Pegasus", "iata": "PC", "icao": "PGT"}]}, {"destination": {"icao": "LTAC", "iata": "ESB", "name": "Ankara Esenbo\u011fa", "shortName": "Esenbo\u011fa", "municipalityName": "Ankara", "location": {"lat": 40.1281, "lon": 32.9951}, "countryCode": "TR"}, "averageDailyFlights": 6.0, "operators": [{"name": "Pegasus", "iata": "PC", "icao": "PGT"}, {"name": "Turkish Airlines", "iata": "TK", "icao": "THY"}]}, {"destination": {"icao": "UUWW", "iata": "VKO", "localCode": "\u0412\u041d\u041a", "name": "Moscow Vnukovo", "shortName": "Vnukovo", "municipalityName": "Moscow", "location": {"lat": 55.5915, "lon": 37.2615}, "countryCode": "RU"}, "averageDailyFlights": 3.86, "operators": [{"name": "AZUR Air", "iata": "ZF", "icao": "KTK"}, {"name": "Pegasus", "iata": "PC", "icao": "PGT"}, {"name": "Pobeda", "iata": "DP", "icao": "PBD"}, {"name": "Turkish Airlines", "iata": "TK", "icao": "THY"}]}, {"destination": {"icao": "UUEE", "iata": "SVO", "localCode": "\u0428\u0420\u041c", "name": "Moscow Sheremetyevo", "shortName": "Sheremetyevo", "municipalityName": "Moscow", "location": {"lat": 55.9726, "lon": 37.4146}, "countryCode": "RU"}, "averageDailyFlights": 1.71, "operators": [{"name": "Aeroflot", "iata": "SU", "icao": "AFL"}]}, {"destination": {"icao": "EGCC", "iata": "MAN", "name": "Manchester ", "shortName": "Manchester", "municipalityName": "Manchester", "location": {"lat": 53.3537, "lon": -2.27495}, "countryCode": "GB"}, "averageDailyFlights": 1.57, "operators": [{"name": "Jet2", "iata": "LS", "icao": "EXS"}, {"name": "TUI Airways", "iata": "BY", "icao": "TOM"}]}, {"destination": {"icao": "EPWA", "iata": "WAW", "name": "Warsaw Chopin", "shortName": "Chopin", "municipalityName": "Warsaw", "location": {"lat": 52.1657, "lon": 20.9671}, "countryCode": "PL"}, "averageDailyFlights": 1.57, "operators": [{"name": "Smartwings Poland", "iata": "3Z", "icao": "TVP"}, {"name": "Buzz (Ryanair Sun)", "iata": "RR", "icao": "RYS"}, {"name": "LOT - Polish Airlines", "iata": "LO", "icao": "LOT"}, {"name": "Enter Air", "iata": "E4", "icao": "ENT"}]}, {"destination": {"icao": "EBBR", "iata": "BRU", "name": "Brussels ", "shortName": "Brussels", "municipalityName": "Brussels", "location": {"lat": 50.9014, "lon": 4.484439}, "countryCode": "BE"}, "averageDailyFlights": 1.29, "operators": [{"name": "TUI Airlines Belgium", "iata": "TB", "icao": "JAF"}, {"name": "Freebird Airlines", "iata": "FH", "icao": "FHY"}, {"name": "Brussels Airlines", "iata": "SN", "icao": "BEL"}, {"name": "Corendon Air", "iata": "XC", "icao": "CAI"}]}, {"destination": {"icao": "EPKT", "iata": "KTW", "name": "Katowice ", "shortName": "Katowice", "municipalityName": "Katowice", "location": {"lat": 50.4743, "lon": 19.08}, "countryCode": "PL"}, "averageDailyFlights": 1.29, "operators": [{"name": "Enter Air", "iata": "E4", "icao": "ENT"}, {"name": "LOT - Polish Airlines", "iata": "LO", "icao": "LOT"}, {"name": "Buzz (Ryanair Sun)", "iata": "RR", "icao": "RYS"}, {"name": "Smartwings Poland", "iata": "3Z", "icao": "TVP"}]}, {"destination": {"icao": "LTAF", "iata": "ADA", "name": "Adana ", "shortName": "Adana", "municipalityName": "Adana", "location": {"lat": 36.9822, "lon": 35.2804}, "countryCode": "TR"}, "averageDailyFlights": 1.14, "operators": [{"name": "Pegasus", "iata": "PC", "icao": "PGT"}]}, {"destination": {"icao": "UBBB", "iata": "GYD", "localCode": "\u0411\u0410\u041a", "name": "Baku Heydar Aliyev", "shortName": "Heydar Aliyev", "municipalityName": "Baku", "location": {"lat": 40.4675, "lon": 50.0467}, "countryCode": "AZ"}, "averageDailyFlights": 1.14, "operators": [{"name": "AZAL Azerbaijan Airlines", "iata": "J2", "icao": "AHY"}]}, {"destination": {"icao": "OMDB", "iata": "DXB", "name": "Dubai ", "shortName": "Dubai", "municipalityName": "Dubai", "location": {"lat": 25.252798, "lon": 55.3644}, "countryCode": "AE"}, "averageDailyFlights": 1.14, "operators": [{"name": "flydubai", "iata": "FZ", "icao": "FDB"}]}, {"destination": {"icao": "OERK", "iata": "RUH", "name": "Riyadh King Khaled", "shortName": "King Khaled", "municipalityName": "Riyadh", "location": {"lat": 24.9576, "lon": 46.6988}, "countryCode": "SA"}, "averageDailyFlights": 1.14, "operators": [{"name": "flyadeal", "iata": "F3", "icao": "FAD"}, {"name": "flynas", "iata": "XY", "icao": "KNE"}]}, {"destination": {"icao": "UAAA", "iata": "ALA", "localCode": "\u0410\u041b\u0410", "name": "Almaty ", "shortName": "Almaty", "municipalityName": "Almaty", "location": {"lat": 43.3521, "lon": 77.0405}, "countryCode": "KZ"}, "averageDailyFlights": 1.0, "operators": [{"name": "Air Astana", "iata": "KC", "icao": "KZR"}, {"name": "Turkish Airlines", "iata": "TK", "icao": "THY"}]}, {"destination": {"icao": "OKBK", "iata": "KWI", "name": "Kuwait City Kuwait", "shortName": "Kuwait", "municipalityName": "Kuwait City", "location": {"lat": 29.2266, "lon": 47.9689}, "countryCode": "KW"}, "averageDailyFlights": 1.0, "operators": [{"name": "Kuwait Airways", "iata": "KU", "icao": "KAC"}, {"name": "Jazeera Airways", "iata": "J9", "icao": "JZR"}]}, {"destination": {"icao": "OLBA", "iata": "BEY", "name": "Beirut Rafic Hariri", "shortName": "Rafic Hariri", "municipalityName": "Beirut", "location": {"lat": 33.8209, "lon": 35.4884}, "countryCode": "LB"}, "averageDailyFlights": 0.86, "operators": [{"name": "Turkish Airlines", "iata": "TK", "icao": "THY"}]}, {"destination": {"icao": "LYBE", "iata": "BEG", "name": "Belgrade Nikola Tesla", "shortName": "Nikola Tesla", "municipalityName": "Belgrade", "location": {"lat": 44.8184, "lon": 20.3091}, "countryCode": "RS"}, "averageDailyFlights": 0.86, "operators": [{"name": "Air Serbia", "iata": "JU", "icao": "ASL"}]}, {"destination": {"icao": "EGBB", "iata": "BHX", "name": "Birmingham ", "shortName": "Birmingham", "municipalityName": "Birmingham", "location": {"lat": 52.4539, "lon": -1.748029}, "countryCode": "GB"}, "averageDailyFlights": 0.86, "operators": [{"name": "Jet2", "iata": "LS", "icao": "EXS"}, {"name": "TUI Airways", "iata": "BY", "icao": "TOM"}]}, {"destination": {"icao": "EDDF", "iata": "FRA", "name": "Frankfurt-am-Main ", "shortName": "Frankfurt-am-Main", "municipalityName": "Frankfurt-am-Main", "location": {"lat": 50.0264, "lon": 8.543129}, "countryCode": "DE"}, "averageDailyFlights": 0.86, "operators": [{"name": "Eurowings Discover", "iata": "4Y", "icao": "OCN"}, {"name": "Sun Express", "iata": "XQ", "icao": "SXS"}]}, {"destination": {"icao": "LKPR", "iata": "PRG", "name": "Prague Ruzyn\u011b", "shortName": "Ruzyn\u011b", "municipalityName": "Prague", "location": {"lat": 50.1008, "lon": 14.26}, "countryCode": "CZ"}, "averageDailyFlights": 0.86, "operators": [{"name": "SmartWings", "iata": "QS", "icao": "TVS"}]}, {"destination": {"icao": "EDDK", "iata": "CGN", "name": "Cologne Bonn", "shortName": "Bonn", "municipalityName": "Cologne", "location": {"lat": 50.8659, "lon": 7.142739}, "countryCode": "DE"}, "averageDailyFlights": 0.71, "operators": [{"name": "Sun Express", "iata": "XQ", "icao": "SXS"}, {"name": "Pegasus", "iata": "PC", "icao": "PGT"}]}, {"destination": {"icao": "OTHH", "iata": "DOH", "name": "Doha Hamad", "shortName": "Hamad", "municipalityName": "Doha", "location": {"lat": 25.273056, "lon": 51.608055}, "countryCode": "QA"}, "averageDailyFlights": 0.71, "operators": [{"name": "Qatar Airways", "iata": "QR", "icao": "QTR"}]}, {"destination": {"icao": "EGSS", "iata": "STN", "name": "London Stansted", "shortName": "Stansted", "municipalityName": "London", "location": {"lat": 51.885, "lon": 0.234999}, "countryCode": "GB"}, "averageDailyFlights": 0.71, "operators": [{"name": "Jet2", "iata": "LS", "icao": "EXS"}]}, {"destination": {"icao": "EGKK", "iata": "LGW", "name": "London Gatwick", "shortName": "Gatwick", "municipalityName": "London", "location": {"lat": 51.1481, "lon": -0.190277}, "countryCode": "GB"}, "averageDailyFlights": 0.71, "operators": [{"name": "TUI Airways", "iata": "BY", "icao": "TOM"}, {"name": "Turkish Airlines", "iata": "TK", "icao": "THY"}]}, {"destination": {"icao": "EPPO", "iata": "POZ", "name": "Pozna\u0144 -\u0141awica", "shortName": "-\u0141awica", "municipalityName": "Pozna\u0144", "location": {"lat": 52.421, "lon": 16.8263}, "countryCode": "PL"}, "averageDailyFlights": 0.71, "operators": [{"name": "LOT - Polish Airlines", "iata": "LO", "icao": "LOT"}, {"name": "Enter Air", "iata": "E4", "icao": "ENT"}, {"name": "Buzz (Ryanair Sun)", "iata": "RR", "icao": "RYS"}, {"name": "Smartwings Poland", "iata": "3Z", "icao": "TVP"}]}, {"destination": {"icao": "LLBG", "iata": "TLV", "name": "Tel Aviv Yafo Ben Gurion", "shortName": "Ben Gurion", "municipalityName": "Tel Aviv Yafo", "location": {"lat": 32.0114, "lon": 34.8867}, "countryCode": "IL"}, "averageDailyFlights": 0.71, "operators": [{"name": "Pegasus", "iata": "PC", "icao": "PGT"}, {"name": "Corendon Air", "iata": "XC", "icao": "CAI"}]}, {"destination": {"icao": "EPWR", "iata": "WRO", "name": "Wroc\u0142aw Copernicus", "shortName": "Copernicus", "municipalityName": "Wroc\u0142aw", "location": {"lat": 51.1027, "lon": 16.8858}, "countryCode": "PL"}, "averageDailyFlights": 0.71, "operators": [{"name": "LOT - Polish Airlines", "iata": "LO", "icao": "LOT"}, {"name": "Smartwings Poland", "iata": "3Z", "icao": "TVP"}, {"name": "Enter Air", "iata": "E4", "icao": "ENT"}]}, {"destination": {"icao": "EHAM", "iata": "AMS", "name": "Amsterdam Schiphol", "shortName": "Schiphol", "municipalityName": "Amsterdam", "location": {"lat": 52.3086, "lon": 4.763889}, "countryCode": "NL"}, "averageDailyFlights": 0.57, "operators": [{"name": "Transavia", "iata": "HV", "icao": "TRA"}, {"name": "TUI Airlines Nederland (Netherlands)", "iata": "OR", "icao": "TFL"}]}, {"destination": {"icao": "LTAI", "iata": "AYT", "name": "Antalya ", "shortName": "Antalya", "municipalityName": "Antalya", "location": {"lat": 36.8987, "lon": 30.8005}, "countryCode": "TR"}, "averageDailyFlights": 0.57, "operators": [{"name": "Freebird Airlines", "iata": "FH", "icao": "FHY"}, {"name": "TUI Airlines Nederland (Netherlands)", "iata": "OR", "icao": "TFL"}]}, {"destination": {"icao": "EGGD", "iata": "BRS", "name": "Bristol ", "shortName": "Bristol", "municipalityName": "Bristol", "location": {"lat": 51.3827, "lon": -2.719089}, "countryCode": "GB"}, "averageDailyFlights": 0.57, "operators": [{"name": "Jet2", "iata": "LS", "icao": "EXS"}, {"name": "easyJet", "iata": "U2", "icao": "EZY"}]}, {"destination": {"icao": "EDDL", "iata": "DUS", "name": "Duesseldorf D\u00fcsseldorf", "shortName": "D\u00fcsseldorf", "municipalityName": "Duesseldorf", "location": {"lat": 51.2895, "lon": 6.766779}, "countryCode": "DE"}, "averageDailyFlights": 0.57, "operators": [{"name": "Sun Express", "iata": "XQ", "icao": "SXS"}]}, {"destination": {"icao": "EDDV", "iata": "HAJ", "name": "Hanover Hannover", "shortName": "Hannover", "municipalityName": "Hanover", "location": {"lat": 52.4611, "lon": 9.685079}, "countryCode": "DE"}, "averageDailyFlights": 0.57, "operators": [{"name": "Pegasus", "iata": "PC", "icao": "PGT"}, {"name": "Sun Express", "iata": "XQ", "icao": "SXS"}]}, {"destination": {"icao": "EGGW", "iata": "LTN", "name": "London Luton", "shortName": "Luton", "municipalityName": "London", "location": {"lat": 51.8747, "lon": -0.368333}, "countryCode": "GB"}, "averageDailyFlights": 0.57, "operators": [{"name": "easyJet", "iata": "U2", "icao": "EZY"}]}, {"destination": {"icao": "EDDM", "iata": "MUC", "name": "Munich ", "shortName": "Munich", "municipalityName": "Munich", "location": {"lat": 48.3538, "lon": 11.7861}, "countryCode": "DE"}, "averageDailyFlights": 0.57, "operators": [{"name": "Sun Express", "iata": "XQ", "icao": "SXS"}, {"name": "Lufthansa", "iata": "LH", "icao": "DLH"}]}, {"destination": {"icao": "LATI", "iata": "TIA", "name": "Tirana Mother Teresa", "shortName": "Mother Teresa", "municipalityName": "Tirana", "location": {"lat": 41.4147, "lon": 19.7206}, "countryCode": "AL"}, "averageDailyFlights": 0.57, "operators": [{"name": "Freebird Airlines", "iata": "FH", "icao": "FHY"}, {"name": "Air albania"}, {"name": "Turkish Airlines", "iata": "TK", "icao": "THY"}]}, {"destination": {"icao": "LSZH", "iata": "ZRH", "name": "Zurich Kloten", "shortName": "Kloten", "municipalityName": "Zurich", "location": {"lat": 47.4647, "lon": 8.549169}, "countryCode": "CH"}, "averageDailyFlights": 0.57, "operators": [{"name": "Edelweiss Air", "iata": "WK", "icao": "EDW"}]}, {"destination": {"icao": "UACC", "iata": "NQZ", "name": "Astana Nursultan Nazarbayev", "shortName": "Nursultan Nazarbayev", "municipalityName": "Astana", "location": {"lat": 51.0222, "lon": 71.4669}, "countryCode": "KZ"}, "averageDailyFlights": 0.43, "operators": [{"name": "Air Astana", "iata": "KC", "icao": "KZR"}, {"name": "Turkish Airlines", "iata": "TK", "icao": "THY"}]}, {"destination": {"icao": "EKBI", "iata": "BLL", "name": "Billund ", "shortName": "Billund", "municipalityName": "Billund", "location": {"lat": 55.7403, "lon": 9.15178}, "countryCode": "DK"}, "averageDailyFlights": 0.43, "operators": [{"name": "Freebird Airlines", "iata": "FH", "icao": "FHY"}]}, {"destination": {"icao": "LROP", "iata": "OTP", "name": "Bucharest Henri Coand\u0103", "shortName": "Henri Coand\u0103", "municipalityName": "Bucharest", "location": {"lat": 44.5722, "lon": 26.1022}, "countryCode": "RO"}, "averageDailyFlights": 0.43, "operators": [{"name": "TAROM", "iata": "RO", "icao": "ROT"}, {"name": "Island Hoppers", "iata": "H4"}]}, {"destination": {"icao": "LUKK", "iata": "KIV", "localCode": "\u041a\u0428\u041d", "name": "Chi\u015fin\u0103u ", "shortName": "Chi\u015fin\u0103u", "municipalityName": "Chi\u015fin\u0103u", "location": {"lat": 46.9277, "lon": 28.931}, "countryCode": "MD"}, "averageDailyFlights": 0.43, "operators": [{"name": "FlyOne", "iata": "5F", "icao": "FIA"}]}, {"destination": {"icao": "EGPH", "iata": "EDI", "name": "Edinburgh ", "shortName": "Edinburgh", "municipalityName": "Edinburgh", "location": {"lat": 55.95, "lon": -3.372499}, "countryCode": "GB"}, "averageDailyFlights": 0.43, "operators": [{"name": "easyJet", "iata": "U2", "icao": "EZY"}, {"name": "Jet2", "iata": "LS", "icao": "EXS"}]}, {"destination": {"icao": "EPGD", "iata": "GDN", "name": "Gda\u0144sk Lech Wa\u0142\u0119sa", "shortName": "Lech Wa\u0142\u0119sa", "municipalityName": "Gda\u0144sk", "location": {"lat": 54.3776, "lon": 18.4662}, "countryCode": "PL"}, "averageDailyFlights": 0.43, "operators": [{"name": "Pegasus", "iata": "PC", "icao": "PGT"}]}, {"destination": {"icao": "LTBJ", "iata": "ADB", "name": "\u0130zmir Adnan Menderes", "shortName": "Adnan Menderes", "municipalityName": "\u0130zmir", "location": {"lat": 38.2924, "lon": 27.157}, "countryCode": "TR"}, "averageDailyFlights": 0.43, "operators": [{"name": "Sun Express", "iata": "XQ", "icao": "SXS"}, {"name": "Freebird Airlines", "iata": "FH", "icao": "FHY"}]}, {"destination": {"icao": "UWKD", "iata": "KZN", "name": "Kazan ", "shortName": "Kazan", "municipalityName": "Kazan", "location": {"lat": 55.6062, "lon": 49.2787}, "countryCode": "RU"}, "averageDailyFlights": 0.43, "operators": [{"name": "Turkish Airlines", "iata": "TK", "icao": "THY"}]}, {"destination": {"icao": "EGNM", "iata": "LBA", "name": "Leeds Bradford", "shortName": "Bradford", "municipalityName": "Leeds", "location": {"lat": 53.8659, "lon": -1.66057}, "countryCode": "GB"}, "averageDailyFlights": 0.43, "operators": [{"name": "Jet2", "iata": "LS", "icao": "EXS"}]}, {"destination": {"icao": "EGNX", "iata": "EMA", "name": "Nottingham East Midlands", "shortName": "East Midlands", "municipalityName": "Nottingham", "location": {"lat": 52.8311, "lon": -1.32806}, "countryCode": "GB"}, "averageDailyFlights": 0.43, "operators": [{"name": "Jet2", "iata": "LS", "icao": "EXS"}]}, {"destination": {"icao": "LFPO", "iata": "ORY", "name": "Paris -Orly", "shortName": "-Orly", "municipalityName": "Paris", "location": {"lat": 48.7253, "lon": 2.35944}, "countryCode": "FR"}, "averageDailyFlights": 0.43, "operators": [{"name": "Transavia France", "iata": "TO", "icao": "TVF"}]}, {"destination": {"icao": "ULLI", "iata": "LED", "localCode": "\u041f\u041b\u041a", "name": "Saint-Petersburg Pulkovo", "shortName": "Pulkovo", "municipalityName": "Saint-Petersburg", "location": {"lat": 59.8003, "lon": 30.2625}, "countryCode": "RU"}, "averageDailyFlights": 0.43, "operators": [{"name": "Turkish Airlines", "iata": "TK", "icao": "THY"}]}, {"destination": {"icao": "LWSK", "iata": "SKP", "name": "Skopje Alexander the Great", "shortName": "Alexander the Great", "municipalityName": "Skopje", "location": {"lat": 41.9616, "lon": 21.6214}, "countryCode": "MK"}, "averageDailyFlights": 0.43, "operators": [{"name": "Turkish Airlines", "iata": "TK", "icao": "THY"}]}, {"destination": {"icao": "EDDB", "iata": "BER", "name": "Berlin Brandenburg", "shortName": "Brandenburg", "municipalityName": "Berlin", "location": {"lat": 52.35139, "lon": 13.493889}, "countryCode": "DE"}, "averageDailyFlights": 0.29, "operators": [{"name": "Sun Express", "iata": "XQ", "icao": "SXS"}]}, {"destination": {"icao": "EKCH", "iata": "CPH", "name": "Copenhagen Kastrup", "shortName": "Kastrup", "municipalityName": "Copenhagen", "location": {"lat": 55.6179, "lon": 12.656}, "countryCode": "DK"}, "averageDailyFlights": 0.29, "operators": [{"name": "SAS", "iata": "SK", "icao": "SAS"}, {"name": "Freebird Airlines", "iata": "FH", "icao": "FHY"}]}, {"destination": {"icao": "EIDW", "iata": "DUB", "name": "Dublin ", "shortName": "Dublin", "municipalityName": "Dublin", "location": {"lat": 53.4213, "lon": -6.27007}, "countryCode": "IE"}, "averageDailyFlights": 0.29, "operators": [{"name": "Ryanair", "iata": "FR", "icao": "RYR"}]}, {"destination": {"icao": "OEJN", "iata": "JED", "name": "Jeddah King Abdulaziz", "shortName": "King Abdulaziz", "municipalityName": "Jeddah", "location": {"lat": 21.6796, "lon": 39.1565}, "countryCode": "SA"}, "averageDailyFlights": 0.29, "operators": [{"name": "flynas", "iata": "XY", "icao": "KNE"}]}, {"destination": {"icao": "EGGP", "iata": "LPL", "name": "Liverpool John Lennon", "shortName": "John Lennon", "municipalityName": "Liverpool", "location": {"lat": 53.3336, "lon": -2.84972}, "countryCode": "GB"}, "averageDailyFlights": 0.29, "operators": [{"name": "easyJet", "iata": "U2", "icao": "EZY"}]}, {"destination": {"icao": "EGLL", "iata": "LHR", "name": "London Heathrow", "shortName": "Heathrow", "municipalityName": "London", "location": {"lat": 51.4706, "lon": -0.461941}, "countryCode": "GB"}, "averageDailyFlights": 0.29, "operators": [{"name": "British Airways", "iata": "BA", "icao": "BAW"}]}, {"destination": {"icao": "OBBI", "iata": "BAH", "name": "Manama Bahrain", "shortName": "Bahrain", "municipalityName": "Manama", "location": {"lat": 26.2708, "lon": 50.6336}, "countryCode": "BH"}, "averageDailyFlights": 0.29, "operators": [{"name": "Gulf Air", "iata": "GF", "icao": "GFA"}]}, {"destination": {"icao": "LIMC", "iata": "MXP", "name": "Milan Malpensa", "shortName": "Malpensa", "municipalityName": "Milan", "location": {"lat": 45.6306, "lon": 8.72811}, "countryCode": "IT"}, "averageDailyFlights": 0.29, "operators": [{"name": "Freebird Airlines", "iata": "FH", "icao": "FHY"}]}, {"destination": {"icao": "EGNT", "iata": "NCL", "name": "Newcastle upon Tyne Newcastle", "shortName": "Newcastle", "municipalityName": "Newcastle upon Tyne", "location": {"lat": 55.0375, "lon": -1.691669}, "countryCode": "GB"}, "averageDailyFlights": 0.29, "operators": [{"name": "Jet2", "iata": "LS", "icao": "EXS"}]}, {"destination": {"icao": "LCEN", "iata": "ECN", "name": "Nicosia Ercan", "shortName": "Ercan", "municipalityName": "Nicosia", "location": {"lat": 35.1547, "lon": 33.4961}, "countryCode": "CY"}, "averageDailyFlights": 0.29, "operators": [{"name": "Freebird Airlines", "iata": "FH", "icao": "FHY"}]}, {"destination": {"icao": "BKPR", "iata": "PRN", "name": "Prishtina Pri\u0161tina", "shortName": "Pri\u0161tina", "municipalityName": "Prishtina", "location": {"lat": 42.5728, "lon": 21.0358}, "countryCode": "KS"}, "averageDailyFlights": 0.29, "operators": [{"name": "Turkish Airlines", "iata": "TK", "icao": "THY"}]}, {"destination": {"icao": "LQSA", "iata": "SJJ", "name": "Sarajevo ", "shortName": "Sarajevo", "municipalityName": "Sarajevo", "location": {"lat": 43.8246, "lon": 18.3315}, "countryCode": "BA"}, "averageDailyFlights": 0.29, "operators": [{"name": "Turkish Airlines", "iata": "TK", "icao": "THY"}]}, {"destination": {"icao": "EDDS", "iata": "STR", "name": "Stuttgart ", "shortName": "Stuttgart", "municipalityName": "Stuttgart", "location": {"lat": 48.6899, "lon": 9.22196}, "countryCode": "DE"}, "averageDailyFlights": 0.29, "operators": [{"name": "Sun Express", "iata": "XQ", "icao": "SXS"}]}, {"destination": {"icao": "LIPX", "iata": "VRN", "name": "Verona Villafranca", "shortName": "Villafranca", "municipalityName": "Verona", "location": {"lat": 45.3957, "lon": 10.8885}, "countryCode": "IT"}, "averageDailyFlights": 0.29, "operators": [{"name": "Freebird Airlines", "iata": "FH", "icao": "FHY"}]}, {"destination": {"icao": "OJAI", "iata": "AMM", "name": "Amman Queen Alia", "shortName": "Queen Alia", "municipalityName": "Amman", "location": {"lat": 31.7226, "lon": 35.9932}, "countryCode": "JO"}, "averageDailyFlights": 0.14, "operators": [{"name": "Royal Jordanian", "iata": "RJ", "icao": "RJA"}]}, {"destination": {"icao": "LIBD", "iata": "BRI", "name": "Bari Karol Wojty\u0142a", "shortName": "Karol Wojty\u0142a", "municipalityName": "Bari", "location": {"lat": 41.1389, "lon": 16.7606}, "countryCode": "IT"}, "averageDailyFlights": 0.14, "operators": [{"name": "Freebird Airlines", "iata": "FH", "icao": "FHY"}]}, {"destination": {"icao": "LKTB", "iata": "BRQ", "name": "Brno -Tu\u0159any", "shortName": "-Tu\u0159any", "municipalityName": "Brno", "location": {"lat": 49.1513, "lon": 16.6944}, "countryCode": "CZ"}, "averageDailyFlights": 0.14, "operators": [{"name": "SmartWings", "iata": "QS", "icao": "TVS"}]}, {"destination": {"icao": "GMMN", "iata": "CMN", "name": "Casablanca Mohammed V", "shortName": "Mohammed V", "municipalityName": "Casablanca", "location": {"lat": 33.3675, "lon": -7.58997}, "countryCode": "MA"}, "averageDailyFlights": 0.14, "operators": [{"name": "Royal Air Maroc", "iata": "AT", "icao": "RAM"}]}, {"destination": {"icao": "EGPF", "iata": "GLA", "name": "Glasgow ", "shortName": "Glasgow", "municipalityName": "Glasgow", "location": {"lat": 55.8719, "lon": -4.43306}, "countryCode": "GB"}, "averageDailyFlights": 0.14, "operators": [{"name": "Jet2", "iata": "LS", "icao": "EXS"}]}, {"destination": {"icao": "UMMS", "iata": "MSQ", "localCode": "\u041c\u0418\u041a", "name": "Minsk National", "shortName": "National", "municipalityName": "Minsk", "location": {"lat": 53.8825, "lon": 28.0307}, "countryCode": "BY"}, "averageDailyFlights": 0.14, "operators": [{"name": "Belavia", "iata": "B2", "icao": "BRU"}]}, {"destination": {"icao": "LIRN", "iata": "NAP", "name": "N\u00e1poli Naples", "shortName": "Naples", "municipalityName": "N\u00e1poli", "location": {"lat": 40.886, "lon": 14.2908}, "countryCode": "IT"}, "averageDailyFlights": 0.14, "operators": [{"name": "Turkish Airlines", "iata": "TK", "icao": "THY"}]}, {"destination": {"icao": "EPRZ", "iata": "RZE", "name": "Rzesz\u00f3w -Jasionka", "shortName": "-Jasionka", "municipalityName": "Rzesz\u00f3w", "location": {"lat": 50.11, "lon": 22.019}, "countryCode": "PL"}, "averageDailyFlights": 0.14, "operators": [{"name": "Pegasus", "iata": "PC", "icao": "PGT"}]}, {"destination": {"icao": "LBSF", "iata": "SOF", "name": "Sofia ", "shortName": "Sofia", "municipalityName": "Sofia", "location": {"lat": 42.696693, "lon": 23.411436}, "countryCode": "BG"}, "averageDailyFlights": 0.14, "operators": [{"name": "Bulgaria Air", "iata": "FB", "icao": "LZB"}]}, {"destination": {"icao": "ESSA", "iata": "ARN", "name": "Stockholm -Arlanda", "shortName": "-Arlanda", "municipalityName": "Stockholm", "location": {"lat": 59.6519, "lon": 17.9186}, "countryCode": "SE"}, "averageDailyFlights": 0.14, "operators": [{"name": "SAS", "iata": "SK", "icao": "SAS"}]}, {"destination": {"icao": "UTTT", "iata": "TAS", "localCode": "\u0422\u0410\u0421", "name": "Tashkent ", "shortName": "Tashkent", "municipalityName": "Tashkent", "location": {"lat": 41.2579, "lon": 69.2812}, "countryCode": "UZ"}, "averageDailyFlights": 0.14, "operators": [{"name": "Uzbekistan Airways", "iata": "HY", "icao": "UZB"}]}, {"destination": {"icao": "OIIE", "iata": "IKA", "name": "Tehran Imam Khomeini", "shortName": "Imam Khomeini", "municipalityName": "Tehran", "location": {"lat": 35.4161, "lon": 51.1522}, "countryCode": "IR"}, "averageDailyFlights": 0.14, "operators": [{"name": "Iran Airtour", "iata": "B9", "icao": "IRB"}]}, {"destination": {"icao": "DTTA", "iata": "TUN", "name": "Tunis Carthage", "shortName": "Carthage", "municipalityName": "Tunis", "location": {"lat": 36.851, "lon": 10.227199}, "countryCode": "TN"}, "averageDailyFlights": 0.14, "operators": [{"name": "Nouvelair Tunisie", "iata": "BJ", "icao": "LBT"}]}, {"destination": {"icao": "USTR", "iata": "TJM", "localCode": "\u0420\u0429\u041d", "name": "Tyumen Roshchino", "shortName": "Roshchino", "municipalityName": "Tyumen", "location": {"lat": 57.1896, "lon": 65.3243}, "countryCode": "RU"}, "averageDailyFlights": 0.14, "operators": [{"name": "UTAir", "iata": "UT", "icao": "UTA"}]}, {"destination": {"icao": "EYVI", "iata": "VNO", "localCode": "\u0412\u0418\u041b", "name": "Vilnius ", "shortName": "Vilnius", "municipalityName": "Vilnius", "location": {"lat": 54.6341, "lon": 25.2858}, "countryCode": "LT"}, "averageDailyFlights": 0.14, "operators": [{"name": "GetJet Airlines", "iata": "GW", "icao": "GJT"}]}]}