{"routes": [{"destination": {"icao": "MMMX", "iata": "MEX", "name": "Mexico City Licenciado Benito Juarez", "shortName": "Licenciado Benito Juarez", "municipalityName": "Mexico City", "location": {"lat": 19.4363, "lon": -99.0721}, "countryCode": "MX"}, "averageDailyFlights": 39.57, "operators": [{"name": "Aeromexico", "iata": "AM", "icao": "AMX"}, {"name": "VivaAerobus", "iata": "VB", "icao": "VIV"}, {"name": "Volaris", "iata": "Y4", "icao": "VOI"}]}, {"destination": {"icao": "MMMY", "iata": "MTY", "name": "Monterrey General Mariano Escobedo", "shortName": "General Mariano Escobedo", "municipalityName": "Monterrey", "location": {"lat": 25.7785, "lon": -100.107}, "countryCode": "MX"}, "averageDailyFlights": 19.71, "operators": [{"name": "VivaAerobus", "iata": "VB", "icao": "VIV"}, {"name": "Volaris", "iata": "Y4", "icao": "VOI"}]}, {"destination": {"icao": "KDFW", "iata": "DFW", "name": "Dallas-Fort Worth ", "shortName": "Dallas-Fort Worth", "municipalityName": "Dallas-Fort Worth", "location": {"lat": 32.8968, "lon": -97.038}, "countryCode": "US"}, "averageDailyFlights": 14.0, "operators": [{"name": "American Airlines", "iata": "AA", "icao": "AAL"}, {"name": "Spirit Airlines", "iata": "NK", "icao": "NKS"}, {"name": "Sun Country Airlines", "iata": "SY", "icao": "SCX"}, {"name": "Frontier Airlines", "iata": "F9", "icao": "FFT"}]}, {"destination": {"icao": "KIAH", "iata": "IAH", "name": "Houston George Bush", "shortName": "George Bush", "municipalityName": "Houston", "location": {"lat": 29.9844, "lon": -95.3414}, "countryCode": "US"}, "averageDailyFlights": 11.14, "operators": [{"name": "United Airlines", "iata": "UA", "icao": "UAL"}, {"name": "Spirit Airlines", "iata": "NK", "icao": "NKS"}, {"name": "Sun Country Airlines", "iata": "SY", "icao": "SCX"}, {"name": "Frontier Airlines", "iata": "F9", "icao": "FFT"}]}, {"destination": {"icao": "MMGL", "iata": "GDL", "name": "Guadalajara Don Miguel Hidalgo Y Costilla", "shortName": "Don Miguel Hidalgo Y Costilla", "municipalityName": "Guadalajara", "location": {"lat": 20.5218, "lon": -103.311}, "countryCode": "MX"}, "averageDailyFlights": 9.71, "operators": [{"name": "Volaris", "iata": "Y4", "icao": "VOI"}, {"name": "VivaAerobus", "iata": "VB", "icao": "VIV"}]}, {"destination": {"icao": "MUSC", "iata": "SNU", "name": "Santa Clara Abel Santamaria", "shortName": "Abel Santamaria", "municipalityName": "Santa Clara", "location": {"lat": 22.4922, "lon": -79.9436}, "countryCode": "CU"}, "averageDailyFlights": 8.06, "operators": [{"name": "VivaAerobus", "iata": "VB", "icao": "VIV"}, {"name": "Aeromexico", "iata": "AM", "icao": "AMX"}, {"name": "Volaris", "iata": "Y4", "icao": "VOI"}]}, {"destination": {"icao": "MPTO", "iata": "PTY", "name": "Tocumen ", "shortName": "Tocumen", "municipalityName": "Tocumen", "location": {"lat": 9.071359, "lon": -79.3835}, "countryCode": "PA"}, "averageDailyFlights": 8.0, "operators": [{"name": "Copa Airlines", "iata": "CM", "icao": "CMP"}]}, {"destination": {"icao": "KATL", "iata": "ATL", "name": "Atlanta Hartsfield Jackson", "shortName": "Hartsfield Jackson", "municipalityName": "Atlanta", "location": {"lat": 33.6367, "lon": -84.4281}, "countryCode": "US"}, "averageDailyFlights": 7.86, "operators": [{"name": "Delta Air Lines", "iata": "DL", "icao": "DAL"}, {"name": "Frontier Airlines", "iata": "F9", "icao": "FFT"}]}, {"destination": {"icao": "KORD", "iata": "ORD", "name": "Chicago O'Hare", "shortName": "O'Hare", "municipalityName": "Chicago", "location": {"lat": 41.9786, "lon": -87.9048}, "countryCode": "US"}, "averageDailyFlights": 7.86, "operators": [{"name": "American Airlines", "iata": "AA", "icao": "AAL"}, {"name": "Spirit Airlines", "iata": "NK", "icao": "NKS"}, {"name": "United Airlines", "iata": "UA", "icao": "UAL"}, {"name": "Frontier Airlines", "iata": "F9", "icao": "FFT"}, {"name": "Southwest Airlines", "iata": "WN", "icao": "SWA"}]}, {"destination": {"icao": "KDEN", "iata": "DEN", "name": "Denver ", "shortName": "Denver", "municipalityName": "Denver", "location": {"lat": 39.8617, "lon": -104.673}, "countryCode": "US"}, "averageDailyFlights": 6.86, "operators": [{"name": "Frontier Airlines", "iata": "F9", "icao": "FFT"}, {"name": "United Airlines", "iata": "UA", "icao": "UAL"}, {"name": "Southwest Airlines", "iata": "WN", "icao": "SWA"}]}, {"destination": {"icao": "CYYZ", "iata": "YYZ", "name": "Toronto Pearson", "shortName": "Pearson", "municipalityName": "Toronto", "location": {"lat": 43.6772, "lon": -79.6306}, "countryCode": "CA"}, "averageDailyFlights": 6.86, "operators": [{"name": "Sunwing", "iata": "WG", "icao": "SWG"}, {"name": "Air Transat", "iata": "TS", "icao": "TSC"}, {"name": "Air Canada", "iata": "AC", "icao": "ACA"}, {"name": "WestJet", "iata": "WS", "icao": "WJA"}, {"name": "Swoop", "iata": "WO", "icao": "WSW"}]}, {"destination": {"icao": "KLAX", "iata": "LAX", "name": "Los Angeles ", "shortName": "Los Angeles", "municipalityName": "Los Angeles", "location": {"lat": 33.9425, "lon": -118.408}, "countryCode": "US"}, "averageDailyFlights": 6.71, "operators": [{"name": "United Airlines", "iata": "UA", "icao": "UAL"}, {"name": "Alaska Airlines", "iata": "AS", "icao": "ASA"}, {"name": "Delta Air Lines", "iata": "DL", "icao": "DAL"}, {"name": "JetBlue Airways", "iata": "B6", "icao": "JBU"}]}, {"destination": {"icao": "KMIA", "iata": "MIA", "name": "Miami ", "shortName": "Miami", "municipalityName": "Miami", "location": {"lat": 25.7932, "lon": -80.2906}, "countryCode": "US"}, "averageDailyFlights": 6.71, "operators": [{"name": "American Airlines", "iata": "AA", "icao": "AAL"}, {"name": "Frontier Airlines", "iata": "F9", "icao": "FFT"}, {"name": "LATAM", "iata": "LA", "icao": "LAN"}]}, {"destination": {"icao": "KJFK", "iata": "JFK", "name": "New York John F Kennedy", "shortName": "John F Kennedy", "municipalityName": "New York", "location": {"lat": 40.6398, "lon": -73.7789}, "countryCode": "US"}, "averageDailyFlights": 6.43, "operators": [{"name": "American Airlines", "iata": "AA", "icao": "AAL"}, {"name": "JetBlue Airways", "iata": "B6", "icao": "JBU"}, {"name": "Delta Air Lines", "iata": "DL", "icao": "DAL"}]}, {"destination": {"icao": "SKBO", "iata": "BOG", "name": "Bogot\u00e1 El Dorado", "shortName": "El Dorado", "municipalityName": "Bogot\u00e1", "location": {"lat": 4.70159, "lon": -74.1469}, "countryCode": "CO"}, "averageDailyFlights": 6.29, "operators": [{"name": "Avianca", "iata": "AV", "icao": "AVA"}, {"name": "VivaAerobus", "iata": "VB", "icao": "VIV"}, {"name": "Volaris", "iata": "Y4", "icao": "VOI"}, {"name": "Copa Airlines Colombia", "iata": "P5", "icao": "RPB"}]}, {"destination": {"icao": "MMTJ", "iata": "TIJ", "name": "Tijuana General Abelardo L. Rodr\u00edguez", "shortName": "General Abelardo L. Rodr\u00edguez", "municipalityName": "Tijuana", "location": {"lat": 32.5411, "lon": -116.97}, "countryCode": "MX"}, "averageDailyFlights": 5.86, "operators": [{"name": "Volaris", "iata": "Y4", "icao": "VOI"}, {"name": "VivaAerobus", "iata": "VB", "icao": "VIV"}]}, {"destination": {"icao": "KEWR", "iata": "EWR", "name": "Newark Liberty", "shortName": "Liberty", "municipalityName": "Newark", "location": {"lat": 40.6925, "lon": -74.1687}, "countryCode": "US"}, "averageDailyFlights": 5.71, "operators": [{"name": "United Airlines", "iata": "UA", "icao": "UAL"}, {"name": "JetBlue Airways", "iata": "B6", "icao": "JBU"}]}, {"destination": {"icao": "KBWI", "iata": "BWI", "name": "Baltimore Washington  Thurgood Marshall", "shortName": "Washington  Thurgood Marshall", "municipalityName": "Baltimore", "location": {"lat": 39.1754, "lon": -76.6683}, "countryCode": "US"}, "averageDailyFlights": 5.43, "operators": [{"name": "Frontier Airlines", "iata": "F9", "icao": "FFT"}, {"name": "Spirit Airlines", "iata": "NK", "icao": "NKS"}, {"name": "Southwest Airlines", "iata": "WN", "icao": "SWA"}]}, {"destination": {"icao": "KFLL", "iata": "FLL", "name": "Fort Lauderdale Hollywood", "shortName": "Hollywood", "municipalityName": "Fort Lauderdale", "location": {"lat": 26.0726, "lon": -80.1527}, "countryCode": "US"}, "averageDailyFlights": 5.29, "operators": [{"name": "Spirit Airlines", "iata": "NK", "icao": "NKS"}, {"name": "JetBlue Airways", "iata": "B6", "icao": "JBU"}, {"name": "Southwest Airlines", "iata": "WN", "icao": "SWA"}]}, {"destination": {"icao": "SPJC", "iata": "LIM", "name": "Lima Jorge Ch\u00e1vez", "shortName": "Jorge Ch\u00e1vez", "municipalityName": "Lima", "location": {"lat": -12.0219, "lon": -77.1143}, "countryCode": "PE"}, "averageDailyFlights": 5.0, "operators": [{"name": "LATAM", "iata": "LA", "icao": "LAN"}, {"name": "Sky Airline", "iata": "H2", "icao": "SKU"}, {"name": "Volaris", "iata": "Y4", "icao": "VOI"}]}, {"destination": {"icao": "MMTO", "iata": "TLC", "name": "Toluca Licenciado Adolfo Lopez Mateos", "shortName": "Licenciado Adolfo Lopez Mateos", "municipalityName": "Toluca", "location": {"lat": 19.3371, "lon": -99.566}, "countryCode": "MX"}, "averageDailyFlights": 4.57, "operators": [{"name": "VivaAerobus", "iata": "VB", "icao": "VIV"}, {"name": "Volaris", "iata": "Y4", "icao": "VOI"}]}, {"destination": {"icao": "KCLT", "iata": "CLT", "name": "Charlotte Douglas", "shortName": "Douglas", "municipalityName": "Charlotte", "location": {"lat": 35.214, "lon": -80.9431}, "countryCode": "US"}, "averageDailyFlights": 4.43, "operators": [{"name": "American Airlines", "iata": "AA", "icao": "AAL"}, {"name": "VivaAerobus", "iata": "VB", "icao": "VIV"}]}, {"destination": {"icao": "KPHL", "iata": "PHL", "name": "Philadelphia ", "shortName": "Philadelphia", "municipalityName": "Philadelphia", "location": {"lat": 39.8719, "lon": -75.2411}, "countryCode": "US"}, "averageDailyFlights": 4.29, "operators": [{"name": "American Airlines", "iata": "AA", "icao": "AAL"}, {"name": "Frontier Airlines", "iata": "F9", "icao": "FFT"}, {"name": "Spirit Airlines", "iata": "NK", "icao": "NKS"}]}, {"destination": {"icao": "MMLO", "iata": "BJX", "name": "Silao Del Baj\u00edo", "shortName": "Del Baj\u00edo", "municipalityName": "Silao", "location": {"lat": 20.9935, "lon": -101.481}, "countryCode": "MX"}, "averageDailyFlights": 3.86, "operators": [{"name": "Volaris", "iata": "Y4", "icao": "VOI"}, {"name": "VivaAerobus", "iata": "VB", "icao": "VIV"}]}, {"destination": {"icao": "KMCO", "iata": "MCO", "name": "Orlando ", "shortName": "Orlando", "municipalityName": "Orlando", "location": {"lat": 28.4294, "lon": -81.309}, "countryCode": "US"}, "averageDailyFlights": 3.58, "operators": [{"name": "Frontier Airlines", "iata": "F9", "icao": "FFT"}, {"name": "Spirit Airlines", "iata": "NK", "icao": "NKS"}, {"name": "N2"}, {"name": "JetBlue Airways", "iata": "B6", "icao": "JBU"}]}, {"destination": {"icao": "KHOU", "iata": "HOU", "name": "Houston William P Hobby", "shortName": "William P Hobby", "municipalityName": "Houston", "location": {"lat": 29.6454, "lon": -95.2789}, "countryCode": "US"}, "averageDailyFlights": 3.57, "operators": [{"name": "Southwest Airlines", "iata": "WN", "icao": "SWA"}]}, {"destination": {"icao": "MMPB", "iata": "PBC", "name": "Puebla City Hermanos Serd\u00e1n", "shortName": "Hermanos Serd\u00e1n", "municipalityName": "Puebla City", "location": {"lat": 19.1581, "lon": -98.3714}, "countryCode": "MX"}, "averageDailyFlights": 3.57, "operators": [{"name": "Volaris", "iata": "Y4", "icao": "VOI"}, {"name": "VivaAerobus", "iata": "VB", "icao": "VIV"}]}, {"destination": {"icao": "KDTW", "iata": "DTW", "name": "Detroit Metropolitan Wayne County", "shortName": "Metropolitan Wayne County", "municipalityName": "Detroit", "location": {"lat": 42.2124, "lon": -83.3534}, "countryCode": "US"}, "averageDailyFlights": 3.43, "operators": [{"name": "Spirit Airlines", "iata": "NK", "icao": "NKS"}, {"name": "Delta Air Lines", "iata": "DL", "icao": "DAL"}]}, {"destination": {"icao": "CYUL", "iata": "YUL", "name": "Montreal Trudeau", "shortName": "Trudeau", "municipalityName": "Montreal", "location": {"lat": 45.4706, "lon": -73.7408}, "countryCode": "CA"}, "averageDailyFlights": 3.29, "operators": [{"name": "Air Transat", "iata": "TS", "icao": "TSC"}, {"name": "Air Canada", "iata": "AC", "icao": "ACA"}, {"name": "Sunwing", "iata": "WG", "icao": "SWG"}]}, {"destination": {"icao": "MMQT", "iata": "QRO", "name": "Quer\u00e9taro Intercontinental", "shortName": "Intercontinental", "municipalityName": "Quer\u00e9taro", "location": {"lat": 20.6173, "lon": -100.186}, "countryCode": "MX"}, "averageDailyFlights": 3.29, "operators": [{"name": "Volaris", "iata": "Y4", "icao": "VOI"}, {"name": "VivaAerobus", "iata": "VB", "icao": "VIV"}]}, {"destination": {"icao": "MROC", "iata": "SJO", "name": "San Jos\u00e9 Juan Santamaria", "shortName": "Juan Santamaria", "municipalityName": "San Jos\u00e9", "location": {"lat": 9.99386, "lon": -84.2088}, "countryCode": "CR"}, "averageDailyFlights": 3.0, "operators": [{"name": "Avianca", "iata": "AV", "icao": "AVA"}, {"name": "Volaris Costa Rica", "iata": "Q6", "icao": "VOC"}, {"name": "Volaris", "iata": "Y4", "icao": "VOI"}]}, {"destination": {"icao": "MMCS", "iata": "CJS", "name": "Ciudad Ju\u00e1rez Abraham Gonz\u00e1lez", "shortName": "Abraham Gonz\u00e1lez", "municipalityName": "Ciudad Ju\u00e1rez", "location": {"lat": 31.6361, "lon": -106.429}, "countryCode": "MX"}, "averageDailyFlights": 2.71, "operators": [{"name": "Volaris", "iata": "Y4", "icao": "VOI"}, {"name": "VivaAerobus", "iata": "VB", "icao": "VIV"}]}, {"destination": {"icao": "KAUS", "iata": "AUS", "name": "Austin Bergstrom", "shortName": "Bergstrom", "municipalityName": "Austin", "location": {"lat": 30.194498, "lon": -97.6699}, "countryCode": "US"}, "averageDailyFlights": 2.43, "operators": [{"name": "American Airlines", "iata": "AA", "icao": "AAL"}, {"name": "Sun Country Airlines", "iata": "SY", "icao": "SCX"}, {"name": "Southwest Airlines", "iata": "WN", "icao": "SWA"}]}, {"destination": {"icao": "KSTL", "iata": "STL", "name": "Saint Louis Lambert St Louis", "shortName": "Lambert St Louis", "municipalityName": "Saint Louis", "location": {"lat": 38.7487, "lon": -90.37}, "countryCode": "US"}, "averageDailyFlights": 2.43, "operators": [{"name": "Frontier Airlines", "iata": "F9", "icao": "FFT"}, {"name": "Southwest Airlines", "iata": "WN", "icao": "SWA"}]}, {"destination": {"icao": "KSFO", "iata": "SFO", "name": "San Francisco ", "shortName": "San Francisco", "municipalityName": "San Francisco", "location": {"lat": 37.619, "lon": -122.375}, "countryCode": "US"}, "averageDailyFlights": 2.43, "operators": [{"name": "United Airlines", "iata": "UA", "icao": "UAL"}, {"name": "Alaska Airlines", "iata": "AS", "icao": "ASA"}]}, {"destination": {"icao": "MMTG", "iata": "TGZ", "name": "Tuxtla Guti\u00e9rrez Angel Albino Corzo", "shortName": "Angel Albino Corzo", "municipalityName": "Tuxtla Guti\u00e9rrez", "location": {"lat": 16.5636, "lon": -93.0225}, "countryCode": "MX"}, "averageDailyFlights": 2.43, "operators": [{"name": "VivaAerobus", "iata": "VB", "icao": "VIV"}, {"name": "Volaris", "iata": "Y4", "icao": "VOI"}]}, {"destination": {"icao": "KIAD", "iata": "IAD", "name": "District of Columbia Washington Dulles", "shortName": "Washington Dulles", "municipalityName": "District of Columbia", "location": {"lat": 38.9445, "lon": -77.4558}, "countryCode": "US"}, "averageDailyFlights": 2.29, "operators": [{"name": "United Airlines", "iata": "UA", "icao": "UAL"}]}, {"destination": {"icao": "KPHX", "iata": "PHX", "name": "Phoenix Sky Harbor", "shortName": "Sky Harbor", "municipalityName": "Phoenix", "location": {"lat": 33.4343, "lon": -112.012}, "countryCode": "US"}, "averageDailyFlights": 2.29, "operators": [{"name": "Southwest Airlines", "iata": "WN", "icao": "SWA"}, {"name": "American Airlines", "iata": "AA", "icao": "AAL"}]}, {"destination": {"icao": "MMVR", "iata": "VER", "name": "Veracruz General Heriberto Jara", "shortName": "General Heriberto Jara", "municipalityName": "Veracruz", "location": {"lat": 19.1459, "lon": -96.1873}, "countryCode": "MX"}, "averageDailyFlights": 2.29, "operators": [{"name": "VivaAerobus", "iata": "VB", "icao": "VIV"}]}, {"destination": {"icao": "MZBZ", "iata": "BZE", "name": "Belize City Philip S. W. Goldson", "shortName": "Philip S. W. Goldson", "municipalityName": "Belize City", "location": {"lat": 17.5391, "lon": -88.3082}, "countryCode": "BZ"}, "averageDailyFlights": 2.14, "operators": [{"name": "Tropic Air", "iata": "9N", "icao": "TOS"}, {"name": "Maya Island Air", "iata": "2M", "icao": "MYD"}]}, {"destination": {"icao": "KBOS", "iata": "BOS", "name": "Boston General Edward Lawrence Logan", "shortName": "General Edward Lawrence Logan", "municipalityName": "Boston", "location": {"lat": 42.3643, "lon": -71.0052}, "countryCode": "US"}, "averageDailyFlights": 2.14, "operators": [{"name": "JetBlue Airways", "iata": "B6", "icao": "JBU"}, {"name": "Delta Air Lines", "iata": "DL", "icao": "DAL"}]}, {"destination": {"icao": "LEMD", "iata": "MAD", "name": "Madrid Adolfo Su\u00e1rez \u2013Barajas", "shortName": "Adolfo Su\u00e1rez \u2013Barajas", "municipalityName": "Madrid", "location": {"lat": 40.4936, "lon": -3.56676}, "countryCode": "ES"}, "averageDailyFlights": 2.14, "operators": [{"name": "Multiple Solutions Limited", "iata": "2W"}, {"name": "Evelop Airlines", "iata": "E9", "icao": "EVE"}, {"name": "Air Europa", "iata": "UX", "icao": "AEA"}]}, {"destination": {"icao": "KTPA", "iata": "TPA", "name": "Tampa ", "shortName": "Tampa", "municipalityName": "Tampa", "location": {"lat": 27.9755, "lon": -82.5332}, "countryCode": "US"}, "averageDailyFlights": 2.14, "operators": [{"name": "JetBlue Airways", "iata": "B6", "icao": "JBU"}, {"name": "Frontier Airlines", "iata": "F9", "icao": "FFT"}]}, {"destination": {"icao": "MMCU", "iata": "CUU", "name": "Chihuahua City General Roberto Fierro Villalobos", "shortName": "General Roberto Fierro Villalobos", "municipalityName": "Chihuahua City", "location": {"lat": 28.7029, "lon": -105.965}, "countryCode": "MX"}, "averageDailyFlights": 2.0, "operators": [{"name": "Volaris", "iata": "Y4", "icao": "VOI"}, {"name": "VivaAerobus", "iata": "VB", "icao": "VIV"}]}, {"destination": {"icao": "MUHA", "iata": "HAV", "name": "Havana Jos\u00e9 Mart\u00ed", "shortName": "Jos\u00e9 Mart\u00ed", "municipalityName": "Havana", "location": {"lat": 22.9892, "lon": -82.4091}, "countryCode": "CU"}, "averageDailyFlights": 2.0, "operators": [{"name": "VivaAerobus", "iata": "VB", "icao": "VIV"}, {"name": "Aerolineas Argentinas", "iata": "AR", "icao": "ARG"}]}, {"destination": {"icao": "MGGT", "iata": "GUA", "name": "Guatemala City La Aurora", "shortName": "La Aurora", "municipalityName": "Guatemala City", "location": {"lat": 14.583299, "lon": -90.5275}, "countryCode": "GT"}, "averageDailyFlights": 1.86, "operators": [{"name": "TAG", "iata": "5U", "icao": "TGU"}, {"name": "Volaris", "iata": "Y4", "icao": "VOI"}]}, {"destination": {"icao": "KSAT", "iata": "SAT", "name": "San Antonio ", "shortName": "San Antonio", "municipalityName": "San Antonio", "location": {"lat": 29.5337, "lon": -98.4698}, "countryCode": "US"}, "averageDailyFlights": 1.86, "operators": [{"name": "Southwest Airlines", "iata": "WN", "icao": "SWA"}, {"name": "Sun Country Airlines", "iata": "SY", "icao": "SCX"}]}, {"destination": {"icao": "SKRG", "iata": "MDE", "name": "Rionegro Jose Maria C\u00f3rdova", "shortName": "Jose Maria C\u00f3rdova", "municipalityName": "Rionegro", "location": {"lat": 6.16454, "lon": -75.4231}, "countryCode": "CO"}, "averageDailyFlights": 1.57, "operators": [{"name": "Avianca", "iata": "AV", "icao": "AVA"}, {"name": "Copa Airlines Colombia", "iata": "P5", "icao": "RPB"}]}, {"destination": {"icao": "MMSP", "iata": "SLP", "name": "San Luis Potos\u00ed Ponciano Arriaga", "shortName": "Ponciano Arriaga", "municipalityName": "San Luis Potos\u00ed", "location": {"lat": 22.2543, "lon": -100.931}, "countryCode": "MX"}, "averageDailyFlights": 1.57, "operators": [{"name": "Volaris", "iata": "Y4", "icao": "VOI"}, {"name": "Equaflight Service", "iata": "E7", "icao": "EKA"}]}, {"destination": {"icao": "CYYC", "iata": "YYC", "name": "Calgary ", "shortName": "Calgary", "municipalityName": "Calgary", "location": {"lat": 51.1139, "lon": -114.02}, "countryCode": "CA"}, "averageDailyFlights": 1.29, "operators": [{"name": "WestJet", "iata": "WS", "icao": "WJA"}, {"name": "Sunwing", "iata": "WG", "icao": "SWG"}]}, {"destination": {"icao": "KCLE", "iata": "CLE", "name": "Cleveland Hopkins", "shortName": "Hopkins", "municipalityName": "Cleveland", "location": {"lat": 41.4117, "lon": -81.8498}, "countryCode": "US"}, "averageDailyFlights": 1.29, "operators": [{"name": "Frontier Airlines", "iata": "F9", "icao": "FFT"}, {"name": "United Airlines", "iata": "UA", "icao": "UAL"}]}, {"destination": {"icao": "LTFM", "iata": "IST", "name": "Istanbul ", "shortName": "Istanbul", "municipalityName": "Istanbul", "location": {"lat": 41.275276, "lon": 28.751944}, "countryCode": "TR"}, "averageDailyFlights": 1.29, "operators": [{"name": "Turkish Airlines", "iata": "TK", "icao": "THY"}]}, {"destination": {"icao": "KMSP", "iata": "MSP", "name": "Minneapolis Wold-Chamberlain", "shortName": "Wold-Chamberlain", "municipalityName": "Minneapolis", "location": {"lat": 44.882, "lon": -93.2218}, "countryCode": "US"}, "averageDailyFlights": 1.29, "operators": [{"name": "Delta Air Lines", "iata": "DL", "icao": "DAL"}, {"name": "Sun Country Airlines", "iata": "SY", "icao": "SCX"}]}, {"destination": {"icao": "KBNA", "iata": "BNA", "name": "Nashville ", "shortName": "Nashville", "municipalityName": "Nashville", "location": {"lat": 36.1245, "lon": -86.6782}, "countryCode": "US"}, "averageDailyFlights": 1.29, "operators": [{"name": "Southwest Airlines", "iata": "WN", "icao": "SWA"}, {"name": "VivaAerobus", "iata": "VB", "icao": "VIV"}]}, {"destination": {"icao": "EGKK", "iata": "LGW", "name": "London Gatwick", "shortName": "Gatwick", "municipalityName": "London", "location": {"lat": 51.1481, "lon": -0.190277}, "countryCode": "GB"}, "averageDailyFlights": 1.14, "operators": [{"name": "British Airways", "iata": "BA", "icao": "BAW"}]}, {"destination": {"icao": "MMML", "iata": "MXL", "name": "Mexicali General Rodolfo S\u00e1nchez Taboada", "shortName": "General Rodolfo S\u00e1nchez Taboada", "municipalityName": "Mexicali", "location": {"lat": 32.6306, "lon": -115.242}, "countryCode": "MX"}, "averageDailyFlights": 1.14, "operators": [{"name": "Volaris", "iata": "Y4", "icao": "VOI"}]}, {"destination": {"icao": "KMSY", "iata": "MSY", "name": "New Orleans Louis Armstrong", "shortName": "Louis Armstrong", "municipalityName": "New Orleans", "location": {"lat": 29.9934, "lon": -90.258}, "countryCode": "US"}, "averageDailyFlights": 1.14, "operators": [{"name": "Spirit Airlines", "iata": "NK", "icao": "NKS"}, {"name": "Southwest Airlines", "iata": "WN", "icao": "SWA"}]}, {"destination": {"icao": "MMOX", "iata": "OAX", "name": "Oaxaca City Xoxocotl\u00e1n", "shortName": "Xoxocotl\u00e1n", "municipalityName": "Oaxaca City", "location": {"lat": 16.9999, "lon": -96.7266}, "countryCode": "MX"}, "averageDailyFlights": 1.14, "operators": [{"name": "Volaris", "iata": "Y4", "icao": "VOI"}]}, {"destination": {"icao": "MMRX", "iata": "REX", "name": "Reynosa General Lucio Blanco", "shortName": "General Lucio Blanco", "municipalityName": "Reynosa", "location": {"lat": 26.0089, "lon": -98.2285}, "countryCode": "MX"}, "averageDailyFlights": 1.14, "operators": [{"name": "VivaAerobus", "iata": "VB", "icao": "VIV"}]}, {"destination": {"icao": "KSLC", "iata": "SLC", "name": "Salt Lake City ", "shortName": "Salt Lake City", "municipalityName": "Salt Lake City", "location": {"lat": 40.7884, "lon": -111.978}, "countryCode": "US"}, "averageDailyFlights": 1.14, "operators": [{"name": "Delta Air Lines", "iata": "DL", "icao": "DAL"}]}, {"destination": {"icao": "KSEA", "iata": "SEA", "name": "Seattle Tacoma", "shortName": "Tacoma", "municipalityName": "Seattle", "location": {"lat": 47.449, "lon": -122.309}, "countryCode": "US"}, "averageDailyFlights": 1.14, "operators": [{"name": "Alaska Airlines", "iata": "AS", "icao": "ASA"}, {"name": "Delta Air Lines", "iata": "DL", "icao": "DAL"}]}, {"destination": {"icao": "MMVA", "iata": "VSA", "name": "Villahermosa Carlos Rovirosa P\u00e9rez", "shortName": "Carlos Rovirosa P\u00e9rez", "municipalityName": "Villahermosa", "location": {"lat": 17.997, "lon": -92.8174}, "countryCode": "MX"}, "averageDailyFlights": 1.14, "operators": [{"name": "VivaAerobus", "iata": "VB", "icao": "VIV"}]}, {"destination": {"icao": "LPPT", "iata": "LIS", "name": "Lisbon Portela", "shortName": "Portela", "municipalityName": "Lisbon", "location": {"lat": 38.7813, "lon": -9.135919}, "countryCode": "PT"}, "averageDailyFlights": 1.0, "operators": [{"name": "TAP Air Portugal", "iata": "TP", "icao": "TAP"}, {"name": "Orbest S.A.", "iata": "6O", "icao": "OBS"}]}, {"destination": {"icao": "SEQM", "iata": "UIO", "name": "Quito Mariscal Sucre", "shortName": "Mariscal Sucre", "municipalityName": "Quito", "location": {"lat": -0.129166, "lon": -78.3575}, "countryCode": "EC"}, "averageDailyFlights": 1.0, "operators": [{"name": "VivaAerobus", "iata": "VB", "icao": "VIV"}, {"name": "Avianca", "iata": "AV", "icao": "AVA"}]}, {"destination": {"icao": "KMCI", "iata": "MCI", "name": "Kansas City ", "shortName": "Kansas City", "municipalityName": "Kansas City", "location": {"lat": 39.2976, "lon": -94.7139}, "countryCode": "US"}, "averageDailyFlights": 0.86, "operators": [{"name": "Frontier Airlines", "iata": "F9", "icao": "FFT"}, {"name": "Southwest Airlines", "iata": "WN", "icao": "SWA"}]}, {"destination": {"icao": "MMTM", "iata": "TAM", "name": "Tampico General Francisco Javier Mina", "shortName": "General Francisco Javier Mina", "municipalityName": "Tampico", "location": {"lat": 22.2964, "lon": -97.8659}, "countryCode": "MX"}, "averageDailyFlights": 0.86, "operators": [{"name": "VivaAerobus", "iata": "VB", "icao": "VIV"}]}, {"destination": {"icao": "MMAS", "iata": "AGU", "name": "Aguascalientes Jesus Teran", "shortName": "Jesus Teran", "municipalityName": "Aguascalientes", "location": {"lat": 21.7056, "lon": -102.318}, "countryCode": "MX"}, "averageDailyFlights": 0.71, "operators": [{"name": "Volaris", "iata": "Y4", "icao": "VOI"}]}, {"destination": {"icao": "KCVG", "iata": "CVG", "name": "Cincinnati Northern Kentucky", "shortName": "Northern Kentucky", "municipalityName": "Cincinnati", "location": {"lat": 39.0488, "lon": -84.6678}, "countryCode": "US"}, "averageDailyFlights": 0.71, "operators": [{"name": "Frontier Airlines", "iata": "F9", "icao": "FFT"}, {"name": "VivaAerobus", "iata": "VB", "icao": "VIV"}]}, {"destination": {"icao": "EDDF", "iata": "FRA", "name": "Frankfurt-am-Main ", "shortName": "Frankfurt-am-Main", "municipalityName": "Frankfurt-am-Main", "location": {"lat": 50.0264, "lon": 8.543129}, "countryCode": "DE"}, "averageDailyFlights": 0.71, "operators": [{"name": "Condor", "iata": "DE", "icao": "CFG"}]}, {"destination": {"icao": "CYVR", "iata": "YVR", "name": "Vancouver ", "shortName": "Vancouver", "municipalityName": "Vancouver", "location": {"lat": 49.1939, "lon": -123.184}, "countryCode": "CA"}, "averageDailyFlights": 0.71, "operators": [{"name": "WestJet", "iata": "WS", "icao": "WJA"}, {"name": "Air Canada", "iata": "AC", "icao": "ACA"}, {"name": "Sunwing", "iata": "WG", "icao": "SWG"}]}, {"destination": {"icao": "EHAM", "iata": "AMS", "name": "Amsterdam Schiphol", "shortName": "Schiphol", "municipalityName": "Amsterdam", "location": {"lat": 52.3086, "lon": 4.763889}, "countryCode": "NL"}, "averageDailyFlights": 0.57, "operators": [{"name": "TUI Airlines Nederland (Netherlands)", "iata": "OR", "icao": "TFL"}]}, {"destination": {"icao": "SVMI", "iata": "CCS", "name": "Caracas Sim\u00f3n Bol\u00edvar", "shortName": "Sim\u00f3n Bol\u00edvar", "municipalityName": "Caracas", "location": {"lat": 10.603116, "lon": -66.990585}, "countryCode": "VE"}, "averageDailyFlights": 0.57, "operators": [{"name": "Conviasa", "iata": "V0", "icao": "VCV"}]}, {"destination": {"icao": "LFPG", "iata": "CDG", "name": "Paris Charles de Gaulle", "shortName": "Charles de Gaulle", "municipalityName": "Paris", "location": {"lat": 49.0128, "lon": 2.549999}, "countryCode": "FR"}, "averageDailyFlights": 0.57, "operators": [{"name": "Air France", "iata": "AF", "icao": "AFR"}]}, {"destination": {"icao": "LSZH", "iata": "ZRH", "name": "Zurich Kloten", "shortName": "Kloten", "municipalityName": "Zurich", "location": {"lat": 47.4647, "lon": 8.549169}, "countryCode": "CH"}, "averageDailyFlights": 0.57, "operators": [{"name": "Edelweiss Air", "iata": "WK", "icao": "EDW"}]}, {"destination": {"icao": "EBBR", "iata": "BRU", "name": "Brussels ", "shortName": "Brussels", "municipalityName": "Brussels", "location": {"lat": 50.9014, "lon": 4.484439}, "countryCode": "BE"}, "averageDailyFlights": 0.43, "operators": [{"name": "TUI Airlines Belgium", "iata": "TB", "icao": "JAF"}]}, {"destination": {"icao": "SAEZ", "iata": "EZE", "name": "Buenos Aires Ministro Pistarini", "shortName": "Ministro Pistarini", "municipalityName": "Buenos Aires", "location": {"lat": -34.8222, "lon": -58.5358}, "countryCode": "AR"}, "averageDailyFlights": 0.43, "operators": [{"name": "Aerolineas Argentinas", "iata": "AR", "icao": "ARG"}]}, {"destination": {"icao": "MMCL", "iata": "CUL", "name": "Culiac\u00e1n Bachigualato Federal", "shortName": "Bachigualato Federal", "municipalityName": "Culiac\u00e1n", "location": {"lat": 24.7645, "lon": -107.475}, "countryCode": "MX"}, "averageDailyFlights": 0.43, "operators": [{"name": "Volaris", "iata": "Y4", "icao": "VOI"}]}, {"destination": {"icao": "MMMD", "iata": "MID", "name": "M\u00e9rida Licenciado Manuel Crescencio Rejon Int", "shortName": "Licenciado Manuel Crescencio Rejon Int", "municipalityName": "M\u00e9rida", "location": {"lat": 20.937, "lon": -89.6577}, "countryCode": "MX"}, "averageDailyFlights": 0.43, "operators": [{"name": "Equaflight Service", "iata": "E7", "icao": "EKA"}]}, {"destination": {"icao": "MMMM", "iata": "MLM", "name": "Morelia General Francisco J. Mujica", "shortName": "General Francisco J. Mujica", "municipalityName": "Morelia", "location": {"lat": 19.8499, "lon": -101.025}, "countryCode": "MX"}, "averageDailyFlights": 0.43, "operators": [{"name": "Volaris", "iata": "Y4", "icao": "VOI"}]}, {"destination": {"icao": "LFPO", "iata": "ORY", "name": "Paris -Orly", "shortName": "-Orly", "municipalityName": "Paris", "location": {"lat": 48.7253, "lon": 2.35944}, "countryCode": "FR"}, "averageDailyFlights": 0.43, "operators": [{"name": "Air Caraibes", "iata": "TX", "icao": "FWI"}]}, {"destination": {"icao": "CYQB", "iata": "YQB", "name": "Quebec Jean Lesage", "shortName": "Jean Lesage", "municipalityName": "Quebec", "location": {"lat": 46.7911, "lon": -71.3933}, "countryCode": "CA"}, "averageDailyFlights": 0.43, "operators": [{"name": "Air Canada", "iata": "AC", "icao": "ACA"}, {"name": "Sunwing", "iata": "WG", "icao": "SWG"}, {"name": "Air Transat", "iata": "TS", "icao": "TSC"}]}, {"destination": {"icao": "TJSJ", "iata": "SJU", "name": "San Juan Luis Munoz Marin", "shortName": "Luis Munoz Marin", "municipalityName": "San Juan", "location": {"lat": 18.4394, "lon": -66.0018}, "countryCode": "PR"}, "averageDailyFlights": 0.43, "operators": [{"name": "Frontier Airlines", "iata": "F9", "icao": "FFT"}]}, {"destination": {"icao": "MSLP", "iata": "SAL", "name": "Santa Clara El Salvador", "shortName": "El Salvador", "municipalityName": "Santa Clara", "location": {"lat": 13.440899, "lon": -89.0557}, "countryCode": "SV"}, "averageDailyFlights": 0.43, "operators": [{"name": "Avianca", "iata": "AV", "icao": "AVA"}]}, {"destination": {"name": "Camag\u00fcey"}, "averageDailyFlights": 0.43, "operators": [{"name": "VivaAerobus", "iata": "VB", "icao": "VIV"}]}, {"destination": {"name": "Halifax"}, "averageDailyFlights": 0.43, "operators": [{"name": "Air Transat", "iata": "TS", "icao": "TSC"}]}, {"destination": {"icao": "CYEG", "iata": "YEG", "name": "Edmonton ", "shortName": "Edmonton", "municipalityName": "Edmonton", "location": {"lat": 53.3097, "lon": -113.58}, "countryCode": "CA"}, "averageDailyFlights": 0.29, "operators": [{"name": "Sunwing", "iata": "WG", "icao": "SWG"}, {"name": "WestJet", "iata": "WS", "icao": "WJA"}]}, {"destination": {"icao": "KHRL", "iata": "HRL", "name": "Harlingen Valley", "shortName": "Valley", "municipalityName": "Harlingen", "location": {"lat": 26.2285, "lon": -97.6544}, "countryCode": "US"}, "averageDailyFlights": 0.29, "operators": [{"name": "Sun Country Airlines", "iata": "SY", "icao": "SCX"}]}, {"destination": {"icao": "MMHO", "iata": "HMO", "name": "Hermosillo General Ignacio P. Garcia", "shortName": "General Ignacio P. Garcia", "municipalityName": "Hermosillo", "location": {"lat": 29.0959, "lon": -111.048}, "countryCode": "MX"}, "averageDailyFlights": 0.29, "operators": [{"name": "Volaris", "iata": "Y4", "icao": "VOI"}]}, {"destination": {"icao": "MUHG", "iata": "HOG", "name": "Holgu\u00edn Frank Pais", "shortName": "Frank Pais", "municipalityName": "Holgu\u00edn", "location": {"lat": 20.7856, "lon": -76.3151}, "countryCode": "CU"}, "averageDailyFlights": 0.29, "operators": [{"name": "VivaAerobus", "iata": "VB", "icao": "VIV"}]}, {"destination": {"icao": "KIND", "iata": "IND", "name": "Indianapolis ", "shortName": "Indianapolis", "municipalityName": "Indianapolis", "location": {"lat": 39.7173, "lon": -86.2944}, "countryCode": "US"}, "averageDailyFlights": 0.29, "operators": [{"name": "Southwest Airlines", "iata": "WN", "icao": "SWA"}]}, {"destination": {"icao": "KRDU", "iata": "RDU", "name": "Raleigh/Durham Raleigh Durham", "shortName": "Raleigh Durham", "municipalityName": "Raleigh/Durham", "location": {"lat": 35.8776, "lon": -78.7875}, "countryCode": "US"}, "averageDailyFlights": 0.29, "operators": [{"name": "JetBlue Airways", "iata": "B6", "icao": "JBU"}]}, {"destination": {"icao": "LIRF", "iata": "FCO", "name": "Rome Leonardo da Vinci\u2013Fiumicino", "shortName": "Leonardo da Vinci\u2013Fiumicino", "municipalityName": "Rome", "location": {"lat": 41.8045, "lon": 12.2508}, "countryCode": "IT"}, "averageDailyFlights": 0.29, "operators": [{"name": "Neos", "iata": "NO", "icao": "NOS"}]}, {"destination": {"icao": "MGMM", "iata": "FRS", "name": "San Benito Mundo Maya", "shortName": "Mundo Maya", "municipalityName": "San Benito", "location": {"lat": 16.9138, "lon": -89.8664}, "countryCode": "GT"}, "averageDailyFlights": 0.29, "operators": [{"name": "TAG", "iata": "5U", "icao": "TGU"}]}, {"destination": {"icao": "SKCL", "iata": "CLO", "name": "Santiago de Cali Alfonso Bonilla Aragon", "shortName": "Alfonso Bonilla Aragon", "municipalityName": "Santiago de Cali", "location": {"lat": 3.54322, "lon": -76.3816}, "countryCode": "CO"}, "averageDailyFlights": 0.29, "operators": [{"name": "Copa Airlines Colombia", "iata": "P5", "icao": "RPB"}]}, {"destination": {"icao": "MMTC", "iata": "TRC", "name": "Torre\u00f3n Francisco Sarabia", "shortName": "Francisco Sarabia", "municipalityName": "Torre\u00f3n", "location": {"lat": 25.5683, "lon": -103.411}, "countryCode": "MX"}, "averageDailyFlights": 0.29, "operators": [{"name": "VivaAerobus", "iata": "VB", "icao": "VIV"}]}, {"destination": {"icao": "MMAA", "iata": "ACA", "name": "Acapulco General Juan N Alvarez", "shortName": "General Juan N Alvarez", "municipalityName": "Acapulco", "location": {"lat": 16.7571, "lon": -99.754}, "countryCode": "MX"}, "averageDailyFlights": 0.14, "operators": [{"name": "VivaAerobus", "iata": "VB", "icao": "VIV"}]}, {"destination": {"icao": "LEBL", "iata": "BCN", "name": "Barcelona ", "shortName": "Barcelona", "municipalityName": "Barcelona", "location": {"lat": 41.2971, "lon": 2.078459}, "countryCode": "ES"}, "averageDailyFlights": 0.14, "operators": [{"name": "Evelop Airlines", "iata": "E9", "icao": "EVE"}]}, {"destination": {"icao": "KCMH", "iata": "CMH", "name": "Columbus Port", "shortName": "Port", "municipalityName": "Columbus", "location": {"lat": 39.998, "lon": -82.8919}, "countryCode": "US"}, "averageDailyFlights": 0.14, "operators": [{"name": "Southwest Airlines", "iata": "WN", "icao": "SWA"}]}, {"destination": {"icao": "CYHM", "iata": "YHM", "name": "Hamilton John C. Munro", "shortName": "John C. Munro", "municipalityName": "Hamilton", "location": {"lat": 43.1736, "lon": -79.935}, "countryCode": "CA"}, "averageDailyFlights": 0.14, "operators": [{"name": "Swoop", "iata": "WO", "icao": "WSW"}]}, {"destination": {"icao": "CYKF", "iata": "YKF", "name": "Kitchener Waterloo", "shortName": "Waterloo", "municipalityName": "Kitchener", "location": {"lat": 43.4608, "lon": -80.3786}, "countryCode": "CA"}, "averageDailyFlights": 0.14, "operators": [{"name": "Flair Airlines", "iata": "F8", "icao": "FLE"}]}, {"destination": {"icao": "LIMC", "iata": "MXP", "name": "Milan Malpensa", "shortName": "Malpensa", "municipalityName": "Milan", "location": {"lat": 45.6306, "lon": 8.72811}, "countryCode": "IT"}, "averageDailyFlights": 0.14, "operators": [{"name": "Neos", "iata": "NO", "icao": "NOS"}]}, {"destination": {"icao": "SCEL", "iata": "SCL", "name": "Santiago Comodoro Arturo Merino Ben\u00edtez", "shortName": "Comodoro Arturo Merino Ben\u00edtez", "municipalityName": "Santiago", "location": {"lat": -33.393, "lon": -70.7858}, "countryCode": "CL"}, "averageDailyFlights": 0.14, "operators": [{"name": "LATAM", "iata": "LA", "icao": "LAN"}]}, {"destination": {"icao": "KVNY", "iata": "VNY", "name": "Van Nuys ", "shortName": "Van Nuys", "municipalityName": "Van Nuys", "location": {"lat": 34.2098, "lon": -118.49}, "countryCode": "US"}, "averageDailyFlights": 0.14, "operators": [{"name": "N1"}]}, {"destination": {"name": "Le\u00f3n"}, "averageDailyFlights": 0.14, "operators": [{"name": "Volaris", "iata": "Y4", "icao": "VOI"}]}]}