{"routes": [{"destination": {"icao": "KMIA", "iata": "MIA", "name": "Miami ", "shortName": "Miami", "municipalityName": "Miami", "location": {"lat": 25.7932, "lon": -80.2906}, "countryCode": "US"}, "averageDailyFlights": 1.14, "operators": [{"name": "American Airlines", "iata": "AA", "icao": "AAL"}]}, {"destination": {"icao": "CYUL", "iata": "YUL", "name": "Montreal Trudeau", "shortName": "Trudeau", "municipalityName": "Montreal", "location": {"lat": 45.4706, "lon": -73.7408}, "countryCode": "CA"}, "averageDailyFlights": 1.0, "operators": [{"name": "Sunwing", "iata": "WG", "icao": "SWG"}, {"name": "Air Transat", "iata": "TS", "icao": "TSC"}]}, {"destination": {"icao": "CYYZ", "iata": "YYZ", "name": "Toronto Pearson", "shortName": "Pearson", "municipalityName": "Toronto", "location": {"lat": 43.6772, "lon": -79.6306}, "countryCode": "CA"}, "averageDailyFlights": 0.71, "operators": [{"name": "Air Transat", "iata": "TS", "icao": "TSC"}, {"name": "Sunwing", "iata": "WG", "icao": "SWG"}]}, {"destination": {"icao": "MMUN", "iata": "CUN", "name": "Canc\u00fan ", "shortName": "Canc\u00fan", "municipalityName": "Canc\u00fan", "location": {"lat": 21.0365, "lon": -86.8771}, "countryCode": "MX"}, "averageDailyFlights": 0.29, "operators": [{"name": "VivaAerobus", "iata": "VB", "icao": "VIV"}]}, {"destination": {"icao": "MUHA", "iata": "HAV", "name": "Havana Jos\u00e9 Mart\u00ed", "shortName": "Jos\u00e9 Mart\u00ed", "municipalityName": "Havana", "location": {"lat": 22.9892, "lon": -82.4091}, "countryCode": "CU"}, "averageDailyFlights": 0.29, "operators": [{"name": "Cubana de Aviacion", "iata": "CU", "icao": "CUB"}]}, {"destination": {"icao": "MKJS", "iata": "MBJ", "name": "Montego Bay Sangster", "shortName": "Sangster", "municipalityName": "Montego Bay", "location": {"lat": 18.5037, "lon": -77.9134}, "countryCode": "JM"}, "averageDailyFlights": 0.29, "operators": [{"name": "Condor", "iata": "DE", "icao": "CFG"}]}, {"destination": {"icao": "SVMG", "iata": "PMV", "name": "Isla Margarita Del Caribe Santiago Mari\u00f1o", "shortName": "Del Caribe Santiago Mari\u00f1o", "municipalityName": "Isla Margarita", "location": {"lat": 10.912603, "lon": -63.9666}, "countryCode": "VE"}, "averageDailyFlights": 0.14, "operators": [{"name": "Cubana de Aviacion", "iata": "CU", "icao": "CUB"}]}, {"destination": {"icao": "LIMC", "iata": "MXP", "name": "Milan Malpensa", "shortName": "Malpensa", "municipalityName": "Milan", "location": {"lat": 45.6306, "lon": 8.72811}, "countryCode": "IT"}, "averageDailyFlights": 0.14, "operators": [{"name": "Neos", "iata": "NO", "icao": "NOS"}]}]}