{"routes": [{"destination": {"icao": "MYNN", "iata": "NAS", "name": "Nassau Lynden Pindling", "shortName": "Lynden Pindling", "municipalityName": "Nassau", "location": {"lat": 25.039, "lon": -77.4662}, "countryCode": "BS"}, "averageDailyFlights": 6.29, "operators": [{"name": "Bahamasair", "iata": "UP", "icao": "BHS"}, {"name": "WST"}, {"name": "Jetways Airlines Limited"}]}, {"destination": {"icao": "KMIA", "iata": "MIA", "name": "Miami ", "shortName": "Miami", "municipalityName": "Miami", "location": {"lat": 25.7932, "lon": -80.2906}, "countryCode": "US"}, "averageDailyFlights": 2.14, "operators": [{"name": "Envoy Air", "iata": "MQ", "icao": "ENY"}, {"name": "American Airlines", "iata": "AA", "icao": "AAL"}]}, {"destination": {"icao": "KFLL", "iata": "FLL", "name": "Fort Lauderdale Hollywood", "shortName": "Hollywood", "municipalityName": "Fort Lauderdale", "location": {"lat": 26.0726, "lon": -80.1527}, "countryCode": "US"}, "averageDailyFlights": 1.57, "operators": [{"name": "EJM"}, {"name": "Silver Airways", "iata": "3M", "icao": "SIL"}]}, {"destination": {"icao": "KCLT", "iata": "CLT", "name": "Charlotte Douglas", "shortName": "Douglas", "municipalityName": "Charlotte", "location": {"lat": 35.214, "lon": -80.9431}, "countryCode": "US"}, "averageDailyFlights": 1.29, "operators": [{"name": "Envoy Air", "iata": "MQ", "icao": "ENY"}, {"name": "American Airlines", "iata": "AA", "icao": "AAL"}]}, {"destination": {"icao": "KATL", "iata": "ATL", "name": "Atlanta Hartsfield Jackson", "shortName": "Hartsfield Jackson", "municipalityName": "Atlanta", "location": {"lat": 33.6367, "lon": -84.4281}, "countryCode": "US"}, "averageDailyFlights": 0.71, "operators": [{"name": "Delta Air Lines", "iata": "DL", "icao": "DAL"}]}, {"destination": {"icao": "KBCT", "iata": "BCT", "name": "Boca Raton ", "shortName": "Boca Raton", "municipalityName": "Boca Raton", "location": {"lat": 26.378498, "lon": -80.1077}, "countryCode": "US"}, "averageDailyFlights": 0.29, "operators": [{"name": "WSP"}, {"name": "JRE"}]}, {"destination": {"icao": "KCHS", "iata": "CHS", "name": "Charleston Air Force Base-", "shortName": "Air Force Base-", "municipalityName": "Charleston", "location": {"lat": 32.8986, "lon": -80.0405}, "countryCode": "US"}, "averageDailyFlights": 0.29, "operators": [{"name": "DCM"}]}, {"destination": {"icao": "KFXE", "iata": "FXE", "name": "Fort Lauderdale Executive", "shortName": "Executive", "municipalityName": "Fort Lauderdale", "location": {"lat": 26.197298, "lon": -80.1707}, "countryCode": "US"}, "averageDailyFlights": 0.29, "operators": [{"name": "Nolinor", "iata": "N5", "icao": "NRL"}, {"name": "HER"}]}, {"destination": {"icao": "MKJS", "iata": "MBJ", "name": "Montego Bay Sangster", "shortName": "Sangster", "municipalityName": "Montego Bay", "location": {"lat": 18.5037, "lon": -77.9134}, "countryCode": "JM"}, "averageDailyFlights": 0.29, "operators": [{"name": "N2"}]}, {"destination": {"icao": "KHOU", "iata": "HOU", "name": "Houston William P Hobby", "shortName": "William P Hobby", "municipalityName": "Houston", "location": {"lat": 29.6454, "lon": -95.2789}, "countryCode": "US"}, "averageDailyFlights": 0.14, "operators": [{"name": "Jet Linx Aviation", "iata": "JL", "icao": "JTL"}]}, {"destination": {"icao": "KJAX", "iata": "JAX", "name": "Jacksonville ", "shortName": "Jacksonville", "municipalityName": "Jacksonville", "location": {"lat": 30.4941, "lon": -81.6879}, "countryCode": "US"}, "averageDailyFlights": 0.14, "operators": [{"name": "JRE"}]}, {"destination": {"icao": "KLAL", "iata": "LAL", "name": "Lakeland Linder Regional", "shortName": "Linder Regional", "municipalityName": "Lakeland", "location": {"lat": 27.9889, "lon": -82.0186}, "countryCode": "US"}, "averageDailyFlights": 0.14, "operators": [{"name": "TWY"}]}, {"destination": {"icao": "TJSJ", "iata": "SJU", "name": "San Juan Luis Munoz Marin", "shortName": "Luis Munoz Marin", "municipalityName": "San Juan", "location": {"lat": 18.4394, "lon": -66.0018}, "countryCode": "PR"}, "averageDailyFlights": 0.14, "operators": [{"name": "Cape Air", "iata": "9K", "icao": "KAP"}]}, {"destination": {"icao": "KTEB", "iata": "TEB", "name": "Teterboro ", "shortName": "Teterboro", "municipalityName": "Teterboro", "location": {"lat": 40.8501, "lon": -74.0608}, "countryCode": "US"}, "averageDailyFlights": 0.14, "operators": [{"name": "EDG"}]}, {"destination": {"icao": "CYYZ", "iata": "YYZ", "name": "Toronto Pearson", "shortName": "Pearson", "municipalityName": "Toronto", "location": {"lat": 43.6772, "lon": -79.6306}, "countryCode": "CA"}, "averageDailyFlights": 0.14, "operators": [{"name": "TOR"}]}, {"destination": {"icao": "KPBI", "iata": "PBI", "name": "West Palm Beach Palm Beach", "shortName": "Palm Beach", "municipalityName": "West Palm Beach", "location": {"lat": 26.6832, "lon": -80.0956}, "countryCode": "US"}, "averageDailyFlights": 0.14, "operators": [{"name": "VNT"}]}]}