{"routes": [{"destination": {"icao": "OIII", "iata": "THR", "name": "Tehran Mehrabad", "shortName": "Mehrabad", "municipalityName": "Tehran", "location": {"lat": 35.6892, "lon": 51.3134}, "countryCode": "IR"}, "averageDailyFlights": 3.43, "operators": [{"name": "Mahan Air", "iata": "W5", "icao": "IRM"}, {"name": "Iran Aseman Airlines", "iata": "EP", "icao": "IRC"}, {"name": "Iran Air", "iata": "IR", "icao": "IRA"}, {"name": "Qeshm Air", "iata": "QB", "icao": "QSM"}]}, {"destination": {"icao": "OIMM", "iata": "MHD", "name": "Mashhad ", "shortName": "Mashhad", "municipalityName": "Mashhad", "location": {"lat": 36.2352, "lon": 59.641}, "countryCode": "IR"}, "averageDailyFlights": 1.0, "operators": [{"name": "Iran Aseman Airlines", "iata": "EP", "icao": "IRC"}, {"name": "Qeshm Air", "iata": "QB", "icao": "QSM"}]}, {"destination": {"icao": "OIZC", "iata": "ZBR", "name": "Chabahar Konarak", "shortName": "Konarak", "municipalityName": "Chabahar", "location": {"lat": 25.4433, "lon": 60.3821}, "countryCode": "IR"}, "averageDailyFlights": 0.29, "operators": [{"name": "Iran Air", "iata": "IR", "icao": "IRA"}]}, {"destination": {"icao": "OING", "iata": "GBT", "name": "Gorgan ", "shortName": "Gorgan", "municipalityName": "Gorgan", "location": {"lat": 36.9094, "lon": 54.4013}, "countryCode": "IR"}, "averageDailyFlights": 0.14, "operators": [{"name": "Qeshm Air", "iata": "QB", "icao": "QSM"}]}, {"destination": {"icao": "OISS", "iata": "SYZ", "name": "Shiraz Shahid Dastghaib", "shortName": "Shahid Dastghaib", "municipalityName": "Shiraz", "location": {"lat": 29.5392, "lon": 52.5898}, "countryCode": "IR"}, "averageDailyFlights": 0.14, "operators": [{"name": "Iran Aseman Airlines", "iata": "EP", "icao": "IRC"}]}]}