{"routes": [{"destination": {"icao": "HECA", "iata": "CAI", "name": "Cairo ", "shortName": "Cairo", "municipalityName": "Cairo", "location": {"lat": 30.1219, "lon": 31.4056}, "countryCode": "EG"}, "averageDailyFlights": 1.14, "operators": [{"name": "Air Arabia", "iata": "G9", "icao": "ABY"}]}, {"destination": {"icao": "VOHS", "iata": "HYD", "name": "Hyderabad Rajiv Gandhi", "shortName": "Rajiv Gandhi", "municipalityName": "Hyderabad", "location": {"lat": 17.231318, "lon": 78.429855}, "countryCode": "IN"}, "averageDailyFlights": 1.14, "operators": [{"name": "IndiGo", "iata": "6E", "icao": "IGO"}]}, {"destination": {"icao": "VABB", "iata": "BOM", "name": "Mumbai Chhatrapati Shivaji", "shortName": "Chhatrapati Shivaji", "municipalityName": "Mumbai", "location": {"lat": 19.0887, "lon": 72.8679}, "countryCode": "IN"}, "averageDailyFlights": 1.14, "operators": [{"name": "IndiGo", "iata": "6E", "icao": "IGO"}]}, {"destination": {"icao": "OPPS", "iata": "PEW", "name": "Peshawar ", "shortName": "Peshawar", "municipalityName": "Peshawar", "location": {"lat": 33.9939, "lon": 71.5146}, "countryCode": "PK"}, "averageDailyFlights": 0.57, "operators": [{"name": "Air Arabia", "iata": "G9", "icao": "ABY"}]}, {"destination": {"icao": "OPIS", "iata": "ISB", "name": "Islamabad ", "shortName": "Islamabad", "municipalityName": "Islamabad", "location": {"lat": 33.549, "lon": 72.82566}, "countryCode": "PK"}, "averageDailyFlights": 0.43, "operators": [{"name": "Air Arabia", "iata": "G9", "icao": "ABY"}]}, {"destination": {"icao": "OPLA", "iata": "LHE", "name": "Lahore Alama Iqbal", "shortName": "Alama Iqbal", "municipalityName": "Lahore", "location": {"lat": 31.5216, "lon": 74.4036}, "countryCode": "PK"}, "averageDailyFlights": 0.43, "operators": [{"name": "Air Arabia", "iata": "G9", "icao": "ABY"}]}, {"destination": {"icao": "VOCL", "iata": "CCJ", "name": "Calicut ", "shortName": "Calicut", "municipalityName": "Calicut", "location": {"lat": 11.136799, "lon": 75.9553}, "countryCode": "IN"}, "averageDailyFlights": 0.29, "operators": [{"name": "Air India Express", "iata": "IX", "icao": "AXB"}]}, {"destination": {"icao": "VGHS", "iata": "DAC", "name": "Dhaka Hazrat Shahjalal", "shortName": "Hazrat Shahjalal", "municipalityName": "Dhaka", "location": {"lat": 23.843348, "lon": 90.39778}, "countryCode": "BD"}, "averageDailyFlights": 0.29, "operators": [{"name": "Air Arabia", "iata": "G9", "icao": "ABY"}]}, {"destination": {"icao": "LKPR", "iata": "PRG", "name": "Prague Ruzyn\u011b", "shortName": "Ruzyn\u011b", "municipalityName": "Prague", "location": {"lat": 50.1008, "lon": 14.26}, "countryCode": "CZ"}, "averageDailyFlights": 0.29, "operators": [{"name": "SmartWings", "iata": "QS", "icao": "TVS"}]}]}