{"routes": [{"destination": {"icao": "RKSI", "iata": "ICN", "name": "Seoul Incheon", "shortName": "Incheon", "municipalityName": "Seoul", "location": {"lat": 37.4691, "lon": 126.451}, "countryCode": "KR"}, "averageDailyFlights": 6.86, "operators": [{"name": "Korean Air", "iata": "KE", "icao": "KAL"}, {"name": "Jeju Air", "iata": "7C", "icao": "JJA"}, {"name": "T'Way Air", "iata": "TW", "icao": "TWB"}, {"name": "Jin Air", "iata": "LJ", "icao": "JNA"}]}, {"destination": {"icao": "RJAA", "iata": "NRT", "name": "Tokyo Narita", "shortName": "Narita", "municipalityName": "Tokyo", "location": {"lat": 35.7647, "lon": 140.386}, "countryCode": "JP"}, "averageDailyFlights": 5.71, "operators": [{"name": "United Airlines", "iata": "UA", "icao": "UAL"}, {"name": "Jeju Air", "iata": "7C", "icao": "JJA"}, {"name": "JAL", "iata": "JL", "icao": "JAL"}]}, {"destination": {"icao": "RPLL", "iata": "MNL", "name": "Manila Ninoy Aquino", "shortName": "Ninoy Aquino", "municipalityName": "Manila", "location": {"lat": 14.5086, "lon": 121.02}, "countryCode": "PH"}, "averageDailyFlights": 2.14, "operators": [{"name": "Philippine Airlines", "iata": "PR", "icao": "PAL"}, {"name": "United Airlines", "iata": "UA", "icao": "UAL"}]}, {"destination": {"icao": "RKPK", "iata": "PUS", "name": "Busan-si Gimhae", "shortName": "Gimhae", "municipalityName": "Busan-si", "location": {"lat": 35.1795, "lon": 128.938}, "countryCode": "KR"}, "averageDailyFlights": 1.86, "operators": [{"name": "Jeju Air", "iata": "7C", "icao": "JJA"}, {"name": "Jin Air", "iata": "LJ", "icao": "JNA"}]}, {"destination": {"icao": "PGSN", "iata": "SPN", "name": "Saipan Island Saipan", "shortName": "Saipan", "municipalityName": "Saipan Island", "location": {"lat": 15.119, "lon": 145.729}, "countryCode": "MP"}, "averageDailyFlights": 1.57, "operators": [{"name": "United Airlines", "iata": "UA", "icao": "UAL"}]}, {"destination": {"icao": "RJGG", "iata": "NGO", "name": "Tokoname Chubu Centrair", "shortName": "Chubu Centrair", "municipalityName": "Tokoname", "location": {"lat": 34.8584, "lon": 136.805}, "countryCode": "JP"}, "averageDailyFlights": 1.14, "operators": [{"name": "United Airlines", "iata": "UA", "icao": "UAL"}]}, {"destination": {"icao": "RJBB", "iata": "KIX", "name": "Osaka Kansai", "shortName": "Kansai", "municipalityName": "Osaka", "location": {"lat": 34.4273, "lon": 135.244}, "countryCode": "JP"}, "averageDailyFlights": 1.0, "operators": [{"name": "United Airlines", "iata": "UA", "icao": "UAL"}]}, {"destination": {"icao": "PTRO", "iata": "ROR", "name": "Babelthuap Island Babelthuap", "shortName": "Babelthuap", "municipalityName": "Babelthuap Island", "location": {"lat": 7.36765, "lon": 134.544}, "countryCode": "PW"}, "averageDailyFlights": 0.86, "operators": [{"name": "United Airlines", "iata": "UA", "icao": "UAL"}]}, {"destination": {"icao": "PTKK", "iata": "TKK", "name": "Weno Island Chuuk", "shortName": "Chuuk", "municipalityName": "Weno Island", "location": {"lat": 7.46187, "lon": 151.843}, "countryCode": "FM"}, "averageDailyFlights": 0.71, "operators": [{"name": "United Airlines", "iata": "UA", "icao": "UAL"}]}, {"destination": {"icao": "RJFF", "iata": "FUK", "name": "Fukuoka ", "shortName": "Fukuoka", "municipalityName": "Fukuoka", "location": {"lat": 33.5859, "lon": 130.451}, "countryCode": "JP"}, "averageDailyFlights": 0.43, "operators": [{"name": "United Airlines", "iata": "UA", "icao": "UAL"}]}, {"destination": {"icao": "PTYA", "iata": "YAP", "name": "Yap Island Yap", "shortName": "Yap", "municipalityName": "Yap Island", "location": {"lat": 9.498909, "lon": 138.083}, "countryCode": "FM"}, "averageDailyFlights": 0.29, "operators": [{"name": "United Airlines", "iata": "UA", "icao": "UAL"}]}, {"destination": {"icao": "PHNL", "iata": "HNL", "name": "Honolulu ", "shortName": "Honolulu", "municipalityName": "Honolulu", "location": {"lat": 21.3187, "lon": -157.922}, "countryCode": "US"}, "averageDailyFlights": 0.14, "operators": [{"name": "United Airlines", "iata": "UA", "icao": "UAL"}]}, {"destination": {"icao": "PTPN", "iata": "PNI", "name": "Pohnpei Island Pohnpei", "shortName": "Pohnpei", "municipalityName": "Pohnpei Island", "location": {"lat": 6.985099, "lon": 158.209}, "countryCode": "FM"}, "averageDailyFlights": 0.14, "operators": [{"name": "United Airlines", "iata": "UA", "icao": "UAL"}]}]}