{"routes": [{"destination": {"icao": "SBRJ", "iata": "SDU", "name": "Rio de Janeiro Santos Dumont", "shortName": "Santos Dumont", "municipalityName": "Rio de Janeiro", "location": {"lat": -22.9105, "lon": -43.1631}, "countryCode": "BR"}, "averageDailyFlights": 10.57, "operators": [{"name": "Azul", "iata": "AD", "icao": "AZU"}, {"name": "Gol", "iata": "G3", "icao": "GLO"}, {"name": "LATAM", "iata": "LA", "icao": "LAN"}]}, {"destination": {"icao": "SBKP", "iata": "VCP", "name": "Campinas Viracopos", "shortName": "Viracopos", "municipalityName": "Campinas", "location": {"lat": -23.0074, "lon": -47.1345}, "countryCode": "BR"}, "averageDailyFlights": 9.14, "operators": [{"name": "Azul", "iata": "AD", "icao": "AZU"}]}, {"destination": {"name": "S\u00e3o Paulo"}, "averageDailyFlights": 8.71, "operators": [{"name": "LATAM", "iata": "LA", "icao": "LAN"}, {"name": "Azul", "iata": "AD", "icao": "AZU"}, {"name": "Gol"}]}, {"destination": {"icao": "SBPA", "iata": "POA", "name": "Porto Alegre Salgado Filho", "shortName": "Salgado Filho", "municipalityName": "Porto Alegre", "location": {"lat": -29.9944, "lon": -51.1714}, "countryCode": "BR"}, "averageDailyFlights": 6.71, "operators": [{"name": "Gol", "iata": "G3", "icao": "GLO"}, {"name": "Azul", "iata": "AD", "icao": "AZU"}, {"name": "LATAM", "iata": "LA", "icao": "LAN"}]}, {"destination": {"icao": "SBFI", "iata": "IGU", "name": "Foz do Igua\u00e7u Cataratas", "shortName": "Cataratas", "municipalityName": "Foz do Igua\u00e7u", "location": {"lat": -25.600279, "lon": -54.485}, "countryCode": "BR"}, "averageDailyFlights": 3.29, "operators": [{"name": "Azul", "iata": "AD", "icao": "AZU"}, {"name": "LATAM", "iata": "LA", "icao": "LAN"}]}, {"destination": {"icao": "SBMG", "iata": "MGF", "name": "Maring\u00e1 Regional de  - S\u00edlvio Nane Junior", "shortName": "Regional de  - S\u00edlvio Nane Junior", "municipalityName": "Maring\u00e1", "location": {"lat": -23.479445, "lon": -52.012222}, "countryCode": "BR"}, "averageDailyFlights": 3.14, "operators": [{"name": "Azul", "iata": "AD", "icao": "AZU"}, {"name": "Gol", "iata": "G3", "icao": "GLO"}]}, {"destination": {"icao": "SBLO", "iata": "LDB", "name": "Londrina Governador Jos\u00e9 Richa", "shortName": "Governador Jos\u00e9 Richa", "municipalityName": "Londrina", "location": {"lat": -23.3336, "lon": -51.1301}, "countryCode": "BR"}, "averageDailyFlights": 3.0, "operators": [{"name": "Azul", "iata": "AD", "icao": "AZU"}]}, {"destination": {"icao": "SBBR", "iata": "BSB", "name": "Bras\u00edlia Presidente Juscelino Kubistschek", "shortName": "Presidente Juscelino Kubistschek", "municipalityName": "Bras\u00edlia", "location": {"lat": -15.869167, "lon": -47.920834}, "countryCode": "BR"}, "averageDailyFlights": 2.71, "operators": [{"name": "LATAM", "iata": "LA", "icao": "LAN"}, {"name": "Gol", "iata": "G3", "icao": "GLO"}]}, {"destination": {"icao": "SBCA", "iata": "CAC", "name": "Cascavel ", "shortName": "Cascavel", "municipalityName": "Cascavel", "location": {"lat": -25.0003, "lon": -53.5008}, "countryCode": "BR"}, "averageDailyFlights": 2.0, "operators": [{"name": "Azul", "iata": "AD", "icao": "AZU"}]}, {"destination": {"icao": "SBCY", "iata": "CGB", "name": "Cuiab\u00e1 Marechal Rondon", "shortName": "Marechal Rondon", "municipalityName": "Cuiab\u00e1", "location": {"lat": -15.652899, "lon": -56.1167}, "countryCode": "BR"}, "averageDailyFlights": 1.29, "operators": [{"name": "Azul", "iata": "AD", "icao": "AZU"}]}, {"destination": {"icao": "SBCF", "iata": "CNF", "name": "Belo Horizonte Tancredo Neves", "shortName": "Tancredo Neves", "municipalityName": "Belo Horizonte", "location": {"lat": -19.624443, "lon": -43.971943}, "countryCode": "BR"}, "averageDailyFlights": 1.14, "operators": [{"name": "Azul", "iata": "AD", "icao": "AZU"}]}, {"destination": {"icao": "SBCG", "iata": "CGR", "name": "Campo Grande ", "shortName": "Campo Grande", "municipalityName": "Campo Grande", "location": {"lat": -20.4687, "lon": -54.6725}, "countryCode": "BR"}, "averageDailyFlights": 1.0, "operators": [{"name": "Azul", "iata": "AD", "icao": "AZU"}]}, {"destination": {"name": "Pato-Branko Munitsipal"}, "averageDailyFlights": 1.0, "operators": [{"name": "Azul", "iata": "AD", "icao": "AZU"}]}, {"destination": {"icao": "SABE", "iata": "AEP", "name": "Buenos Aires Jorge Newbery Airpark", "shortName": "Jorge Newbery Airpark", "municipalityName": "Buenos Aires", "location": {"lat": -34.5592, "lon": -58.4156}, "countryCode": "AR"}, "averageDailyFlights": 0.71, "operators": [{"name": "Aerolineas Argentinas", "iata": "AR", "icao": "ARG"}]}, {"destination": {"name": "Umuarama"}, "averageDailyFlights": 0.57, "operators": [{"name": "Azul", "iata": "AD", "icao": "AZU"}]}, {"destination": {"icao": "SBSV", "iata": "SSA", "name": "Salvador Deputado Luiz Eduardo Magalh\u00e3es", "shortName": "Deputado Luiz Eduardo Magalh\u00e3es", "municipalityName": "Salvador", "location": {"lat": -12.908611, "lon": -38.3225}, "countryCode": "BR"}, "averageDailyFlights": 0.43, "operators": [{"name": "Gol", "iata": "G3", "icao": "GLO"}]}, {"destination": {"icao": "SCEL", "iata": "SCL", "name": "Santiago Comodoro Arturo Merino Ben\u00edtez", "shortName": "Comodoro Arturo Merino Ben\u00edtez", "municipalityName": "Santiago", "location": {"lat": -33.393, "lon": -70.7858}, "countryCode": "CL"}, "averageDailyFlights": 0.43, "operators": [{"name": "LATAM", "iata": "LA", "icao": "LAN"}]}]}