{"routes": [{"destination": {"icao": "UHHH", "iata": "KHV", "localCode": "\u0425\u0411\u0420", "name": "Khabarovsk Novy", "shortName": "Novy", "municipalityName": "Khabarovsk", "location": {"lat": 48.528, "lon": 135.188}, "countryCode": "RU"}, "averageDailyFlights": 4.43, "operators": [{"name": "Aurora", "iata": "HZ", "icao": "SHU"}, {"name": "S7 Airlines", "iata": "S7", "icao": "SBI"}, {"name": "Yakutia", "iata": "R3", "icao": "SYL"}]}, {"destination": {"icao": "UHWW", "iata": "VVO", "localCode": "\u0412\u0412\u041e", "name": "Vladivostok Knevichi", "shortName": "Knevichi", "municipalityName": "Vladivostok", "location": {"lat": 43.399, "lon": 132.148}, "countryCode": "RU"}, "averageDailyFlights": 4.29, "operators": [{"name": "Aurora", "iata": "HZ", "icao": "SHU"}, {"name": "S7 Airlines", "iata": "S7", "icao": "SBI"}, {"name": "Ural Airlines", "iata": "U6", "icao": "SVR"}]}, {"destination": {"icao": "UUEE", "iata": "SVO", "localCode": "\u0428\u0420\u041c", "name": "Moscow Sheremetyevo", "shortName": "Sheremetyevo", "municipalityName": "Moscow", "location": {"lat": 55.9726, "lon": 37.4146}, "countryCode": "RU"}, "averageDailyFlights": 3.43, "operators": [{"name": "Rossiya Airlines", "iata": "FV", "icao": "SDM"}, {"name": "Aeroflot", "iata": "SU", "icao": "AFL"}]}, {"destination": {"name": "Kurilsk"}, "averageDailyFlights": 2.29, "operators": [{"name": "Aurora", "iata": "HZ", "icao": "SHU"}]}, {"destination": {"icao": "UHSM", "iata": "DEE", "localCode": "\u042e\u0416\u041a", "name": "Kunashir Island Mendeleyevo", "shortName": "Mendeleyevo", "municipalityName": "Kunashir Island", "location": {"lat": 43.9584, "lon": 145.683}, "countryCode": "RU"}, "averageDailyFlights": 1.43, "operators": [{"name": "Aurora", "iata": "HZ", "icao": "SHU"}]}, {"destination": {"icao": "UNNT", "iata": "OVB", "localCode": "\u0422\u041b\u0427", "name": "Novosibirsk Tolmachevo", "shortName": "Tolmachevo", "municipalityName": "Novosibirsk", "location": {"lat": 55.0126, "lon": 82.6507}, "countryCode": "RU"}, "averageDailyFlights": 1.14, "operators": [{"name": "S7 Airlines", "iata": "S7", "icao": "SBI"}]}, {"destination": {"icao": "UHSH", "iata": "OHH", "localCode": "\u041e\u0425\u0410", "name": "Okha ", "shortName": "Okha", "municipalityName": "Okha", "location": {"lat": 53.52, "lon": 142.89}, "countryCode": "RU"}, "averageDailyFlights": 1.0, "operators": [{"name": "Aurora", "iata": "HZ", "icao": "SHU"}]}, {"destination": {"icao": "UHSK", "iata": "EKS", "localCode": "\u0428\u0410\u0425", "name": "Shakhtersk Shakhtyorsk", "shortName": "Shakhtyorsk", "municipalityName": "Shakhtersk", "location": {"lat": 49.1903, "lon": 142.083}, "countryCode": "RU"}, "averageDailyFlights": 1.0, "operators": [{"name": "Aurora", "iata": "HZ", "icao": "SHU"}]}, {"destination": {"icao": "UHKM", "iata": "GVN", "localCode": "\u0421\u041e\u0413", "name": "Sovetskaya Gavan Maygatka .", "shortName": "Maygatka .", "municipalityName": "Sovetskaya Gavan", "location": {"lat": 48.927, "lon": 140.034}, "countryCode": "RU"}, "averageDailyFlights": 0.86, "operators": [{"name": "Aurora", "iata": "HZ", "icao": "SHU"}]}, {"destination": {"icao": "UHBB", "iata": "BQS", "localCode": "\u0411\u0413\u0429", "name": "Blagoveschensk Ignatyevo", "shortName": "Ignatyevo", "municipalityName": "Blagoveschensk", "location": {"lat": 50.4254, "lon": 127.412}, "countryCode": "RU"}, "averageDailyFlights": 0.62, "operators": [{"name": "Aurora", "iata": "HZ", "icao": "SHU"}, {"name": "IrAero", "iata": "IO", "icao": "IAE"}, {"name": "Yakutia", "iata": "R3", "icao": "SYL"}]}, {"destination": {"icao": "UNKL", "iata": "KJA", "localCode": "\u041a\u042f\u0410", "name": "Krasnoyarsk Yemelyanovo", "shortName": "Yemelyanovo", "municipalityName": "Krasnoyarsk", "location": {"lat": 56.1729, "lon": 92.4933}, "countryCode": "RU"}, "averageDailyFlights": 0.57, "operators": [{"name": "Aurora", "iata": "HZ", "icao": "SHU"}]}, {"destination": {"icao": "UHPP", "iata": "PKC", "localCode": "\u041f\u0420\u041b", "name": "Petropavlovsk-Kamchatskiy Yelizovo", "shortName": "Yelizovo", "municipalityName": "Petropavlovsk-Kamchatskiy", "location": {"lat": 53.1679, "lon": 158.454}, "countryCode": "RU"}, "averageDailyFlights": 0.54, "operators": [{"name": "Aurora", "iata": "HZ", "icao": "SHU"}, {"name": "Yakutia", "iata": "R3", "icao": "SYL"}]}, {"destination": {"icao": "UIII", "iata": "IKT", "localCode": "\u0418\u041a\u0422", "name": "Irkutsk ", "shortName": "Irkutsk", "municipalityName": "Irkutsk", "location": {"lat": 52.268, "lon": 104.389}, "countryCode": "RU"}, "averageDailyFlights": 0.43, "operators": [{"name": "S7 Airlines", "iata": "S7", "icao": "SBI"}]}, {"destination": {"icao": "UHKK", "iata": "KXK", "localCode": "\u041a\u0421\u041b", "name": "Komsomolsk-on-Amur ", "shortName": "Komsomolsk-on-Amur", "municipalityName": "Komsomolsk-on-Amur", "location": {"lat": 50.409, "lon": 136.934}, "countryCode": "RU"}, "averageDailyFlights": 0.29, "operators": [{"name": "Angara Airlines", "iata": "2G", "icao": "AGU"}]}, {"destination": {"icao": "UHSO", "iata": "ZZO", "name": "Tymovskoye Zonalnoye", "shortName": "Zonalnoye", "municipalityName": "Tymovskoye", "location": {"lat": 50.6692, "lon": 142.761}, "countryCode": "RU"}, "averageDailyFlights": 0.29, "operators": [{"name": "Aurora", "iata": "HZ", "icao": "SHU"}]}, {"destination": {"icao": "UIAA", "iata": "HTA", "localCode": "\u0421\u0425\u0422", "name": "Chita Kadala", "shortName": "Kadala", "municipalityName": "Chita", "location": {"lat": 52.0263, "lon": 113.306}, "countryCode": "RU"}, "averageDailyFlights": 0.14, "operators": [{"name": "IrAero", "iata": "IO", "icao": "IAE"}]}, {"destination": {"icao": "ZYHB", "iata": "HRB", "name": "Harbin Taiping", "shortName": "Taiping", "municipalityName": "Harbin", "location": {"lat": 45.6234, "lon": 126.25}, "countryCode": "CN"}, "averageDailyFlights": 0.14, "operators": [{"name": "Aurora", "iata": "HZ", "icao": "SHU"}]}, {"destination": {"icao": "UIUU", "iata": "UUD", "localCode": "\u0423\u041b\u042d", "name": "Ulan-Ude Mukhino", "shortName": "Mukhino", "municipalityName": "Ulan-Ude", "location": {"lat": 51.8078, "lon": 107.438}, "countryCode": "RU"}, "averageDailyFlights": 0.14, "operators": [{"name": "IrAero", "iata": "IO", "icao": "IAE"}]}]}