{"routes": [{"destination": {"icao": "UUEE", "iata": "SVO", "localCode": "\u0428\u0420\u041c", "name": "Moscow Sheremetyevo", "shortName": "Sheremetyevo", "municipalityName": "Moscow", "location": {"lat": 55.9726, "lon": 37.4146}, "countryCode": "RU"}, "averageDailyFlights": 4.0, "operators": [{"name": "Aeroflot", "iata": "SU", "icao": "AFL"}, {"name": "Rossiya Airlines", "iata": "FV", "icao": "SDM"}, {"name": "Pobeda", "iata": "DP", "icao": "PBD"}]}, {"destination": {"icao": "URSS", "iata": "AER", "localCode": "\u0421\u041e\u0427", "name": "Sochi ", "shortName": "Sochi", "municipalityName": "Sochi", "location": {"lat": 43.4499, "lon": 39.9566}, "countryCode": "RU"}, "averageDailyFlights": 3.47, "operators": [{"name": "Aeroflot", "iata": "SU", "icao": "AFL"}, {"name": "Nordwind Airlines", "iata": "N4", "icao": "NWS"}, {"name": "Ural Airlines", "iata": "U6", "icao": "SVR"}, {"name": "NordStar Airlines", "iata": "Y7", "icao": "TYA"}, {"name": "Pegas Fly", "iata": "EO", "icao": "KAR"}, {"name": "Smartavia", "iata": "5N", "icao": "AUL"}, {"name": "Yakutia", "iata": "R3", "icao": "SYL"}]}, {"destination": {"icao": "UUDD", "iata": "DME", "localCode": "\u0414\u041c\u0414", "name": "Moscow Domodedovo", "shortName": "Domodedovo", "municipalityName": "Moscow", "location": {"lat": 55.4088, "lon": 37.9063}, "countryCode": "RU"}, "averageDailyFlights": 3.43, "operators": [{"name": "S7 Airlines", "iata": "S7", "icao": "SBI"}, {"name": "Ural Airlines", "iata": "U6", "icao": "SVR"}]}, {"destination": {"icao": "ULLI", "iata": "LED", "localCode": "\u041f\u041b\u041a", "name": "Saint-Petersburg Pulkovo", "shortName": "Pulkovo", "municipalityName": "Saint-Petersburg", "location": {"lat": 59.8003, "lon": 30.2625}, "countryCode": "RU"}, "averageDailyFlights": 2.86, "operators": [{"name": "Rossiya Airlines", "iata": "FV", "icao": "SDM"}, {"name": "Nordwind Airlines", "iata": "N4", "icao": "NWS"}]}, {"destination": {"icao": "UNNT", "iata": "OVB", "localCode": "\u0422\u041b\u0427", "name": "Novosibirsk Tolmachevo", "shortName": "Tolmachevo", "municipalityName": "Novosibirsk", "location": {"lat": 55.0126, "lon": 82.6507}, "countryCode": "RU"}, "averageDailyFlights": 2.29, "operators": [{"name": "S7 Airlines", "iata": "S7", "icao": "SBI"}]}, {"destination": {"icao": "USRR", "iata": "SGC", "localCode": "\u0421\u0423\u0420", "name": "Surgut ", "shortName": "Surgut", "municipalityName": "Surgut", "location": {"lat": 61.3437, "lon": 73.4018}, "countryCode": "RU"}, "averageDailyFlights": 1.0, "operators": [{"name": "UTAir", "iata": "UT", "icao": "UTA"}]}, {"destination": {"icao": "LTAI", "iata": "AYT", "name": "Antalya ", "shortName": "Antalya", "municipalityName": "Antalya", "location": {"lat": 36.8987, "lon": 30.8005}, "countryCode": "TR"}, "averageDailyFlights": 0.86, "operators": [{"name": "Turkish Airlines", "iata": "TK", "icao": "THY"}]}, {"destination": {"icao": "USSS", "iata": "SVX", "localCode": "\u041a\u041b\u0426", "name": "Ekaterinburg Koltsovo", "shortName": "Koltsovo", "municipalityName": "Ekaterinburg", "location": {"lat": 56.7431, "lon": 60.8027}, "countryCode": "RU"}, "averageDailyFlights": 0.57, "operators": [{"name": "Red Wings", "iata": "WZ", "icao": "RWZ"}]}, {"destination": {"icao": "UNKL", "iata": "KJA", "localCode": "\u041a\u042f\u0410", "name": "Krasnoyarsk Yemelyanovo", "shortName": "Yemelyanovo", "municipalityName": "Krasnoyarsk", "location": {"lat": 56.1729, "lon": 92.4933}, "countryCode": "RU"}, "averageDailyFlights": 0.57, "operators": [{"name": "KrasAvia", "iata": "KV", "icao": "SSJ"}, {"name": "NordStar Airlines", "iata": "Y7", "icao": "TYA"}]}, {"destination": {"icao": "UNAA", "iata": "ABA", "localCode": "\u0410\u0411\u041d", "name": "Abakan ", "shortName": "Abakan", "municipalityName": "Abakan", "location": {"lat": 53.74, "lon": 91.385}, "countryCode": "RU"}, "averageDailyFlights": 0.43, "operators": [{"name": "UVT Aero", "iata": "RT", "icao": "UVT"}]}, {"destination": {"icao": "UNBG", "iata": "RGK", "localCode": "\u0413\u041e\u0420", "name": "Gorno-Altaysk ", "shortName": "Gorno-Altaysk", "municipalityName": "Gorno-Altaysk", "location": {"lat": 51.9667, "lon": 85.8333}, "countryCode": "RU"}, "averageDailyFlights": 0.43, "operators": [{"name": "UVT Aero", "iata": "RT", "icao": "UVT"}]}, {"destination": {"icao": "UWKD", "iata": "KZN", "name": "Kazan ", "shortName": "Kazan", "municipalityName": "Kazan", "location": {"lat": 55.6062, "lon": 49.2787}, "countryCode": "RU"}, "averageDailyFlights": 0.43, "operators": [{"name": "Red Wings", "iata": "WZ", "icao": "RWZ"}, {"name": "Nordwind Airlines", "iata": "N4", "icao": "NWS"}]}, {"destination": {"icao": "USNN", "iata": "NJC", "localCode": "\u041d\u0416\u0412", "name": "Nizhnevartovsk ", "shortName": "Nizhnevartovsk", "municipalityName": "Nizhnevartovsk", "location": {"lat": 60.9493, "lon": 76.4836}, "countryCode": "RU"}, "averageDailyFlights": 0.43, "operators": [{"name": "UTAir", "iata": "UT", "icao": "UTA"}]}, {"destination": {"icao": "USDD", "iata": "SLY", "localCode": "\u0421\u0425\u0414", "name": "Salekhard ", "shortName": "Salekhard", "municipalityName": "Salekhard", "location": {"lat": 66.5908, "lon": 66.611}, "countryCode": "RU"}, "averageDailyFlights": 0.43, "operators": [{"name": "Yamal Airlines", "iata": "YC", "icao": "LLM"}]}, {"destination": {"icao": "UWWW", "iata": "KUF", "localCode": "\u0421\u041a\u0427", "name": "Samara Kurumoch", "shortName": "Kurumoch", "municipalityName": "Samara", "location": {"lat": 53.5049, "lon": 50.1643}, "countryCode": "RU"}, "averageDailyFlights": 0.43, "operators": [{"name": "UVT Aero", "iata": "RT", "icao": "UVT"}]}, {"destination": {"icao": "USHH", "iata": "HMA", "localCode": "\u0425\u0410\u0421", "name": "Khanty-Mansiysk Khanty Mansiysk", "shortName": "Khanty Mansiysk", "municipalityName": "Khanty-Mansiysk", "location": {"lat": 61.0285, "lon": 69.0861}, "countryCode": "RU"}, "averageDailyFlights": 0.29, "operators": [{"name": "UTAir", "iata": "UT", "icao": "UTA"}]}, {"destination": {"icao": "URML", "iata": "MCX", "localCode": "\u041c\u0425\u041b", "name": "Makhachkala Uytash", "shortName": "Uytash", "municipalityName": "Makhachkala", "location": {"lat": 42.8168, "lon": 47.6523}, "countryCode": "RU"}, "averageDailyFlights": 0.29, "operators": [{"name": "Nordwind Airlines", "iata": "N4", "icao": "NWS"}]}, {"destination": {"icao": "UERR", "iata": "MJZ", "localCode": "\u041c\u0418\u0420", "name": "Mirny ", "shortName": "Mirny", "municipalityName": "Mirny", "location": {"lat": 62.5347, "lon": 114.039}, "countryCode": "RU"}, "averageDailyFlights": 0.29, "operators": [{"name": "NordStar Airlines", "iata": "Y7", "icao": "TYA"}]}, {"destination": {"icao": "UTFN", "iata": "NMA", "localCode": "\u041d\u041c\u0413", "name": "Namangan ", "shortName": "Namangan", "municipalityName": "Namangan", "location": {"lat": 40.9846, "lon": 71.5567}, "countryCode": "UZ"}, "averageDailyFlights": 0.29, "operators": [{"name": "Uzbekistan Airways", "iata": "HY", "icao": "UZB"}]}, {"destination": {"icao": "USMU", "iata": "NUX", "localCode": "\u041d\u0423\u0420", "name": "Novyy Urengoy Novy Urengoy", "shortName": "Novy Urengoy", "municipalityName": "Novyy Urengoy", "location": {"lat": 66.0694, "lon": 76.5203}, "countryCode": "RU"}, "averageDailyFlights": 0.29, "operators": [{"name": "Yamal Airlines", "iata": "YC", "icao": "LLM"}]}, {"destination": {"icao": "UWUU", "iata": "UFA", "localCode": "\u0423\u0424\u0410", "name": "Ufa ", "shortName": "Ufa", "municipalityName": "Ufa", "location": {"lat": 54.5575, "lon": 55.8744}, "countryCode": "RU"}, "averageDailyFlights": 0.29, "operators": [{"name": "Azimuth Airlines", "iata": "A4", "icao": "AZO"}]}, {"destination": {"name": "Tomsk"}, "averageDailyFlights": 0.29, "operators": [{"name": "UVT Aero", "iata": "RT", "icao": "UVT"}]}, {"destination": {"icao": "URMM", "iata": "MRV", "localCode": "\u041c\u0420\u0412", "name": "Mineralnyye Vody ", "shortName": "Mineralnyye Vody", "municipalityName": "Mineralnyye Vody", "location": {"lat": 44.2251, "lon": 43.0819}, "countryCode": "RU"}, "averageDailyFlights": 0.14, "operators": [{"name": "Red Wings", "iata": "WZ", "icao": "RWZ"}]}, {"destination": {"icao": "UOOO", "iata": "NSK", "localCode": "\u041d\u0410\u041a", "name": "Norilsk Alykel", "shortName": "Alykel", "municipalityName": "Norilsk", "location": {"lat": 69.3111, "lon": 87.3322}, "countryCode": "RU"}, "averageDailyFlights": 0.14, "operators": [{"name": "NordStar Airlines", "iata": "Y7", "icao": "TYA"}]}, {"destination": {"icao": "UTTT", "iata": "TAS", "localCode": "\u0422\u0410\u0421", "name": "Tashkent ", "shortName": "Tashkent", "municipalityName": "Tashkent", "location": {"lat": 41.2579, "lon": 69.2812}, "countryCode": "UZ"}, "averageDailyFlights": 0.14, "operators": [{"name": "Uzbekistan Airways", "iata": "HY", "icao": "UZB"}]}, {"destination": {"icao": "USTR", "iata": "TJM", "localCode": "\u0420\u0429\u041d", "name": "Tyumen Roshchino", "shortName": "Roshchino", "municipalityName": "Tyumen", "location": {"lat": 57.1896, "lon": 65.3243}, "countryCode": "RU"}, "averageDailyFlights": 0.14, "operators": [{"name": "UTAir", "iata": "UT", "icao": "UTA"}]}, {"destination": {"icao": "UEEE", "iata": "YKS", "localCode": "\u042f\u041a\u0422", "name": "Yakutsk ", "shortName": "Yakutsk", "municipalityName": "Yakutsk", "location": {"lat": 62.0933, "lon": 129.771}, "countryCode": "RU"}, "averageDailyFlights": 0.14, "operators": [{"name": "Yakutia", "iata": "R3", "icao": "SYL"}]}, {"destination": {"name": "Astana"}, "averageDailyFlights": 0.14, "operators": [{"name": "Qazaq Air", "iata": "IQ", "icao": "QAZ"}]}]}