{"routes": [{"destination": {"icao": "VVNB", "iata": "HAN", "name": "Hanoi Noi Bai", "shortName": "Noi Bai", "municipalityName": "Hanoi", "location": {"lat": 21.2212, "lon": 105.807}, "countryCode": "VN"}, "averageDailyFlights": 25.43, "operators": [{"name": "VietJetAir", "iata": "VJ", "icao": "VJC"}, {"name": "Vietravel Airlines"}, {"name": "Vietnam Airlines", "iata": "VN", "icao": "HVN"}, {"name": "Bamboo Airways", "iata": "QH", "icao": "BAV"}]}, {"destination": {"icao": "VVTS", "iata": "SGN", "name": "Ho Chi Minh City Tan Son Nhat", "shortName": "Tan Son Nhat", "municipalityName": "Ho Chi Minh City", "location": {"lat": 10.818799, "lon": 106.652}, "countryCode": "VN"}, "averageDailyFlights": 13.57, "operators": [{"name": "VietJetAir", "iata": "VJ", "icao": "VJC"}, {"name": "Bamboo Airways", "iata": "QH", "icao": "BAV"}, {"name": "Vietnam Airlines", "iata": "VN", "icao": "HVN"}]}, {"destination": {"icao": "RKSI", "iata": "ICN", "name": "Seoul Incheon", "shortName": "Incheon", "municipalityName": "Seoul", "location": {"lat": 37.4691, "lon": 126.451}, "countryCode": "KR"}, "averageDailyFlights": 13.29, "operators": [{"name": "Jin Air", "iata": "LJ", "icao": "JNA"}, {"name": "Air Seoul", "iata": "RS", "icao": "ASV"}, {"name": "Air Busan", "iata": "BX", "icao": "ABL"}, {"name": "Korean Air", "iata": "KE", "icao": "KAL"}, {"name": "Jeju Air", "iata": "7C", "icao": "JJA"}, {"name": "VietJetAir", "iata": "VJ", "icao": "VJC"}, {"name": "Vietnam Airlines", "iata": "VN", "icao": "HVN"}, {"name": "T'Way Air", "iata": "TW", "icao": "TWB"}]}, {"destination": {"icao": "RKPK", "iata": "PUS", "name": "Busan-si Gimhae", "shortName": "Gimhae", "municipalityName": "Busan-si", "location": {"lat": 35.1795, "lon": 128.938}, "countryCode": "KR"}, "averageDailyFlights": 3.43, "operators": [{"name": "Air Busan", "iata": "BX", "icao": "ABL"}, {"name": "Jin Air", "iata": "LJ", "icao": "JNA"}, {"name": "VietJetAir", "iata": "VJ", "icao": "VJC"}]}, {"destination": {"icao": "VVCI", "iata": "HPH", "name": "Haiphong Cat Bi", "shortName": "Cat Bi", "municipalityName": "Haiphong", "location": {"lat": 20.8194, "lon": 106.725}, "countryCode": "VN"}, "averageDailyFlights": 2.86, "operators": [{"name": "VietJetAir", "iata": "VJ", "icao": "VJC"}, {"name": "Bamboo Airways", "iata": "QH", "icao": "BAV"}]}, {"destination": {"icao": "VVDN", "iata": "DAD", "name": "Da Nang ", "shortName": "Da Nang", "municipalityName": "Da Nang", "location": {"lat": 16.0439, "lon": 108.199}, "countryCode": "VN"}, "averageDailyFlights": 1.71, "operators": [{"name": "Vietnam Airlines", "iata": "VN", "icao": "HVN"}, {"name": "VietJetAir", "iata": "VJ", "icao": "VJC"}]}, {"destination": {"icao": "VVVH", "iata": "VII", "name": "Vinh ", "shortName": "Vinh", "municipalityName": "Vinh", "location": {"lat": 18.7376, "lon": 105.671}, "countryCode": "VN"}, "averageDailyFlights": 1.57, "operators": [{"name": "VietJetAir", "iata": "VJ", "icao": "VJC"}, {"name": "Vietnam Airlines", "iata": "VN", "icao": "HVN"}]}, {"destination": {"icao": "RKTU", "iata": "CJJ", "name": "Cheongju ", "shortName": "Cheongju", "municipalityName": "Cheongju", "location": {"lat": 36.7166, "lon": 127.499}, "countryCode": "KR"}, "averageDailyFlights": 1.14, "operators": [{"name": "T'Way Air", "iata": "TW", "icao": "TWB"}]}, {"destination": {"icao": "VMMC", "iata": "MFM", "name": "Taipa Macau", "shortName": "Macau", "municipalityName": "Taipa", "location": {"lat": 22.1496, "lon": 113.592}, "countryCode": "MO"}, "averageDailyFlights": 1.14, "operators": [{"name": "Bamboo Airways", "iata": "QH", "icao": "BAV"}]}, {"destination": {"icao": "VTBD", "iata": "DMK", "name": "Bangkok Don Mueang", "shortName": "Don Mueang", "municipalityName": "Bangkok", "location": {"lat": 13.912599, "lon": 100.607}, "countryCode": "TH"}, "averageDailyFlights": 0.86, "operators": [{"name": "Thai AirAsia", "iata": "FD", "icao": "AIQ"}]}, {"destination": {"icao": "VVPQ", "iata": "PQC", "name": "Duong Dong Phu Quoc", "shortName": "Phu Quoc", "municipalityName": "Duong Dong", "location": {"lat": 10.227, "lon": 103.967}, "countryCode": "VN"}, "averageDailyFlights": 0.71, "operators": [{"name": "VietJetAir", "iata": "VJ", "icao": "VJC"}]}, {"destination": {"icao": "VHHH", "iata": "HKG", "name": "Hong Kong Chek Lap Kok", "shortName": "Chek Lap Kok", "municipalityName": "Hong Kong", "location": {"lat": 22.3089, "lon": 113.915}, "countryCode": "HK"}, "averageDailyFlights": 0.71, "operators": [{"name": "Hong Kong Express", "iata": "UO", "icao": "HKE"}]}, {"destination": {"icao": "WMKK", "iata": "KUL", "name": "Kuala Lumpur ", "shortName": "Kuala Lumpur", "municipalityName": "Kuala Lumpur", "location": {"lat": 2.745579, "lon": 101.71}, "countryCode": "MY"}, "averageDailyFlights": 0.71, "operators": [{"name": "AirAsia", "iata": "AK", "icao": "AXM"}]}, {"destination": {"icao": "ZBAA", "iata": "PEK", "name": "Beijing Capital", "shortName": "Capital", "municipalityName": "Beijing", "location": {"lat": 40.0801, "lon": 116.585}, "countryCode": "CN"}, "averageDailyFlights": 0.29, "operators": [{"name": "Vietnam Airlines", "iata": "VN", "icao": "HVN"}]}, {"destination": {"icao": "ZSOF", "iata": "HFE", "name": "Hefei Luogang", "shortName": "Luogang", "municipalityName": "Hefei", "location": {"lat": 31.78, "lon": 117.298}, "countryCode": "CN"}, "averageDailyFlights": 0.29, "operators": [{"name": "Vietnam Airlines", "iata": "VN", "icao": "HVN"}]}, {"destination": {"icao": "ZSNJ", "iata": "NKG", "name": "Nanjing Lukou", "shortName": "Lukou", "municipalityName": "Nanjing", "location": {"lat": 31.742, "lon": 118.862}, "countryCode": "CN"}, "averageDailyFlights": 0.29, "operators": [{"name": "Vietnam Airlines", "iata": "VN", "icao": "HVN"}]}, {"destination": {"icao": "ZYTX", "iata": "SHE", "name": "Shenyang Taoxian", "shortName": "Taoxian", "municipalityName": "Shenyang", "location": {"lat": 41.6398, "lon": 123.483}, "countryCode": "CN"}, "averageDailyFlights": 0.29, "operators": [{"name": "Vietnam Airlines", "iata": "VN", "icao": "HVN"}]}, {"destination": {"icao": "ZSWX", "iata": "WUX", "name": "Wuxi Sunan Shuofang", "shortName": "Sunan Shuofang", "municipalityName": "Wuxi", "location": {"lat": 31.4944, "lon": 120.429}, "countryCode": "CN"}, "averageDailyFlights": 0.29, "operators": [{"name": "Vietnam Airlines", "iata": "VN", "icao": "HVN"}]}, {"destination": {"icao": "ZSCG", "iata": "CZX", "name": "Changzhou ", "shortName": "Changzhou", "municipalityName": "Changzhou", "location": {"lat": 31.9197, "lon": 119.779}, "countryCode": "CN"}, "averageDailyFlights": 0.14, "operators": [{"name": "Vietnam Airlines", "iata": "VN", "icao": "HVN"}]}, {"destination": {"icao": "ZYHB", "iata": "HRB", "name": "Harbin Taiping", "shortName": "Taiping", "municipalityName": "Harbin", "location": {"lat": 45.6234, "lon": 126.25}, "countryCode": "CN"}, "averageDailyFlights": 0.14, "operators": [{"name": "Vietnam Airlines", "iata": "VN", "icao": "HVN"}]}, {"destination": {"icao": "ZSPD", "iata": "PVG", "name": "Shanghai Pudong", "shortName": "Pudong", "municipalityName": "Shanghai", "location": {"lat": 31.1434, "lon": 121.805}, "countryCode": "CN"}, "averageDailyFlights": 0.14, "operators": [{"name": "Vietnam Airlines", "iata": "VN", "icao": "HVN"}]}, {"destination": {"icao": "ZBSJ", "iata": "SJW", "name": "Shijiazhuang Daguocun", "shortName": "Daguocun", "municipalityName": "Shijiazhuang", "location": {"lat": 38.2807, "lon": 114.697}, "countryCode": "CN"}, "averageDailyFlights": 0.14, "operators": [{"name": "Vietnam Airlines", "iata": "VN", "icao": "HVN"}]}, {"destination": {"icao": "UTTT", "iata": "TAS", "localCode": "\u0422\u0410\u0421", "name": "Tashkent ", "shortName": "Tashkent", "municipalityName": "Tashkent", "location": {"lat": 41.2579, "lon": 69.2812}, "countryCode": "UZ"}, "averageDailyFlights": 0.14, "operators": [{"name": "Taban Airlines", "iata": "HH", "icao": "TBN"}]}, {"destination": {"icao": "ZBTJ", "iata": "TSN", "name": "Tianjin Binhai", "shortName": "Binhai", "municipalityName": "Tianjin", "location": {"lat": 39.1244, "lon": 117.346}, "countryCode": "CN"}, "averageDailyFlights": 0.14, "operators": [{"name": "Vietnam Airlines", "iata": "VN", "icao": "HVN"}]}, {"destination": {"icao": "ZHCC", "iata": "CGO", "name": "Zhengzhou Xinzheng", "shortName": "Xinzheng", "municipalityName": "Zhengzhou", "location": {"lat": 34.5197, "lon": 113.841}, "countryCode": "CN"}, "averageDailyFlights": 0.14, "operators": [{"name": "Vietnam Airlines", "iata": "VN", "icao": "HVN"}]}]}