{"routes": [{"destination": {"icao": "WMKK", "iata": "KUL", "name": "Kuala Lumpur ", "shortName": "Kuala Lumpur", "municipalityName": "Kuala Lumpur", "location": {"lat": 2.745579, "lon": 101.71}, "countryCode": "MY"}, "averageDailyFlights": 23.43, "operators": [{"name": "Malaysia Airlines", "iata": "MH", "icao": "MAS"}, {"name": "AirAsia", "iata": "AK", "icao": "AXM"}, {"name": "Bek Air"}, {"name": "Malindo Air", "iata": "OD", "icao": "MXD"}]}, {"destination": {"icao": "WBGR", "iata": "MYY", "name": "Miri ", "shortName": "Miri", "municipalityName": "Miri", "location": {"lat": 4.32201, "lon": 113.987}, "countryCode": "MY"}, "averageDailyFlights": 7.0, "operators": [{"name": "AirAsia", "iata": "AK", "icao": "AXM"}, {"name": "Firefly", "iata": "FY", "icao": "FFM"}]}, {"destination": {"icao": "WBGS", "iata": "SBW", "name": "Sibu ", "shortName": "Sibu", "municipalityName": "Sibu", "location": {"lat": 2.2616, "lon": 111.985}, "countryCode": "MY"}, "averageDailyFlights": 6.14, "operators": [{"name": "AirAsia", "iata": "AK", "icao": "AXM"}]}, {"destination": {"icao": "WBGB", "iata": "BTU", "name": "Bintulu ", "shortName": "Bintulu", "municipalityName": "Bintulu", "location": {"lat": 3.12385, "lon": 113.02}, "countryCode": "MY"}, "averageDailyFlights": 4.57, "operators": [{"name": "AirAsia", "iata": "AK", "icao": "AXM"}]}, {"destination": {"icao": "WBKK", "iata": "BKI", "name": "Kota Kinabalu ", "shortName": "Kota Kinabalu", "municipalityName": "Kota Kinabalu", "location": {"lat": 5.93721, "lon": 116.051}, "countryCode": "MY"}, "averageDailyFlights": 4.43, "operators": [{"name": "AirAsia", "iata": "AK", "icao": "AXM"}, {"name": "Firefly", "iata": "FY", "icao": "FFM"}]}, {"destination": {"icao": "WSSS", "iata": "SIN", "name": "Singapore Changi", "shortName": "Changi", "municipalityName": "Singapore", "location": {"lat": 1.35019, "lon": 103.994}, "countryCode": "SG"}, "averageDailyFlights": 4.0, "operators": [{"name": "AirAsia", "iata": "AK", "icao": "AXM"}, {"name": "Tibet Airlines", "iata": "TV", "icao": "TBA"}, {"name": "Malaysia Airlines", "iata": "MH", "icao": "MAS"}]}, {"destination": {"icao": "WMKJ", "iata": "JHB", "name": "Senai ", "shortName": "Senai", "municipalityName": "Senai", "location": {"lat": 1.641309, "lon": 103.67}, "countryCode": "MY"}, "averageDailyFlights": 3.86, "operators": [{"name": "AirAsia", "iata": "AK", "icao": "AXM"}]}, {"destination": {"icao": "WBGK", "iata": "MKM", "name": "Mukah ", "shortName": "Mukah", "municipalityName": "Mukah", "location": {"lat": 2.906389, "lon": 112.08}, "countryCode": "MY"}, "averageDailyFlights": 3.43, "operators": [{"name": "Malaysia Airlines", "iata": "MH", "icao": "MAS"}]}, {"destination": {"icao": "WMKP", "iata": "PEN", "name": "Penang ", "shortName": "Penang", "municipalityName": "Penang", "location": {"lat": 5.29714, "lon": 100.277}, "countryCode": "MY"}, "averageDailyFlights": 2.0, "operators": [{"name": "Firefly", "iata": "FY", "icao": "FFM"}]}, {"destination": {"icao": "WBMU", "iata": "MZV", "name": "Mulu ", "shortName": "Mulu", "municipalityName": "Mulu", "location": {"lat": 4.048329, "lon": 114.805}, "countryCode": "MY"}, "averageDailyFlights": 1.14, "operators": [{"name": "Malaysia Airlines", "iata": "MH", "icao": "MAS"}]}, {"destination": {"icao": "WBGT", "iata": "TGC", "name": "Tanjung Manis ", "shortName": "Tanjung Manis", "municipalityName": "Tanjung Manis", "location": {"lat": 2.177839, "lon": 111.202}, "countryCode": "MY"}, "averageDailyFlights": 1.14, "operators": [{"name": "Malaysia Airlines", "iata": "MH", "icao": "MAS"}]}, {"destination": {"icao": "WBGJ", "iata": "LMN", "name": "Limbang ", "shortName": "Limbang", "municipalityName": "Limbang", "location": {"lat": 4.8083, "lon": 115.01}, "countryCode": "MY"}, "averageDailyFlights": 0.57, "operators": [{"name": "Malaysia Airlines", "iata": "MH", "icao": "MAS"}]}, {"destination": {"icao": "WIII", "iata": "CGK", "name": "Jakarta Soekarno-Hatta", "shortName": "Soekarno-Hatta", "municipalityName": "Jakarta", "location": {"lat": -6.125569, "lon": 106.656}, "countryCode": "ID"}, "averageDailyFlights": 0.43, "operators": [{"name": "Indonesia AirAsia", "iata": "QZ", "icao": "AWQ"}]}, {"destination": {"icao": "WMKC", "iata": "KBR", "name": "Kota Baharu Sultan Ismail Petra", "shortName": "Sultan Ismail Petra", "municipalityName": "Kota Baharu", "location": {"lat": 6.16685, "lon": 102.293}, "countryCode": "MY"}, "averageDailyFlights": 0.43, "operators": [{"name": "AirAsia", "iata": "AK", "icao": "AXM"}]}, {"destination": {"icao": "WBSB", "iata": "BWN", "name": "Bandar Seri Begawan Brunei", "shortName": "Brunei", "municipalityName": "Bandar Seri Begawan", "location": {"lat": 4.9442, "lon": 114.928}, "countryCode": "BN"}, "averageDailyFlights": 0.29, "operators": [{"name": "Royal Brunei Airlines", "iata": "BI", "icao": "RBA"}]}]}