{"routes": [{"destination": {"icao": "YBBN", "iata": "BNE", "name": "Brisbane City Brisbane", "shortName": "Brisbane", "municipalityName": "Brisbane City", "location": {"lat": -27.3842, "lon": 153.117}, "countryCode": "AU"}, "averageDailyFlights": 12.0, "operators": [{"name": "Qantas", "iata": "QF", "icao": "QFA"}, {"name": "Virgin Australia", "iata": "VA", "icao": "VOZ"}, {"name": "VJN"}]}, {"destination": {"icao": "YBMK", "iata": "MKY", "name": "Mackay ", "shortName": "Mackay", "municipalityName": "Mackay", "location": {"lat": -21.1717, "lon": 149.18}, "countryCode": "AU"}, "averageDailyFlights": 2.86, "operators": [{"name": "Sharp Airlines", "iata": "SH"}, {"name": "Qantas", "iata": "QF", "icao": "QFA"}]}, {"destination": {"icao": "YBCS", "iata": "CNS", "name": "Cairns ", "shortName": "Cairns", "municipalityName": "Cairns", "location": {"lat": -16.8858, "lon": 145.755}, "countryCode": "AU"}, "averageDailyFlights": 0.29, "operators": [{"name": "BNZ"}]}, {"destination": {"icao": "YBTL", "iata": "TSV", "name": "Townsville ", "shortName": "Townsville", "municipalityName": "Townsville", "location": {"lat": -19.2525, "lon": 146.765}, "countryCode": "AU"}, "averageDailyFlights": 0.29, "operators": [{"name": "BNZ"}]}, {"destination": {"icao": "YBSU", "iata": "MCY", "name": "Maroochydore Sunshine Coast", "shortName": "Sunshine Coast", "municipalityName": "Maroochydore", "location": {"lat": -26.6033, "lon": 153.091}, "countryCode": "AU"}, "averageDailyFlights": 0.14, "operators": [{"name": "BNZ"}]}, {"destination": {"icao": "YMML", "iata": "MEL", "name": "Melbourne City Melbourne", "shortName": "Melbourne", "municipalityName": "Melbourne City", "location": {"lat": -37.6733, "lon": 144.843}, "countryCode": "AU"}, "averageDailyFlights": 0.14, "operators": [{"name": "BNZ"}]}]}