{"routes": [{"destination": {"icao": "YBBN", "iata": "BNE", "name": "Brisbane City Brisbane", "shortName": "Brisbane", "municipalityName": "Brisbane City", "location": {"lat": -27.3842, "lon": 153.117}, "countryCode": "AU"}, "averageDailyFlights": 49.29, "operators": [{"name": "Qantas", "iata": "QF", "icao": "QFA"}, {"name": "TFR"}, {"name": "Jetstar", "iata": "JQ", "icao": "JST"}, {"name": "Virgin Australia", "iata": "VA", "icao": "VOZ"}, {"name": "Rex Regional Express", "iata": "ZL", "icao": "RXA"}, {"name": "JTE"}]}, {"destination": {"icao": "YMML", "iata": "MEL", "name": "Melbourne City Melbourne", "shortName": "Melbourne", "municipalityName": "Melbourne City", "location": {"lat": -37.6733, "lon": 144.843}, "countryCode": "AU"}, "averageDailyFlights": 41.57, "operators": [{"name": "TFR"}, {"name": "Qantas", "iata": "QF", "icao": "QFA"}, {"name": "Virgin Australia", "iata": "VA", "icao": "VOZ"}, {"name": "Rex Regional Express", "iata": "ZL", "icao": "RXA"}, {"name": "TFX"}, {"name": "JTE"}, {"name": "Air Labrador", "iata": "WJ", "icao": "LAL"}, {"name": "Qatar Airways", "iata": "QR", "icao": "QTR"}, {"name": "Singapore Airlines", "iata": "SQ", "icao": "SIA"}, {"name": "Cathay Pacific", "iata": "CX", "icao": "CPA"}]}, {"destination": {"icao": "YBCG", "iata": "OOL", "name": "Gold Coast", "shortName": "Coast", "municipalityName": "Gold", "location": {"lat": -28.1644, "lon": 153.505}, "countryCode": "AU"}, "averageDailyFlights": 24.14, "operators": [{"name": "Jetstar", "iata": "JQ", "icao": "JST"}, {"name": "JTE"}, {"name": "Virgin Australia", "iata": "VA", "icao": "VOZ"}, {"name": "Qantas", "iata": "QF", "icao": "QFA"}, {"name": "Rex Regional Express", "iata": "ZL", "icao": "RXA"}]}, {"destination": {"icao": "YSCB", "iata": "CBR", "name": "Canberra ", "shortName": "Canberra", "municipalityName": "Canberra", "location": {"lat": -35.3069, "lon": 149.195}, "countryCode": "AU"}, "averageDailyFlights": 23.0, "operators": [{"name": "Qantas", "iata": "QF", "icao": "QFA"}, {"name": "Virgin Australia", "iata": "VA", "icao": "VOZ"}]}, {"destination": {"icao": "YPAD", "iata": "ADL", "name": "Adelaide ", "shortName": "Adelaide", "municipalityName": "Adelaide", "location": {"lat": -34.945, "lon": 138.531}, "countryCode": "AU"}, "averageDailyFlights": 19.43, "operators": [{"name": "UYX"}, {"name": "Qantas", "iata": "QF", "icao": "QFA"}, {"name": "Virgin Australia", "iata": "VA", "icao": "VOZ"}, {"name": "Jetstar", "iata": "JQ", "icao": "JST"}, {"name": "Rex Regional Express", "iata": "ZL", "icao": "RXA"}, {"name": "JTE"}, {"name": "X8X"}, {"name": "JII"}]}, {"destination": {"icao": "YPPH", "iata": "PER", "name": "Perth International", "shortName": "International", "municipalityName": "Perth", "location": {"lat": -31.940277, "lon": 115.96694}, "countryCode": "AU"}, "averageDailyFlights": 16.14, "operators": [{"name": "Qantas", "iata": "QF", "icao": "QFA"}, {"name": "Virgin Australia", "iata": "VA", "icao": "VOZ"}, {"name": "Jetstar", "iata": "JQ", "icao": "JST"}]}, {"destination": {"icao": "NZAA", "iata": "AKL", "name": "Auckland ", "shortName": "Auckland", "municipalityName": "Auckland", "location": {"lat": -37.0081, "lon": 174.792}, "countryCode": "NZ"}, "averageDailyFlights": 14.0, "operators": [{"name": "Qantas", "iata": "QF", "icao": "QFA"}, {"name": "Jetstar", "iata": "JQ", "icao": "JST"}, {"name": "Air New Zealand", "iata": "NZ", "icao": "ANZ"}, {"name": "AirAsia X", "iata": "D7", "icao": "XAX"}, {"name": "LATAM", "iata": "LA", "icao": "LAN"}, {"name": "AWK"}]}, {"destination": {"icao": "WSSS", "iata": "SIN", "name": "Singapore Changi", "shortName": "Changi", "municipalityName": "Singapore", "location": {"lat": 1.35019, "lon": 103.994}, "countryCode": "SG"}, "averageDailyFlights": 11.86, "operators": [{"name": "Scoot", "iata": "TR", "icao": "TGW"}, {"name": "Singapore Airlines", "iata": "SQ", "icao": "SIA"}, {"name": "Qantas", "iata": "QF", "icao": "QFA"}, {"name": "Tibet Airlines", "iata": "TV", "icao": "TBA"}, {"name": "British Airways", "iata": "BA", "icao": "BAW"}]}, {"destination": {"icao": "YMAY", "iata": "ABX", "name": "Albury ", "shortName": "Albury", "municipalityName": "Albury", "location": {"lat": -36.0678, "lon": 146.958}, "countryCode": "AU"}, "averageDailyFlights": 8.43, "operators": [{"name": "Qantas", "iata": "QF", "icao": "QFA"}, {"name": "Rex Regional Express", "iata": "ZL", "icao": "RXA"}]}, {"destination": {"icao": "YBNA", "iata": "BNK", "name": "Ballina Byron Gateway", "shortName": "Byron Gateway", "municipalityName": "Ballina", "location": {"lat": -28.8339, "lon": 153.562}, "countryCode": "AU"}, "averageDailyFlights": 8.43, "operators": [{"name": "Jetstar", "iata": "JQ", "icao": "JST"}, {"name": "Qantas", "iata": "QF", "icao": "QFA"}, {"name": "Virgin Australia", "iata": "VA", "icao": "VOZ"}]}, {"destination": {"icao": "YBCS", "iata": "CNS", "name": "Cairns ", "shortName": "Cairns", "municipalityName": "Cairns", "location": {"lat": -16.8858, "lon": 145.755}, "countryCode": "AU"}, "averageDailyFlights": 8.29, "operators": [{"name": "Jetstar", "iata": "JQ", "icao": "JST"}, {"name": "Virgin Australia", "iata": "VA", "icao": "VOZ"}, {"name": "Qantas", "iata": "QF", "icao": "QFA"}]}, {"destination": {"icao": "YMHB", "iata": "HBA", "name": "Hobart ", "shortName": "Hobart", "municipalityName": "Hobart", "location": {"lat": -42.8361, "lon": 147.51}, "countryCode": "AU"}, "averageDailyFlights": 8.29, "operators": [{"name": "Jetstar", "iata": "JQ", "icao": "JST"}, {"name": "Virgin Australia", "iata": "VA", "icao": "VOZ"}, {"name": "Qantas", "iata": "QF", "icao": "QFA"}]}, {"destination": {"icao": "YCFS", "iata": "CFS", "name": "Coffs Harbour ", "shortName": "Coffs Harbour", "municipalityName": "Coffs Harbour", "location": {"lat": -30.3206, "lon": 153.116}, "countryCode": "AU"}, "averageDailyFlights": 8.14, "operators": [{"name": "Rex Regional Express", "iata": "ZL", "icao": "RXA"}, {"name": "Qantas", "iata": "QF", "icao": "QFA"}]}, {"destination": {"icao": "YBSU", "iata": "MCY", "name": "Maroochydore Sunshine Coast", "shortName": "Sunshine Coast", "municipalityName": "Maroochydore", "location": {"lat": -26.6033, "lon": 153.091}, "countryCode": "AU"}, "averageDailyFlights": 7.71, "operators": [{"name": "Jetstar", "iata": "JQ", "icao": "JST"}, {"name": "Virgin Australia", "iata": "VA", "icao": "VOZ"}, {"name": "Qantas", "iata": "QF", "icao": "QFA"}]}, {"destination": {"icao": "WADD", "iata": "DPS", "name": "Denpasar-Bali Island Ngurah Rai (Bali)", "shortName": "Ngurah Rai (Bali)", "municipalityName": "Denpasar-Bali Island", "location": {"lat": -8.748169, "lon": 115.167}, "countryCode": "ID"}, "averageDailyFlights": 7.43, "operators": [{"name": "Jetstar", "iata": "JQ", "icao": "JST"}, {"name": "Malindo Air", "iata": "OD", "icao": "MXD"}, {"name": "Batik Air", "iata": "ID", "icao": "BTK"}, {"name": "Qantas", "iata": "QF", "icao": "QFA"}, {"name": "Virgin Australia", "iata": "VA", "icao": "VOZ"}, {"name": "Garuda Indonesia", "iata": "GA", "icao": "GIA"}]}, {"destination": {"icao": "YPMQ", "iata": "PQQ", "name": "Port Macquarie ", "shortName": "Port Macquarie", "municipalityName": "Port Macquarie", "location": {"lat": -31.4358, "lon": 152.863}, "countryCode": "AU"}, "averageDailyFlights": 7.14, "operators": [{"name": "Qantas", "iata": "QF", "icao": "QFA"}, {"name": "Rex Regional Express", "iata": "ZL", "icao": "RXA"}]}, {"destination": {"icao": "YSWG", "iata": "WGA", "name": "Wagga Wagga City", "shortName": "City", "municipalityName": "Wagga Wagga", "location": {"lat": -35.1653, "lon": 147.466}, "countryCode": "AU"}, "averageDailyFlights": 6.43, "operators": [{"name": "Qantas", "iata": "QF", "icao": "QFA"}, {"name": "Rex Regional Express", "iata": "ZL", "icao": "RXA"}]}, {"destination": {"icao": "YARM", "iata": "ARM", "name": "Armidale ", "shortName": "Armidale", "municipalityName": "Armidale", "location": {"lat": -30.5281, "lon": 151.617}, "countryCode": "AU"}, "averageDailyFlights": 6.29, "operators": [{"name": "Qantas", "iata": "QF", "icao": "QFA"}, {"name": "Rex Regional Express", "iata": "ZL", "icao": "RXA"}]}, {"destination": {"icao": "YORG", "iata": "OAG", "name": "Orange ", "shortName": "Orange", "municipalityName": "Orange", "location": {"lat": -33.3817, "lon": 149.133}, "countryCode": "AU"}, "averageDailyFlights": 6.14, "operators": [{"name": "Qantas", "iata": "QF", "icao": "QFA"}, {"name": "Rex Regional Express", "iata": "ZL", "icao": "RXA"}]}, {"destination": {"icao": "YSDU", "iata": "DBO", "name": "Dubbo City Regional", "shortName": "City Regional", "municipalityName": "Dubbo", "location": {"lat": -32.2167, "lon": 148.575}, "countryCode": "AU"}, "averageDailyFlights": 5.16, "operators": [{"name": "Rex Regional Express", "iata": "ZL", "icao": "RXA"}, {"name": "Qantas", "iata": "QF", "icao": "QFA"}]}, {"destination": {"icao": "KLAX", "iata": "LAX", "name": "Los Angeles ", "shortName": "Los Angeles", "municipalityName": "Los Angeles", "location": {"lat": 33.9425, "lon": -118.408}, "countryCode": "US"}, "averageDailyFlights": 4.71, "operators": [{"name": "American Airlines", "iata": "AA", "icao": "AAL"}, {"name": "Delta Air Lines", "iata": "DL", "icao": "DAL"}, {"name": "United Airlines", "iata": "UA", "icao": "UAL"}, {"name": "Qantas", "iata": "QF", "icao": "QFA"}]}, {"destination": {"icao": "NFFN", "iata": "NAN", "name": "Nadi ", "shortName": "Nadi", "municipalityName": "Nadi", "location": {"lat": -17.7554, "lon": 177.443}, "countryCode": "FJ"}, "averageDailyFlights": 4.71, "operators": [{"name": "Fiji Airways", "iata": "FJ", "icao": "FJI"}, {"name": "Jetstar", "iata": "JQ", "icao": "JST"}, {"name": "Virgin Australia", "iata": "VA", "icao": "VOZ"}, {"name": "Qantas", "iata": "QF", "icao": "QFA"}]}, {"destination": {"icao": "NZQN", "iata": "ZQN", "name": "Queenstown ", "shortName": "Queenstown", "municipalityName": "Queenstown", "location": {"lat": -45.0211, "lon": 168.739}, "countryCode": "NZ"}, "averageDailyFlights": 4.71, "operators": [{"name": "Virgin Australia", "iata": "VA", "icao": "VOZ"}, {"name": "Air New Zealand", "iata": "NZ", "icao": "ANZ"}, {"name": "Qantas", "iata": "QF", "icao": "QFA"}, {"name": "Jetstar", "iata": "JQ", "icao": "JST"}]}, {"destination": {"icao": "YMAV", "iata": "AVV", "name": "Melbourne City Avalon", "shortName": "Avalon", "municipalityName": "Melbourne City", "location": {"lat": -38.0394, "lon": 144.469}, "countryCode": "AU"}, "averageDailyFlights": 4.57, "operators": [{"name": "Jetstar", "iata": "JQ", "icao": "JST"}]}, {"destination": {"icao": "RJTT", "iata": "HND", "name": "Tokyo ", "shortName": "Tokyo", "municipalityName": "Tokyo", "location": {"lat": 35.5523, "lon": 139.78}, "countryCode": "JP"}, "averageDailyFlights": 4.57, "operators": [{"name": "JAL", "iata": "JL", "icao": "JAL"}, {"name": "ANA", "iata": "NH", "icao": "ANA"}, {"name": "Qantas", "iata": "QF", "icao": "QFA"}]}, {"destination": {"icao": "YGTH", "iata": "GFF", "name": "Griffith ", "shortName": "Griffith", "municipalityName": "Griffith", "location": {"lat": -34.2508, "lon": 146.067}, "countryCode": "AU"}, "averageDailyFlights": 4.14, "operators": [{"name": "Qantas", "iata": "QF", "icao": "QFA"}, {"name": "Rex Regional Express", "iata": "ZL", "icao": "RXA"}]}, {"destination": {"icao": "WMKK", "iata": "KUL", "name": "Kuala Lumpur ", "shortName": "Kuala Lumpur", "municipalityName": "Kuala Lumpur", "location": {"lat": 2.745579, "lon": 101.71}, "countryCode": "MY"}, "averageDailyFlights": 4.14, "operators": [{"name": "Malaysia Airlines", "iata": "MH", "icao": "MAS"}, {"name": "AirAsia X", "iata": "D7", "icao": "XAX"}]}, {"destination": {"icao": "NZCH", "iata": "CHC", "name": "Christchurch ", "shortName": "Christchurch", "municipalityName": "Christchurch", "location": {"lat": -43.4894, "lon": 172.532}, "countryCode": "NZ"}, "averageDailyFlights": 4.0, "operators": [{"name": "Emirates", "iata": "EK", "icao": "UAE"}, {"name": "Air New Zealand", "iata": "NZ", "icao": "ANZ"}, {"name": "Qantas", "iata": "QF", "icao": "QFA"}]}, {"destination": {"icao": "YSTW", "iata": "TMW", "name": "Tamworth ", "shortName": "Tamworth", "municipalityName": "Tamworth", "location": {"lat": -31.0839, "lon": 150.847}, "countryCode": "AU"}, "averageDailyFlights": 4.0, "operators": [{"name": "Qantas", "iata": "QF", "icao": "QFA"}]}, {"destination": {"icao": "VHHH", "iata": "HKG", "name": "Hong Kong Chek Lap Kok", "shortName": "Chek Lap Kok", "municipalityName": "Hong Kong", "location": {"lat": 22.3089, "lon": 113.915}, "countryCode": "HK"}, "averageDailyFlights": 3.86, "operators": [{"name": "Qantas", "iata": "QF", "icao": "QFA"}, {"name": "Cathay Pacific", "iata": "CX", "icao": "CPA"}]}, {"destination": {"icao": "YMLT", "iata": "LST", "name": "Launceston ", "shortName": "Launceston", "municipalityName": "Launceston", "location": {"lat": -41.5453, "lon": 147.214}, "countryCode": "AU"}, "averageDailyFlights": 3.57, "operators": [{"name": "Jetstar", "iata": "JQ", "icao": "JST"}, {"name": "Qantas", "iata": "QF", "icao": "QFA"}, {"name": "Virgin Australia", "iata": "VA", "icao": "VOZ"}]}, {"destination": {"icao": "OMDB", "iata": "DXB", "name": "Dubai ", "shortName": "Dubai", "municipalityName": "Dubai", "location": {"lat": 25.252798, "lon": 55.3644}, "countryCode": "AE"}, "averageDailyFlights": 3.43, "operators": [{"name": "Emirates", "iata": "EK", "icao": "UAE"}]}, {"destination": {"icao": "RKSI", "iata": "ICN", "name": "Seoul Incheon", "shortName": "Incheon", "municipalityName": "Seoul", "location": {"lat": 37.4691, "lon": 126.451}, "countryCode": "KR"}, "averageDailyFlights": 3.29, "operators": [{"name": "Korean Air", "iata": "KE", "icao": "KAL"}, {"name": "Asiana Airlines", "iata": "OZ", "icao": "AAR"}, {"name": "Jetstar", "iata": "JQ", "icao": "JST"}, {"name": "T'Way Air", "iata": "TW", "icao": "TWB"}]}, {"destination": {"icao": "NZWN", "iata": "WLG", "name": "Wellington ", "shortName": "Wellington", "municipalityName": "Wellington", "location": {"lat": -41.3272, "lon": 174.805}, "countryCode": "NZ"}, "averageDailyFlights": 3.29, "operators": [{"name": "Qantas", "iata": "QF", "icao": "QFA"}, {"name": "Air New Zealand", "iata": "NZ", "icao": "ANZ"}]}, {"destination": {"icao": "YBHM", "iata": "HTI", "name": "Hamilton Island ", "shortName": "Hamilton Island", "municipalityName": "Hamilton Island", "location": {"lat": -20.3581, "lon": 148.952}, "countryCode": "AU"}, "averageDailyFlights": 3.14, "operators": [{"name": "Jetstar", "iata": "JQ", "icao": "JST"}, {"name": "Virgin Australia", "iata": "VA", "icao": "VOZ"}, {"name": "Qantas", "iata": "QF", "icao": "QFA"}]}, {"destination": {"icao": "RPLL", "iata": "MNL", "name": "Manila Ninoy Aquino", "shortName": "Ninoy Aquino", "municipalityName": "Manila", "location": {"lat": 14.5086, "lon": 121.02}, "countryCode": "PH"}, "averageDailyFlights": 3.0, "operators": [{"name": "Philippine Airlines", "iata": "PR", "icao": "PAL"}, {"name": "Qantas", "iata": "QF", "icao": "QFA"}, {"name": "Cebu Pacific Air", "iata": "5J", "icao": "CEB"}]}, {"destination": {"icao": "VTBS", "iata": "BKK", "name": "Bangkok Suvarnabhumi", "shortName": "Suvarnabhumi", "municipalityName": "Bangkok", "location": {"lat": 13.681099, "lon": 100.747}, "countryCode": "TH"}, "averageDailyFlights": 2.86, "operators": [{"name": "Qantas", "iata": "QF", "icao": "QFA"}, {"name": "Thai Airways International", "iata": "TG", "icao": "THA"}, {"name": "Thai AirAsia X", "iata": "XJ", "icao": "TAX"}]}, {"destination": {"icao": "YPKS", "iata": "PKE", "name": "Parkes ", "shortName": "Parkes", "municipalityName": "Parkes", "location": {"lat": -33.1314, "lon": 148.239}, "countryCode": "AU"}, "averageDailyFlights": 2.86, "operators": [{"name": "Rex Regional Express", "iata": "ZL", "icao": "RXA"}]}, {"destination": {"icao": "YMER", "iata": "MIM", "name": "Merimbula ", "shortName": "Merimbula", "municipalityName": "Merimbula", "location": {"lat": -36.9086, "lon": 149.901}, "countryCode": "AU"}, "averageDailyFlights": 2.71, "operators": [{"name": "Rex Regional Express", "iata": "ZL", "icao": "RXA"}, {"name": "Qantas", "iata": "QF", "icao": "QFA"}]}, {"destination": {"icao": "YPDN", "iata": "DRW", "name": "Port Darwin Darwin", "shortName": "Darwin", "municipalityName": "Port Darwin", "location": {"lat": -12.414699, "lon": 130.877}, "countryCode": "AU"}, "averageDailyFlights": 2.71, "operators": [{"name": "Qantas", "iata": "QF", "icao": "QFA"}, {"name": "Jetstar", "iata": "JQ", "icao": "JST"}]}, {"destination": {"icao": "ZGGG", "iata": "CAN", "name": "Guangzhou Baiyun", "shortName": "Baiyun", "municipalityName": "Guangzhou", "location": {"lat": 23.3924, "lon": 113.299}, "countryCode": "CN"}, "averageDailyFlights": 2.29, "operators": [{"name": "China Southern Airlines", "iata": "CZ", "icao": "CSN"}]}, {"destination": {"icao": "YBTL", "iata": "TSV", "name": "Townsville ", "shortName": "Townsville", "municipalityName": "Townsville", "location": {"lat": -19.2525, "lon": 146.765}, "countryCode": "AU"}, "averageDailyFlights": 2.29, "operators": [{"name": "Jetstar", "iata": "JQ", "icao": "JST"}, {"name": "Qantas", "iata": "QF", "icao": "QFA"}]}, {"destination": {"icao": "PHNL", "iata": "HNL", "name": "Honolulu ", "shortName": "Honolulu", "municipalityName": "Honolulu", "location": {"lat": 21.3187, "lon": -157.922}, "countryCode": "US"}, "averageDailyFlights": 2.14, "operators": [{"name": "Jetstar", "iata": "JQ", "icao": "JST"}, {"name": "Qantas", "iata": "QF", "icao": "QFA"}, {"name": "Hawaiian Airlines", "iata": "HA", "icao": "HAL"}]}, {"destination": {"icao": "YAYE", "iata": "AYQ", "name": "Ayers Rock Connellan", "shortName": "Connellan", "municipalityName": "Ayers Rock", "location": {"lat": -25.1861, "lon": 130.976}, "countryCode": "AU"}, "averageDailyFlights": 2.0, "operators": [{"name": "Qantas", "iata": "QF", "icao": "QFA"}, {"name": "Jetstar", "iata": "JQ", "icao": "JST"}]}, {"destination": {"icao": "YNAR", "iata": "NRA", "name": "Narrandera ", "shortName": "Narrandera", "municipalityName": "Narrandera", "location": {"lat": -34.7022, "lon": 146.512}, "countryCode": "AU"}, "averageDailyFlights": 2.0, "operators": [{"name": "Rex Regional Express", "iata": "ZL", "icao": "RXA"}]}, {"destination": {"icao": "YBHI", "iata": "BHQ", "name": "Broken Hill ", "shortName": "Broken Hill", "municipalityName": "Broken Hill", "location": {"lat": -32.0014, "lon": 141.472}, "countryCode": "AU"}, "averageDailyFlights": 1.86, "operators": [{"name": "Qantas", "iata": "QF", "icao": "QFA"}, {"name": "Rex Regional Express", "iata": "ZL", "icao": "RXA"}]}, {"destination": {"icao": "VVTS", "iata": "SGN", "name": "Ho Chi Minh City Tan Son Nhat", "shortName": "Tan Son Nhat", "municipalityName": "Ho Chi Minh City", "location": {"lat": 10.818799, "lon": 106.652}, "countryCode": "VN"}, "averageDailyFlights": 1.86, "operators": [{"name": "VietJetAir", "iata": "VJ", "icao": "VJC"}, {"name": "Bamboo Airways", "iata": "QH", "icao": "BAV"}, {"name": "Vietnam Airlines", "iata": "VN", "icao": "HVN"}, {"name": "Jetstar", "iata": "JQ", "icao": "JST"}]}, {"destination": {"icao": "WIII", "iata": "CGK", "name": "Jakarta Soekarno-Hatta", "shortName": "Soekarno-Hatta", "municipalityName": "Jakarta", "location": {"lat": -6.125569, "lon": 106.656}, "countryCode": "ID"}, "averageDailyFlights": 1.86, "operators": [{"name": "Garuda Indonesia", "iata": "GA", "icao": "GIA"}, {"name": "Qantas", "iata": "QF", "icao": "QFA"}]}, {"destination": {"icao": "YMOR", "iata": "MRZ", "name": "Moree ", "shortName": "Moree", "municipalityName": "Moree", "location": {"lat": -29.4989, "lon": 149.845}, "countryCode": "AU"}, "averageDailyFlights": 1.86, "operators": [{"name": "Qantas", "iata": "QF", "icao": "QFA"}]}, {"destination": {"icao": "YMIA", "iata": "MQL", "name": "Mildura ", "shortName": "Mildura", "municipalityName": "Mildura", "location": {"lat": -34.2292, "lon": 142.086}, "countryCode": "AU"}, "averageDailyFlights": 1.71, "operators": [{"name": "Qantas", "iata": "QF", "icao": "QFA"}]}, {"destination": {"icao": "CYVR", "iata": "YVR", "name": "Vancouver ", "shortName": "Vancouver", "municipalityName": "Vancouver", "location": {"lat": 49.1939, "lon": -123.184}, "countryCode": "CA"}, "averageDailyFlights": 1.71, "operators": [{"name": "Air Canada", "iata": "AC", "icao": "ACA"}, {"name": "Qantas", "iata": "QF", "icao": "QFA"}]}, {"destination": {"icao": "NWWW", "iata": "NOU", "name": "Noum\u00e9a La Tontouta", "shortName": "La Tontouta", "municipalityName": "Noum\u00e9a", "location": {"lat": -22.0146, "lon": 166.213}, "countryCode": "NC"}, "averageDailyFlights": 1.29, "operators": [{"name": "Qantas", "iata": "QF", "icao": "QFA"}, {"name": "Aircalin", "iata": "SB", "icao": "ACI"}]}, {"destination": {"icao": "KSFO", "iata": "SFO", "name": "San Francisco ", "shortName": "San Francisco", "municipalityName": "San Francisco", "location": {"lat": 37.619, "lon": -122.375}, "countryCode": "US"}, "averageDailyFlights": 1.29, "operators": [{"name": "United Airlines", "iata": "UA", "icao": "UAL"}, {"name": "Qantas", "iata": "QF", "icao": "QFA"}]}, {"destination": {"icao": "ZSPD", "iata": "PVG", "name": "Shanghai Pudong", "shortName": "Pudong", "municipalityName": "Shanghai", "location": {"lat": 31.1434, "lon": 121.805}, "countryCode": "CN"}, "averageDailyFlights": 1.29, "operators": [{"name": "China Eastern Airlines", "iata": "MU", "icao": "CES"}]}, {"destination": {"icao": "OMAA", "iata": "AUH", "name": "Abu Dhabi Island and Internal Islands City Abu Dhabi", "shortName": "Abu Dhabi", "municipalityName": "Abu Dhabi Island and Internal Islands City", "location": {"lat": 24.433, "lon": 54.6511}, "countryCode": "AE"}, "averageDailyFlights": 1.14, "operators": [{"name": "Etihad Airways", "iata": "EY", "icao": "ETD"}]}, {"destination": {"icao": "KDFW", "iata": "DFW", "name": "Dallas-Fort Worth ", "shortName": "Dallas-Fort Worth", "municipalityName": "Dallas-Fort Worth", "location": {"lat": 32.8968, "lon": -97.038}, "countryCode": "US"}, "averageDailyFlights": 1.14, "operators": [{"name": "Qantas", "iata": "QF", "icao": "QFA"}]}, {"destination": {"icao": "OTHH", "iata": "DOH", "name": "Doha Hamad", "shortName": "Hamad", "municipalityName": "Doha", "location": {"lat": 25.273056, "lon": 51.608055}, "countryCode": "QA"}, "averageDailyFlights": 1.14, "operators": [{"name": "Qatar Airways", "iata": "QR", "icao": "QTR"}]}, {"destination": {"icao": "FAOR", "iata": "JNB", "name": "Jo'anna OR Tambo", "shortName": "OR Tambo", "municipalityName": "Jo'anna", "location": {"lat": -26.1392, "lon": 28.246}, "countryCode": "ZA"}, "averageDailyFlights": 1.14, "operators": [{"name": "Qantas", "iata": "QF", "icao": "QFA"}]}, {"destination": {"icao": "VIDP", "iata": "DEL", "name": "New Delhi Indira Gandhi", "shortName": "Indira Gandhi", "municipalityName": "New Delhi", "location": {"lat": 28.5665, "lon": 77.1031}, "countryCode": "IN"}, "averageDailyFlights": 1.14, "operators": [{"name": "Air India", "iata": "AI", "icao": "AIC"}]}, {"destination": {"icao": "ZSAM", "iata": "XMN", "name": "Xiamen Gaoqi", "shortName": "Gaoqi", "municipalityName": "Xiamen", "location": {"lat": 24.544, "lon": 118.128}, "countryCode": "CN"}, "averageDailyFlights": 1.14, "operators": [{"name": "Xiamen Airlines", "iata": "MF", "icao": "CXA"}]}, {"destination": {"icao": "YLHI", "iata": "LDH", "name": "Lord Howe Island ", "shortName": "Lord Howe Island", "municipalityName": "Lord Howe Island", "location": {"lat": -31.5383, "lon": 159.077}, "countryCode": "AU"}, "averageDailyFlights": 1.0, "operators": [{"name": "Qantas", "iata": "QF", "icao": "QFA"}]}, {"destination": {"icao": "YMRY", "iata": "MYA", "name": "Moruya ", "shortName": "Moruya", "municipalityName": "Moruya", "location": {"lat": -35.8978, "lon": 150.144}, "countryCode": "AU"}, "averageDailyFlights": 1.0, "operators": [{"name": "Rex Regional Express", "iata": "ZL", "icao": "RXA"}]}, {"destination": {"icao": "YBPN", "iata": "PPP", "name": "Proserpine Whitsunday Coast", "shortName": "Whitsunday Coast", "municipalityName": "Proserpine", "location": {"lat": -20.495, "lon": 148.552}, "countryCode": "AU"}, "averageDailyFlights": 1.0, "operators": [{"name": "Jetstar", "iata": "JQ", "icao": "JST"}]}, {"destination": {"icao": "YBAS", "iata": "ASP", "name": "Springs Alice", "shortName": "Alice", "municipalityName": "Springs", "location": {"lat": -23.8067, "lon": 133.902}, "countryCode": "AU"}, "averageDailyFlights": 1.0, "operators": [{"name": "Qantas", "iata": "QF", "icao": "QFA"}]}, {"destination": {"icao": "RCTP", "iata": "TPE", "name": "Taipei Taiwan Taoyuan", "shortName": "Taiwan Taoyuan", "municipalityName": "Taipei", "location": {"lat": 25.0777, "lon": 121.233}, "countryCode": "TW"}, "averageDailyFlights": 0.86, "operators": [{"name": "China Airlines", "iata": "CI", "icao": "CAL"}]}, {"destination": {"icao": "YBWW", "iata": "WTB", "name": "Wellcamp Brisbane West", "shortName": "Brisbane West", "municipalityName": "Wellcamp", "location": {"lat": -27.558332, "lon": 151.79333}, "countryCode": "AU"}, "averageDailyFlights": 0.86, "operators": [{"name": "Qantas", "iata": "QF", "icao": "QFA"}]}, {"destination": {"icao": "YWLM", "iata": "NTL", "name": "Williamtown Newcastle", "shortName": "Newcastle", "municipalityName": "Williamtown", "location": {"lat": -32.795, "lon": 151.834}, "countryCode": "AU"}, "averageDailyFlights": 0.86, "operators": [{"name": "FlyPelican", "iata": "FP"}, {"name": "Peoples", "iata": "PE", "icao": "PEV"}]}, {"destination": {"icao": "YNBR", "iata": "NAA", "name": "Narrabri ", "shortName": "Narrabri", "municipalityName": "Narrabri", "location": {"lat": -30.3192, "lon": 149.827}, "countryCode": "AU"}, "averageDailyFlights": 0.71, "operators": [{"name": "Fly Corporate", "iata": "FC"}]}, {"destination": {"icao": "NVVV", "iata": "VLI", "name": "Port Vila Bauerfield", "shortName": "Bauerfield", "municipalityName": "Port Vila", "location": {"lat": -17.6993, "lon": 168.32}, "countryCode": "VU"}, "averageDailyFlights": 0.71, "operators": [{"name": "Air Vanuatu", "iata": "NF", "icao": "AVN"}]}, {"destination": {"icao": "ZBAA", "iata": "PEK", "name": "Beijing Capital", "shortName": "Capital", "municipalityName": "Beijing", "location": {"lat": 40.0801, "lon": 116.585}, "countryCode": "CN"}, "averageDailyFlights": 0.57, "operators": [{"name": "Air China", "iata": "CA", "icao": "CCA"}]}, {"destination": {"icao": "YSNF", "iata": "NLK", "name": "Burnt Pine Norfolk Island", "shortName": "Norfolk Island", "municipalityName": "Burnt Pine", "location": {"lat": -29.0416, "lon": 167.939}, "countryCode": "NF"}, "averageDailyFlights": 0.57, "operators": [{"name": "Qantas", "iata": "QF", "icao": "QFA"}]}, {"destination": {"icao": "VTSP", "iata": "HKT", "name": "Phuket ", "shortName": "Phuket", "municipalityName": "Phuket", "location": {"lat": 8.1132, "lon": 98.3169}, "countryCode": "TH"}, "averageDailyFlights": 0.57, "operators": [{"name": "Jetstar", "iata": "JQ", "icao": "JST"}]}, {"destination": {"icao": "SCEL", "iata": "SCL", "name": "Santiago Comodoro Arturo Merino Ben\u00edtez", "shortName": "Comodoro Arturo Merino Ben\u00edtez", "municipalityName": "Santiago", "location": {"lat": -33.393, "lon": -70.7858}, "countryCode": "CL"}, "averageDailyFlights": 0.57, "operators": [{"name": "Qantas", "iata": "QF", "icao": "QFA"}]}, {"destination": {"icao": "ZGSZ", "iata": "SZX", "name": "Shenzhen Bao'an", "shortName": "Bao'an", "municipalityName": "Shenzhen", "location": {"lat": 22.6393, "lon": 113.811}, "countryCode": "CN"}, "averageDailyFlights": 0.57, "operators": [{"name": "China Southern Airlines", "iata": "CZ", "icao": "CSN"}]}, {"destination": {"icao": "ZHHH", "iata": "WUH", "name": "Wuhan Tianhe", "shortName": "Tianhe", "municipalityName": "Wuhan", "location": {"lat": 30.7838, "lon": 114.208}, "countryCode": "CN"}, "averageDailyFlights": 0.57, "operators": [{"name": "China Eastern Airlines", "iata": "MU", "icao": "CES"}]}, {"destination": {"icao": "NCRG", "iata": "RAR", "name": "Avarua Rarotonga", "shortName": "Rarotonga", "municipalityName": "Avarua", "location": {"lat": -21.2027, "lon": -159.806}, "countryCode": "CK"}, "averageDailyFlights": 0.43, "operators": [{"name": "Jetstar", "iata": "JQ", "icao": "JST"}]}, {"destination": {"icao": "VOBL", "iata": "BLR", "name": "Bangalore Bengaluru", "shortName": "Bengaluru", "municipalityName": "Bangalore", "location": {"lat": 13.197899, "lon": 77.7063}, "countryCode": "IN"}, "averageDailyFlights": 0.43, "operators": [{"name": "Qantas", "iata": "QF", "icao": "QFA"}]}, {"destination": {"icao": "YBRM", "iata": "BME", "name": "Broome ", "shortName": "Broome", "municipalityName": "Broome", "location": {"lat": -17.9447, "lon": 122.232}, "countryCode": "AU"}, "averageDailyFlights": 0.43, "operators": [{"name": "Qantas", "iata": "QF", "icao": "QFA"}]}, {"destination": {"icao": "VCBI", "iata": "CMB", "name": "Colombo Bandaranaike", "shortName": "Bandaranaike", "municipalityName": "Colombo", "location": {"lat": 7.180759, "lon": 79.8841}, "countryCode": "LK"}, "averageDailyFlights": 0.43, "operators": [{"name": "SriLankan Airlines", "iata": "UL", "icao": "ALK"}]}, {"destination": {"icao": "YHBA", "iata": "HVB", "name": "Hervey Bay ", "shortName": "Hervey Bay", "municipalityName": "Hervey Bay", "location": {"lat": -25.3189, "lon": 152.88}, "countryCode": "AU"}, "averageDailyFlights": 0.43, "operators": [{"name": "Jetstar", "iata": "JQ", "icao": "JST"}]}, {"destination": {"icao": "ZSNJ", "iata": "NKG", "name": "Nanjing Lukou", "shortName": "Lukou", "municipalityName": "Nanjing", "location": {"lat": 31.742, "lon": 118.862}, "countryCode": "CN"}, "averageDailyFlights": 0.43, "operators": [{"name": "China Eastern Airlines", "iata": "MU", "icao": "CES"}]}, {"destination": {"icao": "ZSQD", "iata": "TAO", "name": "Qingdao Liuting", "shortName": "Liuting", "municipalityName": "Qingdao", "location": {"lat": 36.2661, "lon": 120.374}, "countryCode": "CN"}, "averageDailyFlights": 0.43, "operators": [{"name": "Beijing Capital Airlines", "iata": "JD", "icao": "CBJ"}]}, {"destination": {"name": "Mudgee"}, "averageDailyFlights": 0.43, "operators": [{"name": "FlyPelican", "iata": "FP"}]}, {"destination": {"icao": "NSFA", "iata": "APW", "name": "Apia Faleolo", "shortName": "Faleolo", "municipalityName": "Apia", "location": {"lat": -13.829999, "lon": -172.008}, "countryCode": "WS"}, "averageDailyFlights": 0.29, "operators": [{"name": "Virgin Australia", "iata": "VA", "icao": "VOZ"}]}, {"destination": {"icao": "ZJHK", "iata": "HAK", "name": "Haikou Meilan", "shortName": "Meilan", "municipalityName": "Haikou", "location": {"lat": 19.9349, "lon": 110.459}, "countryCode": "CN"}, "averageDailyFlights": 0.29, "operators": [{"name": "Hainan Airlines", "iata": "HU", "icao": "CHH"}]}, {"destination": {"icao": "VVNB", "iata": "HAN", "name": "Hanoi Noi Bai", "shortName": "Noi Bai", "municipalityName": "Hanoi", "location": {"lat": 21.2212, "lon": 105.807}, "countryCode": "VN"}, "averageDailyFlights": 0.29, "operators": [{"name": "Vietnam Airlines", "iata": "VN", "icao": "HVN"}]}, {"destination": {"icao": "NFTF", "iata": "TBU", "name": "Nuku'alofa Fua'amotu", "shortName": "Fua'amotu", "municipalityName": "Nuku'alofa", "location": {"lat": -21.2412, "lon": -175.15}, "countryCode": "TO"}, "averageDailyFlights": 0.29, "operators": [{"name": "Qantas", "iata": "QF", "icao": "QFA"}]}, {"destination": {"icao": "AYPY", "iata": "POM", "name": "Port Moresby Jacksons", "shortName": "Jacksons", "municipalityName": "Port Moresby", "location": {"lat": -9.44338, "lon": 147.22}, "countryCode": "PG"}, "averageDailyFlights": 0.29, "operators": [{"name": "Air Niugini", "iata": "PX", "icao": "ANG"}]}, {"destination": {"icao": "ZHCC", "iata": "CGO", "name": "Zhengzhou Xinzheng", "shortName": "Xinzheng", "municipalityName": "Zhengzhou", "location": {"lat": 34.5197, "lon": 113.841}, "countryCode": "CN"}, "averageDailyFlights": 0.29, "operators": [{"name": "Tianjin Airlines", "iata": "GS", "icao": "GCR"}]}, {"destination": {"name": "OOM"}, "averageDailyFlights": 0.29, "operators": [{"name": "FlyPelican", "iata": "FP"}]}, {"destination": {"icao": "YPKG", "iata": "KGI", "name": "Kalgoorlie Boulder", "shortName": "Boulder", "municipalityName": "Kalgoorlie", "location": {"lat": -30.7894, "lon": 121.462}, "countryCode": "AU"}, "averageDailyFlights": 0.14, "operators": [{"name": "Qantas", "iata": "QF", "icao": "QFA"}]}, {"destination": {"name": "CAZ"}, "averageDailyFlights": 0.14, "operators": [{"name": "FlyPelican", "iata": "FP"}]}, {"destination": {"name": "MRZ"}, "averageDailyFlights": 0.14, "operators": [{"name": "Qantas", "iata": "QF", "icao": "QFA"}]}, {"destination": {"name": "Newcastle"}, "averageDailyFlights": 0.14, "operators": [{"name": "Jetstar", "iata": "JQ", "icao": "JST"}]}, {"destination": {"name": "TMW"}, "averageDailyFlights": 0.14, "operators": [{"name": "Qantas", "iata": "QF", "icao": "QFA"}]}]}