{"routes": [{"destination": {"icao": "ZBAA", "iata": "PEK", "name": "Beijing Capital", "shortName": "Capital", "municipalityName": "Beijing", "location": {"lat": 40.0801, "lon": 116.585}, "countryCode": "CN"}, "averageDailyFlights": 1.14, "operators": [{"name": "Air China", "iata": "CA", "icao": "CCA"}]}, {"destination": {"icao": "ZSPD", "iata": "PVG", "name": "Shanghai Pudong", "shortName": "Pudong", "municipalityName": "Shanghai", "location": {"lat": 31.1434, "lon": 121.805}, "countryCode": "CN"}, "averageDailyFlights": 1.14, "operators": [{"name": "Juneyao Airlines", "iata": "HO", "icao": "DKH"}]}, {"destination": {"icao": "ZHHH", "iata": "WUH", "name": "Wuhan Tianhe", "shortName": "Tianhe", "municipalityName": "Wuhan", "location": {"lat": 30.7838, "lon": 114.208}, "countryCode": "CN"}, "averageDailyFlights": 1.14, "operators": [{"name": "China Southern Airlines", "iata": "CZ", "icao": "CSN"}]}, {"destination": {"icao": "ZBAD", "iata": "PKX", "name": "Beijing Daxing", "shortName": "Daxing", "municipalityName": "Beijing", "location": {"lat": 39.509167, "lon": 116.41055}, "countryCode": "CN"}, "averageDailyFlights": 0.71, "operators": [{"name": "Donghai Airlines", "iata": "DZ", "icao": "EPA"}]}, {"destination": {"icao": "ZUCK", "iata": "CKG", "name": "Chongqing Jiangbei", "shortName": "Jiangbei", "municipalityName": "Chongqing", "location": {"lat": 29.7192, "lon": 106.642}, "countryCode": "CN"}, "averageDailyFlights": 0.71, "operators": [{"name": "China Express Airlines", "iata": "G5", "icao": "HXA"}]}, {"destination": {"icao": "ZYTL", "iata": "DLC", "name": "Dalian Zhoushuizi", "shortName": "Zhoushuizi", "municipalityName": "Dalian", "location": {"lat": 38.9657, "lon": 121.539}, "countryCode": "CN"}, "averageDailyFlights": 0.71, "operators": [{"name": "China Express Airlines", "iata": "G5", "icao": "HXA"}]}, {"destination": {"icao": "ZGSZ", "iata": "SZX", "name": "Shenzhen Bao'an", "shortName": "Bao'an", "municipalityName": "Shenzhen", "location": {"lat": 22.6393, "lon": 113.811}, "countryCode": "CN"}, "averageDailyFlights": 0.71, "operators": [{"name": "Donghai Airlines", "iata": "DZ", "icao": "EPA"}]}, {"destination": {"icao": "ZBTJ", "iata": "TSN", "name": "Tianjin Binhai", "shortName": "Binhai", "municipalityName": "Tianjin", "location": {"lat": 39.1244, "lon": 117.346}, "countryCode": "CN"}, "averageDailyFlights": 0.71, "operators": [{"name": "China Express Airlines", "iata": "G5", "icao": "HXA"}]}, {"destination": {"name": "Chengdu"}, "averageDailyFlights": 0.71, "operators": [{"name": "China Express Airlines", "iata": "G5", "icao": "HXA"}]}, {"destination": {"icao": "ZSHC", "iata": "HGH", "name": "Hangzhou Xiaoshan", "shortName": "Xiaoshan", "municipalityName": "Hangzhou", "location": {"lat": 30.2295, "lon": 120.434}, "countryCode": "CN"}, "averageDailyFlights": 0.43, "operators": [{"name": "China Express Airlines", "iata": "G5", "icao": "HXA"}]}, {"destination": {"icao": "ZLXY", "iata": "XIY", "name": "Xianyang Xi'an", "shortName": "Xi'an", "municipalityName": "Xianyang", "location": {"lat": 34.4471, "lon": 108.752}, "countryCode": "CN"}, "averageDailyFlights": 0.43, "operators": [{"name": "China Express Airlines", "iata": "G5", "icao": "HXA"}]}]}