{"routes": [{"destination": {"icao": "ZWWW", "iata": "URC", "name": "\u00dcr\u00fcmqi Diwopu", "shortName": "Diwopu", "municipalityName": "\u00dcr\u00fcmqi", "location": {"lat": 43.9071, "lon": 87.4742}, "countryCode": "CN"}, "averageDailyFlights": 6.57, "operators": [{"name": "Tianjin Airlines", "iata": "GS", "icao": "GCR"}, {"name": "China Southern Airlines", "iata": "CZ", "icao": "CSN"}]}, {"destination": {"name": "Chengdu"}, "averageDailyFlights": 5.29, "operators": [{"name": "China Southern Airlines", "iata": "CZ", "icao": "CSN"}, {"name": "Air China", "iata": "CA", "icao": "CCA"}, {"name": "Sichuan Airlines", "iata": "3U", "icao": "CSC"}, {"name": "Spring Airlines", "iata": "9C", "icao": "CQH"}]}, {"destination": {"icao": "ZWAK", "iata": "AKU", "name": "Aksu ", "shortName": "Aksu", "municipalityName": "Aksu", "location": {"lat": 41.2625, "lon": 80.2917}, "countryCode": "CN"}, "averageDailyFlights": 3.43, "operators": [{"name": "China Express Airlines", "iata": "G5", "icao": "HXA"}]}, {"destination": {"icao": "ZSNJ", "iata": "NKG", "name": "Nanjing Lukou", "shortName": "Lukou", "municipalityName": "Nanjing", "location": {"lat": 31.742, "lon": 118.862}, "countryCode": "CN"}, "averageDailyFlights": 2.71, "operators": [{"name": "China Eastern Airlines", "iata": "MU", "icao": "CES"}, {"name": "China Southern Airlines", "iata": "CZ", "icao": "CSN"}]}, {"destination": {"icao": "ZBAD", "iata": "PKX", "name": "Beijing Daxing", "shortName": "Daxing", "municipalityName": "Beijing", "location": {"lat": 39.509167, "lon": 116.41055}, "countryCode": "CN"}, "averageDailyFlights": 2.29, "operators": [{"name": "China Southern Airlines", "iata": "CZ", "icao": "CSN"}, {"name": "Air China", "iata": "CA", "icao": "CCA"}]}, {"destination": {"icao": "ZLXY", "iata": "XIY", "name": "Xianyang Xi'an", "shortName": "Xi'an", "municipalityName": "Xianyang", "location": {"lat": 34.4471, "lon": 108.752}, "countryCode": "CN"}, "averageDailyFlights": 1.86, "operators": [{"name": "Beijing Capital Airlines", "iata": "JD", "icao": "CBJ"}, {"name": "China Eastern Airlines", "iata": "MU", "icao": "CES"}]}, {"destination": {"icao": "ZWTC", "iata": "TCG", "name": "Tacheng ", "shortName": "Tacheng", "municipalityName": "Tacheng", "location": {"lat": 46.6725, "lon": 83.3408}, "countryCode": "CN"}, "averageDailyFlights": 1.57, "operators": [{"name": "China Express Airlines", "iata": "G5", "icao": "HXA"}, {"name": "Tianjin Airlines", "iata": "GS", "icao": "GCR"}]}, {"destination": {"name": "Zhengzhou"}, "averageDailyFlights": 1.43, "operators": [{"name": "China Southern Airlines", "iata": "CZ", "icao": "CSN"}, {"name": "Spring Airlines", "iata": "9C", "icao": "CQH"}]}, {"destination": {"icao": "ZLLL", "iata": "LHW", "name": "Lanzhou Zhongchuan", "shortName": "Zhongchuan", "municipalityName": "Lanzhou", "location": {"lat": 36.5152, "lon": 103.62}, "countryCode": "CN"}, "averageDailyFlights": 1.29, "operators": [{"name": "Spring Airlines", "iata": "9C", "icao": "CQH"}]}, {"destination": {"name": "Xi'an"}, "averageDailyFlights": 1.29, "operators": [{"name": "China Eastern Airlines", "iata": "MU", "icao": "CES"}, {"name": "China Southern Airlines", "iata": "CZ", "icao": "CSN"}]}, {"destination": {"icao": "ZWKM", "iata": "KRY", "name": "Karamay ", "shortName": "Karamay", "municipalityName": "Karamay", "location": {"lat": 45.46655, "lon": 84.9527}, "countryCode": "CN"}, "averageDailyFlights": 1.14, "operators": [{"name": "China Express Airlines", "iata": "G5", "icao": "HXA"}]}, {"destination": {"icao": "ZWKC", "iata": "KCA", "name": "Kucha Kuqa", "shortName": "Kuqa", "municipalityName": "Kucha", "location": {"lat": 41.7181, "lon": 82.9869}, "countryCode": "CN"}, "averageDailyFlights": 1.14, "operators": [{"name": "China Express Airlines", "iata": "G5", "icao": "HXA"}]}, {"destination": {"icao": "ZSSS", "iata": "SHA", "name": "Shanghai Hongqiao", "shortName": "Hongqiao", "municipalityName": "Shanghai", "location": {"lat": 31.1979, "lon": 121.336}, "countryCode": "CN"}, "averageDailyFlights": 1.14, "operators": [{"name": "China Southern Airlines", "iata": "CZ", "icao": "CSN"}]}, {"destination": {"icao": "ZSPD", "iata": "PVG", "name": "Shanghai Pudong", "shortName": "Pudong", "municipalityName": "Shanghai", "location": {"lat": 31.1434, "lon": 121.805}, "countryCode": "CN"}, "averageDailyFlights": 1.14, "operators": [{"name": "China Eastern Airlines", "iata": "MU", "icao": "CES"}]}, {"destination": {"name": "Korla"}, "averageDailyFlights": 1.14, "operators": [{"name": "China Express Airlines", "iata": "G5", "icao": "HXA"}]}, {"destination": {"name": "Shache Airport"}, "averageDailyFlights": 1.0, "operators": [{"name": "Tianjin Airlines", "iata": "GS", "icao": "GCR"}]}, {"destination": {"icao": "ZWKN", "iata": "KJI", "name": "Burqin Kanas", "shortName": "Kanas", "municipalityName": "Burqin", "location": {"lat": 48.2223, "lon": 86.9959}, "countryCode": "CN"}, "averageDailyFlights": 0.86, "operators": [{"name": "Urumqi Airlines", "iata": "UQ", "icao": "CUH"}, {"name": "Tianjin Airlines", "iata": "GS", "icao": "GCR"}]}, {"destination": {"icao": "ZWSH", "iata": "KHG", "name": "Kashgar ", "shortName": "Kashgar", "municipalityName": "Kashgar", "location": {"lat": 39.5429, "lon": 76.02}, "countryCode": "CN"}, "averageDailyFlights": 0.86, "operators": [{"name": "China Southern Airlines", "iata": "CZ", "icao": "CSN"}, {"name": "Urumqi Airlines", "iata": "UQ", "icao": "CUH"}]}, {"destination": {"name": "Shankhayguan"}, "averageDailyFlights": 0.71, "operators": [{"name": "Chengdu Airlines"}]}, {"destination": {"icao": "ZUCK", "iata": "CKG", "name": "Chongqing Jiangbei", "shortName": "Jiangbei", "municipalityName": "Chongqing", "location": {"lat": 29.7192, "lon": 106.642}, "countryCode": "CN"}, "averageDailyFlights": 0.43, "operators": [{"name": "Chongqing Airlines", "iata": "OQ", "icao": "CQN"}]}, {"destination": {"icao": "ZSWX", "iata": "WUX", "name": "Wuxi Sunan Shuofang", "shortName": "Sunan Shuofang", "municipalityName": "Wuxi", "location": {"lat": 31.4944, "lon": 120.429}, "countryCode": "CN"}, "averageDailyFlights": 0.43, "operators": [{"name": "China Eastern Airlines", "iata": "MU", "icao": "CES"}]}, {"destination": {"name": "Guangzhou"}, "averageDailyFlights": 0.43, "operators": [{"name": "China Southern Airlines", "iata": "CZ", "icao": "CSN"}]}, {"destination": {"name": "Hotan"}, "averageDailyFlights": 0.43, "operators": [{"name": "Tianjin Airlines", "iata": "GS", "icao": "GCR"}]}, {"destination": {"name": "Wuhan"}, "averageDailyFlights": 0.43, "operators": [{"name": "China Southern Airlines", "iata": "CZ", "icao": "CSN"}]}, {"destination": {"icao": "ZWAT", "iata": "AAT", "name": "Altay Air Base", "shortName": "Air Base", "municipalityName": "Altay", "location": {"lat": 47.749886, "lon": 88.08581}, "countryCode": "CN"}, "averageDailyFlights": 0.4, "operators": [{"name": "China Southern Airlines", "iata": "CZ", "icao": "CSN"}, {"name": "Tianjin Airlines", "iata": "GS", "icao": "GCR"}]}, {"destination": {"name": "Buertszin"}, "averageDailyFlights": 0.14, "operators": [{"name": "Tianjin Airlines", "iata": "GS", "icao": "GCR"}]}]}