{"routes": [{"destination": {"icao": "CYYZ", "iata": "YYZ", "name": "Toronto Pearson", "shortName": "Pearson", "municipalityName": "Toronto", "location": {"lat": 43.6772, "lon": -79.6306}, "countryCode": "CA"}, "averageDailyFlights": 2.57, "operators": [{"name": "ASP"}, {"name": "Air Canada", "iata": "AC", "icao": "ACA"}]}, {"destination": {"icao": "CYTZ", "iata": "YTZ", "name": "Toronto Billy Bishop  City Centre", "shortName": "Billy Bishop  City Centre", "municipalityName": "Toronto", "location": {"lat": 43.6275, "lon": -79.3962}, "countryCode": "CA"}, "averageDailyFlights": 2.43, "operators": [{"name": "PUL"}, {"name": "Porter Airlines", "iata": "PD", "icao": "POE"}, {"name": "PTR"}]}, {"destination": {"icao": "CYHM", "iata": "YHM", "name": "Hamilton John C. Munro", "shortName": "John C. Munro", "municipalityName": "Hamilton", "location": {"lat": 43.1736, "lon": -79.935}, "countryCode": "CA"}, "averageDailyFlights": 0.86, "operators": [{"name": "SLQ"}, {"name": "TGO"}]}, {"destination": {"icao": "MUSC", "iata": "SNU", "name": "Santa Clara Abel Santamaria", "shortName": "Abel Santamaria", "municipalityName": "Santa Clara", "location": {"lat": 22.4922, "lon": -79.9436}, "countryCode": "CU"}, "averageDailyFlights": 0.29, "operators": [{"name": "Sunwing", "iata": "WG", "icao": "SWG"}]}, {"destination": {"icao": "MMUN", "iata": "CUN", "name": "Canc\u00fan ", "shortName": "Canc\u00fan", "municipalityName": "Canc\u00fan", "location": {"lat": 21.0365, "lon": -86.8771}, "countryCode": "MX"}, "averageDailyFlights": 0.14, "operators": [{"name": "Sunwing", "iata": "WG", "icao": "SWG"}]}, {"destination": {"icao": "MUCC", "iata": "CCC", "name": "Cayo Coco Jardines Del Rey", "shortName": "Jardines Del Rey", "municipalityName": "Cayo Coco", "location": {"lat": 22.461, "lon": -78.3284}, "countryCode": "CU"}, "averageDailyFlights": 0.14, "operators": [{"name": "Sunwing", "iata": "WG", "icao": "SWG"}]}, {"destination": {"icao": "KCLE", "iata": "CLE", "name": "Cleveland Hopkins", "shortName": "Hopkins", "municipalityName": "Cleveland", "location": {"lat": 41.4117, "lon": -81.8498}, "countryCode": "US"}, "averageDailyFlights": 0.14, "operators": [{"name": "LXJ"}]}, {"destination": {"icao": "KCAE", "iata": "CAE", "name": "Columbia Metropolitan", "shortName": "Metropolitan", "municipalityName": "Columbia", "location": {"lat": 33.9388, "lon": -81.1195}, "countryCode": "US"}, "averageDailyFlights": 0.14, "operators": [{"name": "NOJ"}]}, {"destination": {"icao": "KDTW", "iata": "DTW", "name": "Detroit Metropolitan Wayne County", "shortName": "Metropolitan Wayne County", "municipalityName": "Detroit", "location": {"lat": 42.2124, "lon": -83.3534}, "countryCode": "US"}, "averageDailyFlights": 0.14, "operators": [{"name": "NetJets Aviation", "iata": "1I", "icao": "EJA"}]}, {"destination": {"icao": "CYSB", "iata": "YSB", "name": "Greater Sudbury Sudbury", "shortName": "Sudbury", "municipalityName": "Greater Sudbury", "location": {"lat": 46.625, "lon": -80.7989}, "countryCode": "CA"}, "averageDailyFlights": 0.14, "operators": [{"name": "Air Berlin", "iata": "AB", "icao": "BER"}]}, {"destination": {"icao": "CYOW", "iata": "YOW", "name": "Ottawa Macdonald-Cartier", "shortName": "Macdonald-Cartier", "municipalityName": "Ottawa", "location": {"lat": 45.3225, "lon": -75.6692}, "countryCode": "CA"}, "averageDailyFlights": 0.14, "operators": [{"name": "TGO"}]}, {"destination": {"icao": "KPIT", "iata": "PIT", "name": "Pittsburgh ", "shortName": "Pittsburgh", "municipalityName": "Pittsburgh", "location": {"lat": 40.4915, "lon": -80.2329}, "countryCode": "US"}, "averageDailyFlights": 0.14, "operators": [{"name": "NetJets Aviation", "iata": "1I", "icao": "EJA"}]}, {"destination": {"icao": "KSUS", "iata": "SUS", "name": "Saint Louis Spirit of St Louis", "shortName": "Spirit of St Louis", "municipalityName": "Saint Louis", "location": {"lat": 38.6621, "lon": -90.652}, "countryCode": "US"}, "averageDailyFlights": 0.14, "operators": [{"name": "SYB"}]}, {"destination": {"icao": "KTEB", "iata": "TEB", "name": "Teterboro ", "shortName": "Teterboro", "municipalityName": "Teterboro", "location": {"lat": 40.8501, "lon": -74.0608}, "countryCode": "US"}, "averageDailyFlights": 0.14, "operators": [{"name": "XOJ"}]}, {"destination": {"icao": "MUVR", "iata": "VRA", "name": "Varadero Juan Gualberto Gomez", "shortName": "Juan Gualberto Gomez", "municipalityName": "Varadero", "location": {"lat": 23.0344, "lon": -81.4353}, "countryCode": "CU"}, "averageDailyFlights": 0.14, "operators": [{"name": "Sunwing", "iata": "WG", "icao": "SWG"}]}, {"destination": {"icao": "KHPN", "iata": "HPN", "name": "White Plains Westchester County", "shortName": "Westchester County", "municipalityName": "White Plains", "location": {"lat": 41.067, "lon": -73.7076}, "countryCode": "US"}, "averageDailyFlights": 0.14, "operators": [{"name": "SYB"}]}]}