{"routes": [{"destination": {"icao": "CYYZ", "iata": "YYZ", "name": "Toronto Pearson", "shortName": "Pearson", "municipalityName": "Toronto", "location": {"lat": 43.6772, "lon": -79.6306}, "countryCode": "CA"}, "averageDailyFlights": 13.0, "operators": [{"name": "WestJet", "iata": "WS", "icao": "WJA"}, {"name": "Air Canada", "iata": "AC", "icao": "ACA"}, {"name": "Porter Airlines", "iata": "PD", "icao": "POE"}, {"name": "Kish Air", "iata": "Y9", "icao": "KIS"}, {"name": "Flair Airlines", "iata": "F8", "icao": "FLE"}]}, {"destination": {"icao": "CYYC", "iata": "YYC", "name": "Calgary ", "shortName": "Calgary", "municipalityName": "Calgary", "location": {"lat": 51.1139, "lon": -114.02}, "countryCode": "CA"}, "averageDailyFlights": 6.86, "operators": [{"name": "WestJet", "iata": "WS", "icao": "WJA"}, {"name": "Air Canada", "iata": "AC", "icao": "ACA"}]}, {"destination": {"icao": "CYVR", "iata": "YVR", "name": "Vancouver ", "shortName": "Vancouver", "municipalityName": "Vancouver", "location": {"lat": 49.1939, "lon": -123.184}, "countryCode": "CA"}, "averageDailyFlights": 4.86, "operators": [{"name": "Air Canada", "iata": "AC", "icao": "ACA"}, {"name": "WestJet", "iata": "WS", "icao": "WJA"}, {"name": "Kish Air", "iata": "Y9", "icao": "KIS"}]}, {"destination": {"icao": "CYUL", "iata": "YUL", "name": "Montreal Trudeau", "shortName": "Trudeau", "municipalityName": "Montreal", "location": {"lat": 45.4706, "lon": -73.7408}, "countryCode": "CA"}, "averageDailyFlights": 2.57, "operators": [{"name": "Air Canada", "iata": "AC", "icao": "ACA"}]}, {"destination": {"icao": "KMSP", "iata": "MSP", "name": "Minneapolis Wold-Chamberlain", "shortName": "Wold-Chamberlain", "municipalityName": "Minneapolis", "location": {"lat": 44.882, "lon": -93.2218}, "countryCode": "US"}, "averageDailyFlights": 2.29, "operators": [{"name": "Delta Air Lines", "iata": "DL", "icao": "DAL"}]}, {"destination": {"name": "Rankin Inlet"}, "averageDailyFlights": 2.0, "operators": [{"name": "Calm Air International", "iata": "MO", "icao": "CAV"}]}, {"destination": {"icao": "MMUN", "iata": "CUN", "name": "Canc\u00fan ", "shortName": "Canc\u00fan", "municipalityName": "Canc\u00fan", "location": {"lat": 21.0365, "lon": -86.8771}, "countryCode": "MX"}, "averageDailyFlights": 1.86, "operators": [{"name": "Sunwing", "iata": "WG", "icao": "SWG"}, {"name": "WestJet", "iata": "WS", "icao": "WJA"}, {"name": "Air Canada", "iata": "AC", "icao": "ACA"}, {"name": "Flair Airlines", "iata": "F8", "icao": "FLE"}]}, {"destination": {"name": "Thompson"}, "averageDailyFlights": 1.71, "operators": [{"name": "Calm Air International", "iata": "MO", "icao": "CAV"}]}, {"destination": {"icao": "CYXE", "iata": "YXE", "name": "Saskatoon Diefenbaker", "shortName": "Diefenbaker", "municipalityName": "Saskatoon", "location": {"lat": 52.1708, "lon": -106.7}, "countryCode": "CA"}, "averageDailyFlights": 1.57, "operators": [{"name": "WestJet", "iata": "WS", "icao": "WJA"}]}, {"destination": {"name": "Red Lake"}, "averageDailyFlights": 1.43, "operators": [{"name": "Bearskin Airlines", "iata": "JV", "icao": "BLS"}, {"name": "0N"}]}, {"destination": {"icao": "MMPR", "iata": "PVR", "name": "Puerto Vallarta Licenciado Gustavo D\u00edaz Ordaz", "shortName": "Licenciado Gustavo D\u00edaz Ordaz", "municipalityName": "Puerto Vallarta", "location": {"lat": 20.6801, "lon": -105.254}, "countryCode": "MX"}, "averageDailyFlights": 1.29, "operators": [{"name": "WestJet", "iata": "WS", "icao": "WJA"}, {"name": "Sunwing", "iata": "WG", "icao": "SWG"}]}, {"destination": {"icao": "CYEG", "iata": "YEG", "name": "Edmonton ", "shortName": "Edmonton", "municipalityName": "Edmonton", "location": {"lat": 53.3097, "lon": -113.58}, "countryCode": "CA"}, "averageDailyFlights": 1.0, "operators": [{"name": "WestJet", "iata": "WS", "icao": "WJA"}]}, {"destination": {"icao": "CYFO", "iata": "YFO", "name": "Flin Flon ", "shortName": "Flin Flon", "municipalityName": "Flin Flon", "location": {"lat": 54.6781, "lon": -101.682}, "countryCode": "CA"}, "averageDailyFlights": 1.0, "operators": [{"name": "Calm Air International", "iata": "MO", "icao": "CAV"}]}, {"destination": {"icao": "CYQT", "iata": "YQT", "name": "Thunder Bay ", "shortName": "Thunder Bay", "municipalityName": "Thunder Bay", "location": {"lat": 48.3719, "lon": -89.3239}, "countryCode": "CA"}, "averageDailyFlights": 1.0, "operators": [{"name": "WestJet", "iata": "WS", "icao": "WJA"}]}, {"destination": {"name": "Gillam"}, "averageDailyFlights": 1.0, "operators": [{"name": "Calm Air International", "iata": "MO", "icao": "CAV"}]}, {"destination": {"icao": "KATL", "iata": "ATL", "name": "Atlanta Hartsfield Jackson", "shortName": "Hartsfield Jackson", "municipalityName": "Atlanta", "location": {"lat": 33.6367, "lon": -84.4281}, "countryCode": "US"}, "averageDailyFlights": 0.86, "operators": [{"name": "WestJet", "iata": "WS", "icao": "WJA"}]}, {"destination": {"icao": "KLAX", "iata": "LAX", "name": "Los Angeles ", "shortName": "Los Angeles", "municipalityName": "Los Angeles", "location": {"lat": 33.9425, "lon": -118.408}, "countryCode": "US"}, "averageDailyFlights": 0.57, "operators": [{"name": "WestJet", "iata": "WS", "icao": "WJA"}]}, {"destination": {"icao": "KMCO", "iata": "MCO", "name": "Orlando ", "shortName": "Orlando", "municipalityName": "Orlando", "location": {"lat": 28.4294, "lon": -81.309}, "countryCode": "US"}, "averageDailyFlights": 0.57, "operators": [{"name": "WestJet", "iata": "WS", "icao": "WJA"}, {"name": "Sunwing", "iata": "WG", "icao": "SWG"}]}, {"destination": {"icao": "KPSP", "iata": "PSP", "name": "Palm Springs ", "shortName": "Palm Springs", "municipalityName": "Palm Springs", "location": {"lat": 33.8297, "lon": -116.507}, "countryCode": "US"}, "averageDailyFlights": 0.57, "operators": [{"name": "WestJet", "iata": "WS", "icao": "WJA"}]}, {"destination": {"icao": "KPHX", "iata": "PHX", "name": "Phoenix Sky Harbor", "shortName": "Sky Harbor", "municipalityName": "Phoenix", "location": {"lat": 33.4343, "lon": -112.012}, "countryCode": "US"}, "averageDailyFlights": 0.57, "operators": [{"name": "WestJet", "iata": "WS", "icao": "WJA"}]}, {"destination": {"icao": "CYQR", "iata": "YQR", "name": "Regina ", "shortName": "Regina", "municipalityName": "Regina", "location": {"lat": 50.4319, "lon": -104.666}, "countryCode": "CA"}, "averageDailyFlights": 0.57, "operators": [{"name": "WestJet", "iata": "WS", "icao": "WJA"}]}, {"destination": {"icao": "KLAS", "iata": "LAS", "name": "Las Vegas McCarran", "shortName": "McCarran", "municipalityName": "Las Vegas", "location": {"lat": 36.0801, "lon": -115.152}, "countryCode": "US"}, "averageDailyFlights": 0.43, "operators": [{"name": "WestJet", "iata": "WS", "icao": "WJA"}]}, {"destination": {"icao": "CYOW", "iata": "YOW", "name": "Ottawa Macdonald-Cartier", "shortName": "Macdonald-Cartier", "municipalityName": "Ottawa", "location": {"lat": 45.3225, "lon": -75.6692}, "countryCode": "CA"}, "averageDailyFlights": 0.43, "operators": [{"name": "WestJet", "iata": "WS", "icao": "WJA"}]}, {"destination": {"icao": "MDPC", "iata": "PUJ", "name": "Punta Cana ", "shortName": "Punta Cana", "municipalityName": "Punta Cana", "location": {"lat": 18.567398, "lon": -68.3634}, "countryCode": "DO"}, "averageDailyFlights": 0.43, "operators": [{"name": "Sunwing", "iata": "WG", "icao": "SWG"}]}, {"destination": {"name": "Sanikiluaq"}, "averageDailyFlights": 0.43, "operators": [{"name": "Calm Air International", "iata": "MO", "icao": "CAV"}]}, {"destination": {"icao": "MUVR", "iata": "VRA", "name": "Varadero Juan Gualberto Gomez", "shortName": "Juan Gualberto Gomez", "municipalityName": "Varadero", "location": {"lat": 23.0344, "lon": -81.4353}, "countryCode": "CU"}, "averageDailyFlights": 0.32, "operators": [{"name": "Sunwing", "iata": "WG", "icao": "SWG"}]}, {"destination": {"icao": "MKJS", "iata": "MBJ", "name": "Montego Bay Sangster", "shortName": "Sangster", "municipalityName": "Montego Bay", "location": {"lat": 18.5037, "lon": -77.9134}, "countryCode": "JM"}, "averageDailyFlights": 0.29, "operators": [{"name": "WestJet", "iata": "WS", "icao": "WJA"}]}, {"destination": {"icao": "KSFB", "iata": "SFB", "name": "Orlando Sanford", "shortName": "Sanford", "municipalityName": "Orlando", "location": {"lat": 28.7776, "lon": -81.2375}, "countryCode": "US"}, "averageDailyFlights": 0.29, "operators": [{"name": "Flair Airlines", "iata": "F8", "icao": "FLE"}]}, {"destination": {"icao": "MUCC", "iata": "CCC", "name": "Cayo Coco Jardines Del Rey", "shortName": "Jardines Del Rey", "municipalityName": "Cayo Coco", "location": {"lat": 22.461, "lon": -78.3284}, "countryCode": "CU"}, "averageDailyFlights": 0.14, "operators": [{"name": "Sunwing", "iata": "WG", "icao": "SWG"}]}, {"destination": {"icao": "CYYQ", "iata": "YYQ", "name": "Churchill ", "shortName": "Churchill", "municipalityName": "Churchill", "location": {"lat": 58.7392, "lon": -94.065}, "countryCode": "CA"}, "averageDailyFlights": 0.14, "operators": [{"name": "Calm Air International", "iata": "MO", "icao": "CAV"}]}, {"destination": {"icao": "CYAG", "iata": "YAG", "name": "Fort Frances Municipal", "shortName": "Municipal", "municipalityName": "Fort Frances", "location": {"lat": 48.6542, "lon": -93.4397}, "countryCode": "CA"}, "averageDailyFlights": 0.14, "operators": [{"name": "PHX"}]}, {"destination": {"icao": "MMMZ", "iata": "MZT", "name": "Mazatl\u00e1n General Rafael Buelna", "shortName": "General Rafael Buelna", "municipalityName": "Mazatl\u00e1n", "location": {"lat": 23.1614, "lon": -106.266}, "countryCode": "MX"}, "averageDailyFlights": 0.14, "operators": [{"name": "Sunwing", "iata": "WG", "icao": "SWG"}]}, {"destination": {"icao": "CYOO", "iata": "YOO", "name": "Oshawa ", "shortName": "Oshawa", "municipalityName": "Oshawa", "location": {"lat": 43.9228, "lon": -78.895}, "countryCode": "CA"}, "averageDailyFlights": 0.14, "operators": [{"name": "BFF"}]}, {"destination": {"icao": "MDPP", "iata": "POP", "name": "Puerto Plata Gregorio Luperon", "shortName": "Gregorio Luperon", "municipalityName": "Puerto Plata", "location": {"lat": 19.7579, "lon": -70.57}, "countryCode": "DO"}, "averageDailyFlights": 0.14, "operators": [{"name": "Sunwing", "iata": "WG", "icao": "SWG"}]}, {"destination": {"icao": "MMBT", "iata": "HUX", "name": "Santa Mar\u00eda Huatulco Bah\u00edas de Huatulco", "shortName": "Bah\u00edas de Huatulco", "municipalityName": "Santa Mar\u00eda Huatulco", "location": {"lat": 15.7753, "lon": -96.2626}, "countryCode": "MX"}, "averageDailyFlights": 0.14, "operators": [{"name": "WestJet", "iata": "WS", "icao": "WJA"}]}]}