{"routes": [{"destination": {"icao": "DAAG", "iata": "ALG", "name": "Algiers Houari Boumediene", "shortName": "Houari Boumediene", "municipalityName": "Algiers", "location": {"lat": 36.691, "lon": 3.215409}, "countryCode": "DZ"}, "averageDailyFlights": 2.14, "operators": [{"name": "Air Algerie", "iata": "AH", "icao": "DAH"}, {"name": "Tassili Airlines", "iata": "SF", "icao": "DTH"}]}, {"destination": {"icao": "DATM", "iata": "BMW", "name": "Bordj Badji Mokhtar ", "shortName": "Bordj Badji Mokhtar", "municipalityName": "Bordj Badji Mokhtar", "location": {"lat": 21.375, "lon": 0.923888}, "countryCode": "DZ"}, "averageDailyFlights": 1.29, "operators": [{"name": "Air Algerie", "iata": "AH", "icao": "DAH"}]}, {"destination": {"icao": "DAOO", "iata": "ORN", "name": "Oran Es Senia", "shortName": "Es Senia", "municipalityName": "Oran", "location": {"lat": 35.6239, "lon": -0.621182}, "countryCode": "DZ"}, "averageDailyFlights": 0.86, "operators": [{"name": "Air Algerie", "iata": "AH", "icao": "DAH"}, {"name": "Tassili Airlines", "iata": "SF", "icao": "DTH"}]}, {"destination": {"icao": "DABC", "iata": "CZL", "name": "Constantine Mohamed Boudiaf", "shortName": "Mohamed Boudiaf", "municipalityName": "Constantine", "location": {"lat": 36.276, "lon": 6.620389}, "countryCode": "DZ"}, "averageDailyFlights": 0.14, "operators": [{"name": "Air Algerie", "iata": "AH", "icao": "DAH"}]}, {"destination": {"icao": "DAUG", "iata": "GHA", "name": "Gharda\u00efa Noum\u00e9rat - Moufdi Zakaria", "shortName": "Noum\u00e9rat - Moufdi Zakaria", "municipalityName": "Gharda\u00efa", "location": {"lat": 32.3841, "lon": 3.79411}, "countryCode": "DZ"}, "averageDailyFlights": 0.14, "operators": [{"name": "Air Algerie", "iata": "AH", "icao": "DAH"}]}, {"destination": {"icao": "DAUI", "iata": "INZ", "name": "In Salah ", "shortName": "In Salah", "municipalityName": "In Salah", "location": {"lat": 27.251, "lon": 2.51202}, "countryCode": "DZ"}, "averageDailyFlights": 0.14, "operators": [{"name": "Air Algerie", "iata": "AH", "icao": "DAH"}]}, {"destination": {"icao": "LEMD", "iata": "MAD", "name": "Madrid Adolfo Su\u00e1rez \u2013Barajas", "shortName": "Adolfo Su\u00e1rez \u2013Barajas", "municipalityName": "Madrid", "location": {"lat": 40.4936, "lon": -3.56676}, "countryCode": "ES"}, "averageDailyFlights": 0.14, "operators": [{"name": "Iberia", "iata": "IB", "icao": "IBE"}]}, {"destination": {"icao": "DAUU", "iata": "OGX", "name": "Ouargla Ain el Beida", "shortName": "Ain el Beida", "municipalityName": "Ouargla", "location": {"lat": 31.9172, "lon": 5.412779}, "countryCode": "DZ"}, "averageDailyFlights": 0.14, "operators": [{"name": "Air Algerie", "iata": "AH", "icao": "DAH"}]}, {"destination": {"icao": "DAAT", "iata": "TMR", "name": "Tamanghasset Aguenar \u2013 Hadj Bey Akhamok", "shortName": "Aguenar \u2013 Hadj Bey Akhamok", "municipalityName": "Tamanghasset", "location": {"lat": 22.8115, "lon": 5.451079}, "countryCode": "DZ"}, "averageDailyFlights": 0.14, "operators": [{"name": "Air Algerie", "iata": "AH", "icao": "DAH"}]}, {"destination": {"icao": "DAOF", "iata": "TIN", "name": "Tindouf ", "shortName": "Tindouf", "municipalityName": "Tindouf", "location": {"lat": 27.7004, "lon": -8.167099}, "countryCode": "DZ"}, "averageDailyFlights": 0.14, "operators": [{"name": "Air Algerie", "iata": "AH", "icao": "DAH"}]}]}