{"routes": [{"destination": {"icao": "EGJA", "iata": "ACI", "name": "St. Anne Alderney", "shortName": "Alderney", "municipalityName": "St. Anne", "location": {"lat": 49.7061, "lon": -2.21472}, "countryCode": "GG"}, "averageDailyFlights": 3.29, "operators": [{"name": "Aurigny Air Services", "iata": "GR", "icao": "AUR"}]}, {"destination": {"name": "London"}, "averageDailyFlights": 3.0, "operators": [{"name": "Aurigny Air Services", "iata": "GR", "icao": "AUR"}]}, {"destination": {"icao": "EGHI", "iata": "SOU", "name": "Southampton ", "shortName": "Southampton", "municipalityName": "Southampton", "location": {"lat": 50.9503, "lon": -1.356799}, "countryCode": "GB"}, "averageDailyFlights": 2.43, "operators": [{"name": "Aurigny Air Services", "iata": "GR", "icao": "AUR"}, {"name": "Blue Islands", "iata": "SI", "icao": "BCI"}]}, {"destination": {"icao": "EGJJ", "iata": "JER", "name": "St Helier Jersey", "shortName": "Jersey", "municipalityName": "St Helier", "location": {"lat": 49.2079, "lon": -2.195509}, "countryCode": "JE"}, "averageDailyFlights": 1.86, "operators": [{"name": "Blue Islands", "iata": "SI", "icao": "BCI"}]}, {"destination": {"icao": "EGCC", "iata": "MAN", "name": "Manchester ", "shortName": "Manchester", "municipalityName": "Manchester", "location": {"lat": 53.3537, "lon": -2.27495}, "countryCode": "GB"}, "averageDailyFlights": 1.57, "operators": [{"name": "Aurigny Air Services", "iata": "GR", "icao": "AUR"}]}, {"destination": {"icao": "EGBB", "iata": "BHX", "name": "Birmingham ", "shortName": "Birmingham", "municipalityName": "Birmingham", "location": {"lat": 52.4539, "lon": -1.748029}, "countryCode": "GB"}, "averageDailyFlights": 1.14, "operators": [{"name": "Aurigny Air Services", "iata": "GR", "icao": "AUR"}]}, {"destination": {"icao": "EGGD", "iata": "BRS", "name": "Bristol ", "shortName": "Bristol", "municipalityName": "Bristol", "location": {"lat": 51.3827, "lon": -2.719089}, "countryCode": "GB"}, "averageDailyFlights": 0.57, "operators": [{"name": "Aurigny Air Services", "iata": "GR", "icao": "AUR"}]}, {"destination": {"name": "Dzhersi"}, "averageDailyFlights": 0.57, "operators": [{"name": "Blue Islands", "iata": "SI", "icao": "BCI"}]}, {"destination": {"icao": "EGTE", "iata": "EXT", "name": "Exeter ", "shortName": "Exeter", "municipalityName": "Exeter", "location": {"lat": 50.7344, "lon": -3.413889}, "countryCode": "GB"}, "averageDailyFlights": 0.43, "operators": [{"name": "Aurigny Air Services", "iata": "GR", "icao": "AUR"}]}, {"destination": {"icao": "EGNX", "iata": "EMA", "name": "Nottingham East Midlands", "shortName": "East Midlands", "municipalityName": "Nottingham", "location": {"lat": 52.8311, "lon": -1.32806}, "countryCode": "GB"}, "averageDailyFlights": 0.29, "operators": [{"name": "SSZ"}, {"name": "NPT"}]}]}