{"routes": [{"destination": {"icao": "ENTC", "iata": "TOS", "name": "Troms\u00f8 ", "shortName": "Troms\u00f8", "municipalityName": "Troms\u00f8", "location": {"lat": 69.6833, "lon": 18.9189}, "countryCode": "NO"}, "averageDailyFlights": 4.29, "operators": [{"name": "Wideroe", "iata": "WF", "icao": "WIF"}, {"name": "Norwegian Air Shuttle", "iata": "DY", "icao": "NOZ"}, {"name": "SAS", "iata": "SK", "icao": "SAS"}]}, {"destination": {"icao": "ENGM", "iata": "OSL", "name": "Oslo Gardermoen", "shortName": "Gardermoen", "municipalityName": "Oslo", "location": {"lat": 60.1939, "lon": 11.100399}, "countryCode": "NO"}, "averageDailyFlights": 1.29, "operators": [{"name": "SAS", "iata": "SK", "icao": "SAS"}, {"name": "Norwegian Air Shuttle", "iata": "DY", "icao": "NOZ"}]}, {"destination": {"icao": "ENKR", "iata": "KKN", "name": "Kirkenes H\u00f8ybuktmoen", "shortName": "H\u00f8ybuktmoen", "municipalityName": "Kirkenes", "location": {"lat": 69.7258, "lon": 29.8913}, "countryCode": "NO"}, "averageDailyFlights": 1.0, "operators": [{"name": "Wideroe", "iata": "WF", "icao": "WIF"}, {"name": "SAS", "iata": "SK", "icao": "SAS"}]}, {"destination": {"icao": "ENVD", "iata": "VDS", "name": "Vads\u00f8 ", "shortName": "Vads\u00f8", "municipalityName": "Vads\u00f8", "location": {"lat": 70.0653, "lon": 29.8447}, "countryCode": "NO"}, "averageDailyFlights": 0.86, "operators": [{"name": "Wideroe", "iata": "WF", "icao": "WIF"}]}, {"destination": {"icao": "ENSR", "iata": "SOJ", "name": "S\u00f8rkjosen ", "shortName": "S\u00f8rkjosen", "municipalityName": "S\u00f8rkjosen", "location": {"lat": 69.7868, "lon": 20.9594}, "countryCode": "NO"}, "averageDailyFlights": 0.71, "operators": [{"name": "Wideroe", "iata": "WF", "icao": "WIF"}]}, {"destination": {"icao": "ENHF", "iata": "HFT", "name": "Hammerfest ", "shortName": "Hammerfest", "municipalityName": "Hammerfest", "location": {"lat": 70.6797, "lon": 23.6686}, "countryCode": "NO"}, "averageDailyFlights": 0.29, "operators": [{"name": "Wideroe", "iata": "WF", "icao": "WIF"}]}]}