{"routes": [{"destination": {"icao": "ESMS", "iata": "MMX", "name": "Malm\u00f6 Sturup", "shortName": "Sturup", "municipalityName": "Malm\u00f6", "location": {"lat": 55.536304, "lon": 13.376197}, "countryCode": "SE"}, "averageDailyFlights": 6.29, "operators": [{"name": "Braathens Regional", "iata": "TF", "icao": "BRX"}]}, {"destination": {"icao": "ESSV", "iata": "VBY", "name": "Visby ", "shortName": "Visby", "municipalityName": "Visby", "location": {"lat": 57.6628, "lon": 18.3462}, "countryCode": "SE"}, "averageDailyFlights": 5.71, "operators": [{"name": "Braathens Regional", "iata": "TF", "icao": "BRX"}]}, {"destination": {"icao": "ESGG", "iata": "GOT", "name": "Goteborg Gothenburg-Landvetter", "shortName": "Gothenburg-Landvetter", "municipalityName": "Goteborg", "location": {"lat": 57.6628, "lon": 12.2798}, "countryCode": "SE"}, "averageDailyFlights": 5.14, "operators": [{"name": "Braathens Regional", "iata": "TF", "icao": "BRX"}]}, {"destination": {"icao": "ESTA", "iata": "AGH", "name": "\u00c4ngelholm -Helsingborg", "shortName": "-Helsingborg", "municipalityName": "\u00c4ngelholm", "location": {"lat": 56.2961, "lon": 12.8471}, "countryCode": "SE"}, "averageDailyFlights": 4.43, "operators": [{"name": "Braathens Regional", "iata": "TF", "icao": "BRX"}]}, {"destination": {"icao": "ESNU", "iata": "UME", "name": "Ume\u00e5 ", "shortName": "Ume\u00e5", "municipalityName": "Ume\u00e5", "location": {"lat": 63.7918, "lon": 20.2828}, "countryCode": "SE"}, "averageDailyFlights": 3.29, "operators": [{"name": "Braathens Regional", "iata": "TF", "icao": "BRX"}]}, {"destination": {"icao": "ESMT", "iata": "HAD", "name": "Halmstad ", "shortName": "Halmstad", "municipalityName": "Halmstad", "location": {"lat": 56.6911, "lon": 12.820199}, "countryCode": "SE"}, "averageDailyFlights": 2.86, "operators": [{"name": "Braathens Regional", "iata": "TF", "icao": "BRX"}]}, {"destination": {"icao": "EFHK", "iata": "HEL", "name": "Helsinki Vantaa", "shortName": "Vantaa", "municipalityName": "Helsinki", "location": {"lat": 60.3172, "lon": 24.9633}, "countryCode": "FI"}, "averageDailyFlights": 2.0, "operators": [{"name": "Finnair", "iata": "AY", "icao": "FIN"}, {"name": "Braathens Regional", "iata": "TF", "icao": "BRX"}]}, {"destination": {"icao": "ESGT", "iata": "THN", "name": "Trollh\u00e4ttan -V\u00e4nersborg", "shortName": "-V\u00e4nersborg", "municipalityName": "Trollh\u00e4ttan", "location": {"lat": 58.3181, "lon": 12.345}, "countryCode": "SE"}, "averageDailyFlights": 1.71, "operators": [{"name": "Nyxair"}]}, {"destination": {"icao": "ESMX", "iata": "VXO", "name": "V\u00e4xj\u00f6 Kronoberg", "shortName": "Kronoberg", "municipalityName": "V\u00e4xj\u00f6", "location": {"lat": 56.9291, "lon": 14.727999}, "countryCode": "SE"}, "averageDailyFlights": 1.29, "operators": [{"name": "Braathens Regional", "iata": "TF", "icao": "BRX"}]}, {"destination": {"icao": "ESNZ", "iata": "OSD", "name": "\u00d6stersund \u00c5re", "shortName": "\u00c5re", "municipalityName": "\u00d6stersund", "location": {"lat": 63.1944, "lon": 14.5003}, "countryCode": "SE"}, "averageDailyFlights": 1.14, "operators": [{"name": "Braathens Regional", "iata": "TF", "icao": "BRX"}]}, {"destination": {"icao": "EKAH", "iata": "AAR", "name": "Aarhus ", "shortName": "Aarhus", "municipalityName": "Aarhus", "location": {"lat": 56.3, "lon": 10.619}, "countryCode": "DK"}, "averageDailyFlights": 0.86, "operators": [{"name": "Braathens Regional", "iata": "TF", "icao": "BRX"}]}, {"destination": {"name": "S\u00e4len"}, "averageDailyFlights": 0.57, "operators": [{"name": "Braathens Regional", "iata": "TF", "icao": "BRX"}]}, {"destination": {"icao": "ESSB", "iata": "BMA", "name": "Stockholm -Bromma", "shortName": "-Bromma", "municipalityName": "Stockholm", "location": {"lat": 59.3544, "lon": 17.941698}, "countryCode": "SE"}, "averageDailyFlights": 0.14, "operators": [{"name": "Braathens Regional", "iata": "TF", "icao": "BRX"}]}]}