{"routes": [{"destination": {"icao": "FACT", "iata": "CPT", "name": "Cape Town ", "shortName": "Cape Town", "municipalityName": "Cape Town", "location": {"lat": -33.9648, "lon": 18.6017}, "countryCode": "ZA"}, "averageDailyFlights": 12.43, "operators": [{"name": "Safair", "iata": "FA", "icao": "SFR"}, {"name": "CemAir", "iata": "5Z", "icao": "KEM"}, {"name": "FlexFlight", "iata": "W2", "icao": "FXT"}]}, {"destination": {"icao": "FAOR", "iata": "JNB", "name": "Jo'anna OR Tambo", "shortName": "OR Tambo", "municipalityName": "Jo'anna", "location": {"lat": -26.1392, "lon": 28.246}, "countryCode": "ZA"}, "averageDailyFlights": 12.43, "operators": [{"name": "South African Airlink", "iata": "4Z", "icao": "LNK"}, {"name": "CemAir", "iata": "5Z", "icao": "KEM"}, {"name": "South African Airways", "iata": "SA", "icao": "SAA"}, {"name": "Qatar Airways", "iata": "QR", "icao": "QTR"}, {"name": "FlexFlight", "iata": "W2", "icao": "FXT"}, {"name": "Turkish Airlines", "iata": "TK", "icao": "THY"}]}, {"destination": {"icao": "FALA", "iata": "HLA", "name": "Jo'anna Lanseria", "shortName": "Lanseria", "municipalityName": "Jo'anna", "location": {"lat": -25.9385, "lon": 27.9261}, "countryCode": "ZA"}, "averageDailyFlights": 3.71, "operators": [{"name": "Safair", "iata": "FA", "icao": "SFR"}]}, {"destination": {"icao": "FAPE", "iata": "PLZ", "name": "Port Elizabeth ", "shortName": "Port Elizabeth", "municipalityName": "Port Elizabeth", "location": {"lat": -33.9849, "lon": 25.6173}, "countryCode": "ZA"}, "averageDailyFlights": 3.14, "operators": [{"name": "South African Airlink", "iata": "4Z", "icao": "LNK"}, {"name": "Safair", "iata": "FA", "icao": "SFR"}]}, {"destination": {"icao": "FABL", "iata": "BFN", "name": "Bloemfontain Bram Fischer", "shortName": "Bram Fischer", "municipalityName": "Bloemfontain", "location": {"lat": -29.0927, "lon": 26.3024}, "countryCode": "ZA"}, "averageDailyFlights": 1.43, "operators": [{"name": "CemAir", "iata": "5Z", "icao": "KEM"}]}, {"destination": {"icao": "OMDB", "iata": "DXB", "name": "Dubai ", "shortName": "Dubai", "municipalityName": "Dubai", "location": {"lat": 25.252798, "lon": 55.3644}, "countryCode": "AE"}, "averageDailyFlights": 1.14, "operators": [{"name": "Emirates", "iata": "EK", "icao": "UAE"}]}, {"destination": {"icao": "FAKN", "iata": "MQP", "name": "Mpumalanga Kruger", "shortName": "Kruger", "municipalityName": "Mpumalanga", "location": {"lat": -25.3832, "lon": 31.1056}, "countryCode": "ZA"}, "averageDailyFlights": 1.14, "operators": [{"name": "South African Airlink", "iata": "4Z", "icao": "LNK"}]}, {"destination": {"icao": "FAEL", "iata": "ELS", "name": "East London Ben Schoeman", "shortName": "Ben Schoeman", "municipalityName": "East London", "location": {"lat": -33.0356, "lon": 27.8259}, "countryCode": "ZA"}, "averageDailyFlights": 0.86, "operators": [{"name": "Safair", "iata": "FA", "icao": "SFR"}]}, {"destination": {"icao": "FVHA", "iata": "HRE", "name": "Harare ", "shortName": "Harare", "municipalityName": "Harare", "location": {"lat": -17.9318, "lon": 31.0928}, "countryCode": "ZW"}, "averageDailyFlights": 0.86, "operators": [{"name": "South African Airlink", "iata": "4Z", "icao": "LNK"}]}, {"destination": {"icao": "FLLS", "iata": "LUN", "name": "Lusaka ", "shortName": "Lusaka", "municipalityName": "Lusaka", "location": {"lat": -15.3308, "lon": 28.4526}, "countryCode": "ZM"}, "averageDailyFlights": 0.43, "operators": [{"name": "Proflight Zambia", "iata": "P0", "icao": "PFZ"}]}, {"destination": {"icao": "FAGG", "iata": "GRJ", "name": "George ", "shortName": "George", "municipalityName": "George", "location": {"lat": -34.0056, "lon": 22.3789}, "countryCode": "ZA"}, "averageDailyFlights": 0.29, "operators": [{"name": "CemAir", "iata": "5Z", "icao": "KEM"}]}]}