{"routes": [{"destination": {"icao": "FAOR", "iata": "JNB", "name": "Jo'anna OR Tambo", "shortName": "OR Tambo", "municipalityName": "Jo'anna", "location": {"lat": -26.1392, "lon": 28.246}, "countryCode": "ZA"}, "averageDailyFlights": 7.43, "operators": [{"name": "LAM", "iata": "TM", "icao": "LAM"}, {"name": "South African Airlink", "iata": "4Z", "icao": "LNK"}, {"name": "Turkish Airlines", "iata": "TK", "icao": "THY"}, {"name": "Safair", "iata": "FA", "icao": "SFR"}]}, {"destination": {"icao": "FQBR", "iata": "BEW", "name": "Beira ", "shortName": "Beira", "municipalityName": "Beira", "location": {"lat": -19.7964, "lon": 34.9076}, "countryCode": "MZ"}, "averageDailyFlights": 3.29, "operators": [{"name": "LAM", "iata": "TM", "icao": "LAM"}]}, {"destination": {"icao": "FQNP", "iata": "APL", "name": "Nampula ", "shortName": "Nampula", "municipalityName": "Nampula", "location": {"lat": -15.1056, "lon": 39.2818}, "countryCode": "MZ"}, "averageDailyFlights": 2.29, "operators": [{"name": "LAM", "iata": "TM", "icao": "LAM"}]}, {"destination": {"icao": "FQTT", "iata": "TET", "name": "Tete Chingozi", "shortName": "Chingozi", "municipalityName": "Tete", "location": {"lat": -16.1048, "lon": 33.6402}, "countryCode": "MZ"}, "averageDailyFlights": 2.14, "operators": [{"name": "LAM", "iata": "TM", "icao": "LAM"}]}, {"destination": {"icao": "FQCH", "iata": "VPY", "name": "Chimoio ", "shortName": "Chimoio", "municipalityName": "Chimoio", "location": {"lat": -19.1513, "lon": 33.429}, "countryCode": "MZ"}, "averageDailyFlights": 1.14, "operators": [{"name": "LAM", "iata": "TM", "icao": "LAM"}]}, {"destination": {"icao": "LPPT", "iata": "LIS", "name": "Lisbon Portela", "shortName": "Portela", "municipalityName": "Lisbon", "location": {"lat": 38.7813, "lon": -9.135919}, "countryCode": "PT"}, "averageDailyFlights": 1.14, "operators": [{"name": "TAP Air Portugal", "iata": "TP", "icao": "TAP"}, {"name": "LAM", "iata": "TM", "icao": "LAM"}]}, {"destination": {"icao": "FQPB", "iata": "POL", "name": "Pemba / Porto Amelia Pemba", "shortName": "Pemba", "municipalityName": "Pemba / Porto Amelia", "location": {"lat": -12.991762, "lon": 40.524014}, "countryCode": "MZ"}, "averageDailyFlights": 1.14, "operators": [{"name": "LAM", "iata": "TM", "icao": "LAM"}]}, {"destination": {"icao": "FQQL", "iata": "UEL", "name": "Quelimane ", "shortName": "Quelimane", "municipalityName": "Quelimane", "location": {"lat": -17.8555, "lon": 36.8691}, "countryCode": "MZ"}, "averageDailyFlights": 1.14, "operators": [{"name": "LAM", "iata": "TM", "icao": "LAM"}]}, {"destination": {"icao": "FACT", "iata": "CPT", "name": "Cape Town ", "shortName": "Cape Town", "municipalityName": "Cape Town", "location": {"lat": -33.9648, "lon": 18.6017}, "countryCode": "ZA"}, "averageDailyFlights": 1.0, "operators": [{"name": "South African Airlink", "iata": "4Z", "icao": "LNK"}, {"name": "LAM", "iata": "TM", "icao": "LAM"}]}, {"destination": {"icao": "HAAB", "iata": "ADD", "name": "Addis Ababa Bole", "shortName": "Bole", "municipalityName": "Addis Ababa", "location": {"lat": 8.97789, "lon": 38.7993}, "countryCode": "ET"}, "averageDailyFlights": 0.86, "operators": [{"name": "Ethiopian Airlines", "iata": "ET", "icao": "ETH"}]}, {"destination": {"icao": "FQNC", "iata": "MNC", "name": "Cidade de Nacala Nacala", "shortName": "Nacala", "municipalityName": "Cidade de Nacala", "location": {"lat": -14.4882, "lon": 40.7122}, "countryCode": "MZ"}, "averageDailyFlights": 0.86, "operators": [{"name": "LAM", "iata": "TM", "icao": "LAM"}]}, {"destination": {"icao": "OTHH", "iata": "DOH", "name": "Doha Hamad", "shortName": "Hamad", "municipalityName": "Doha", "location": {"lat": 25.273056, "lon": 51.608055}, "countryCode": "QA"}, "averageDailyFlights": 0.71, "operators": [{"name": "Qatar Airways", "iata": "QR", "icao": "QTR"}]}, {"destination": {"icao": "FQVL", "iata": "VNX", "name": "Vilanculo Vilankulo", "shortName": "Vilankulo", "municipalityName": "Vilanculo", "location": {"lat": -22.0184, "lon": 35.3133}, "countryCode": "MZ"}, "averageDailyFlights": 0.71, "operators": [{"name": "LAM", "iata": "TM", "icao": "LAM"}]}, {"destination": {"icao": "FVHA", "iata": "HRE", "name": "Harare ", "shortName": "Harare", "municipalityName": "Harare", "location": {"lat": -17.9318, "lon": 31.0928}, "countryCode": "ZW"}, "averageDailyFlights": 0.57, "operators": [{"name": "LAM", "iata": "TM", "icao": "LAM"}]}, {"destination": {"icao": "FNLU", "iata": "LAD", "name": "Luanda Quatro de Fevereiro", "shortName": "Quatro de Fevereiro", "municipalityName": "Luanda", "location": {"lat": -8.858369, "lon": 13.2312}, "countryCode": "AO"}, "averageDailyFlights": 0.57, "operators": [{"name": "TAAG", "iata": "DT", "icao": "DTA"}]}, {"destination": {"icao": "FQIN", "iata": "INH", "name": "Inhambabe Inhambane", "shortName": "Inhambane", "municipalityName": "Inhambabe", "location": {"lat": -23.876398, "lon": 35.4085}, "countryCode": "MZ"}, "averageDailyFlights": 0.43, "operators": [{"name": "LAM", "iata": "TM", "icao": "LAM"}]}]}