{"routes": [{"destination": {"icao": "FAOR", "iata": "JNB", "name": "Jo'anna OR Tambo", "shortName": "OR Tambo", "municipalityName": "Jo'anna", "location": {"lat": -26.1392, "lon": 28.246}, "countryCode": "ZA"}, "averageDailyFlights": 1.57, "operators": [{"name": "LAM", "iata": "TM", "icao": "LAM"}, {"name": "South African Airlink", "iata": "4Z", "icao": "LNK"}]}, {"destination": {"icao": "FQMA", "iata": "MPM", "name": "Maputo ", "shortName": "Maputo", "municipalityName": "Maputo", "location": {"lat": -25.9208, "lon": 32.5726}, "countryCode": "MZ"}, "averageDailyFlights": 1.14, "operators": [{"name": "LAM", "iata": "TM", "icao": "LAM"}]}, {"destination": {"icao": "FQBR", "iata": "BEW", "name": "Beira ", "shortName": "Beira", "municipalityName": "Beira", "location": {"lat": -19.7964, "lon": 34.9076}, "countryCode": "MZ"}, "averageDailyFlights": 0.29, "operators": [{"name": "LAM", "iata": "TM", "icao": "LAM"}]}, {"destination": {"icao": "HTDA", "iata": "DAR", "name": "Dar es Salaam Julius Nyerere", "shortName": "Julius Nyerere", "municipalityName": "Dar es Salaam", "location": {"lat": -6.878109, "lon": 39.2026}, "countryCode": "TZ"}, "averageDailyFlights": 0.29, "operators": [{"name": "LAM", "iata": "TM", "icao": "LAM"}]}, {"destination": {"icao": "FQNP", "iata": "APL", "name": "Nampula ", "shortName": "Nampula", "municipalityName": "Nampula", "location": {"lat": -15.1056, "lon": 39.2818}, "countryCode": "MZ"}, "averageDailyFlights": 0.29, "operators": [{"name": "LAM", "iata": "TM", "icao": "LAM"}]}, {"destination": {"icao": "FQTT", "iata": "TET", "name": "Tete Chingozi", "shortName": "Chingozi", "municipalityName": "Tete", "location": {"lat": -16.1048, "lon": 33.6402}, "countryCode": "MZ"}, "averageDailyFlights": 0.29, "operators": [{"name": "LAM", "iata": "TM", "icao": "LAM"}]}]}