{"routes": [{"destination": {"icao": "FZAA", "iata": "FIH", "name": "Kinshasa Ndjili", "shortName": "Ndjili", "municipalityName": "Kinshasa", "location": {"lat": -4.385749, "lon": 15.4446}, "countryCode": "CD"}, "averageDailyFlights": 2.14, "operators": [{"name": "CAA", "iata": "BU"}, {"name": "VI Airlink", "iata": "V6", "icao": "VIL"}]}, {"destination": {"icao": "FAOR", "iata": "JNB", "name": "Jo'anna OR Tambo", "shortName": "OR Tambo", "municipalityName": "Jo'anna", "location": {"lat": -26.1392, "lon": 28.246}, "countryCode": "ZA"}, "averageDailyFlights": 1.14, "operators": [{"name": "South African Airlink", "iata": "4Z", "icao": "LNK"}]}, {"destination": {"icao": "FZWA", "iata": "MJM", "name": "Mbuji Mayi ", "shortName": "Mbuji Mayi", "municipalityName": "Mbuji Mayi", "location": {"lat": -6.12124, "lon": 23.569}, "countryCode": "CD"}, "averageDailyFlights": 0.98, "operators": [{"name": "CAA", "iata": "BU"}, {"name": "VI Airlink", "iata": "V6", "icao": "VIL"}]}, {"destination": {"icao": "HTDA", "iata": "DAR", "name": "Dar es Salaam Julius Nyerere", "shortName": "Julius Nyerere", "municipalityName": "Dar es Salaam", "location": {"lat": -6.878109, "lon": 39.2026}, "countryCode": "TZ"}, "averageDailyFlights": 0.71, "operators": [{"name": "Air Tanzania", "iata": "TC", "icao": "ATC"}]}, {"destination": {"icao": "FWKI", "iata": "LLW", "name": "Lilongwe ", "shortName": "Lilongwe", "municipalityName": "Lilongwe", "location": {"lat": -13.7894, "lon": 33.781}, "countryCode": "MW"}, "averageDailyFlights": 0.71, "operators": [{"name": "Ethiopian Airlines", "iata": "ET", "icao": "ETH"}]}, {"destination": {"icao": "HKJK", "iata": "NBO", "name": "Nairobi Jomo Kenyatta", "shortName": "Jomo Kenyatta", "municipalityName": "Nairobi", "location": {"lat": -1.319239, "lon": 36.9278}, "countryCode": "KE"}, "averageDailyFlights": 0.46, "operators": [{"name": "AZUR Air", "iata": "ZF", "icao": "KTK"}, {"name": "Kenya Airways", "iata": "KQ", "icao": "KQA"}]}, {"destination": {"icao": "HAAB", "iata": "ADD", "name": "Addis Ababa Bole", "shortName": "Bole", "municipalityName": "Addis Ababa", "location": {"lat": 8.97789, "lon": 38.7993}, "countryCode": "ET"}, "averageDailyFlights": 0.43, "operators": [{"name": "Ethiopian Airlines", "iata": "ET", "icao": "ETH"}]}, {"destination": {"icao": "FZIC", "iata": "FKI", "name": "Kisangani Bangoka", "shortName": "Bangoka", "municipalityName": "Kisangani", "location": {"lat": 0.481638, "lon": 25.338}, "countryCode": "CD"}, "averageDailyFlights": 0.29, "operators": [{"name": "VI Airlink", "iata": "V6", "icao": "VIL"}]}, {"destination": {"name": "Kananga"}, "averageDailyFlights": 0.29, "operators": [{"name": "VI Airlink", "iata": "V6", "icao": "VIL"}, {"name": "CAA", "iata": "BU"}]}, {"destination": {"icao": "FZNA", "iata": "GOM", "name": "Goma ", "shortName": "Goma", "municipalityName": "Goma", "location": {"lat": -1.670809, "lon": 29.2385}, "countryCode": "CD"}, "averageDailyFlights": 0.14, "operators": [{"name": "VI Airlink", "iata": "V6", "icao": "VIL"}]}]}