{"routes": [{"destination": {"icao": "HECA", "iata": "CAI", "name": "Cairo ", "shortName": "Cairo", "municipalityName": "Cairo", "location": {"lat": 30.1219, "lon": 31.4056}, "countryCode": "EG"}, "averageDailyFlights": 4.43, "operators": [{"name": "EgyptAir", "iata": "MS", "icao": "MSR"}, {"name": "Air Cairo", "iata": "SM", "icao": "MSC"}]}, {"destination": {"icao": "EDDL", "iata": "DUS", "name": "Duesseldorf D\u00fcsseldorf", "shortName": "D\u00fcsseldorf", "municipalityName": "Duesseldorf", "location": {"lat": 51.2895, "lon": 6.766779}, "countryCode": "DE"}, "averageDailyFlights": 2.57, "operators": [{"name": "Condor", "iata": "DE", "icao": "CFG"}, {"name": "Eurowings", "iata": "EW", "icao": "EWG"}, {"name": "Air Cairo", "iata": "SM", "icao": "MSC"}, {"name": "TUIfly", "iata": "X3", "icao": "TUI"}, {"name": "Corendon Airlines Europe", "iata": "XR", "icao": "CXI"}]}, {"destination": {"name": "Moscow"}, "averageDailyFlights": 2.57, "operators": [{"name": "Aeroflot", "iata": "SU", "icao": "AFL"}, {"name": "AZUR Air", "iata": "ZF", "icao": "KTK"}, {"name": "Air Cairo", "iata": "SM", "icao": "MSC"}, {"name": "AlMasria", "iata": "UJ", "icao": "LMU"}]}, {"destination": {"name": "London"}, "averageDailyFlights": 2.14, "operators": [{"name": "easyJet", "iata": "U2", "icao": "EZY"}, {"name": "Wizz Air UK", "iata": "W9", "icao": "WUK"}]}, {"destination": {"icao": "LSZH", "iata": "ZRH", "name": "Zurich Kloten", "shortName": "Kloten", "municipalityName": "Zurich", "location": {"lat": 47.4647, "lon": 8.549169}, "countryCode": "CH"}, "averageDailyFlights": 1.73, "operators": [{"name": "Edelweiss Air", "iata": "WK", "icao": "EDW"}, {"name": "Air Cairo", "iata": "SM", "icao": "MSC"}, {"name": "Tri-MG Intra Asia Airlines", "iata": "GM", "icao": "TMG"}, {"name": "FlexFlight", "iata": "W2", "icao": "FXT"}]}, {"destination": {"icao": "EHAM", "iata": "AMS", "name": "Amsterdam Schiphol", "shortName": "Schiphol", "municipalityName": "Amsterdam", "location": {"lat": 52.3086, "lon": 4.763889}, "countryCode": "NL"}, "averageDailyFlights": 1.71, "operators": [{"name": "easyJet", "iata": "U2", "icao": "EZY"}, {"name": "Transavia", "iata": "HV", "icao": "TRA"}, {"name": "TUI Airlines Nederland (Netherlands)", "iata": "OR", "icao": "TFL"}, {"name": "Corendon Dutch Airlines", "iata": "CD", "icao": "CND"}]}, {"destination": {"icao": "EDDP", "iata": "LEJ", "name": "Leipzig Halle", "shortName": "Halle", "municipalityName": "Leipzig", "location": {"lat": 51.4324, "lon": 12.2416}, "countryCode": "DE"}, "averageDailyFlights": 1.71, "operators": [{"name": "Air Cairo", "iata": "SM", "icao": "MSC"}, {"name": "Condor", "iata": "DE", "icao": "CFG"}, {"name": "Corendon Airlines Europe", "iata": "XR", "icao": "CXI"}]}, {"destination": {"icao": "EDDV", "iata": "HAJ", "name": "Hanover Hannover", "shortName": "Hannover", "municipalityName": "Hanover", "location": {"lat": 52.4611, "lon": 9.685079}, "countryCode": "DE"}, "averageDailyFlights": 1.57, "operators": [{"name": "Air Cairo", "iata": "SM", "icao": "MSC"}, {"name": "Eurowings", "iata": "EW", "icao": "EWG"}, {"name": "TUIfly", "iata": "X3", "icao": "TUI"}, {"name": "Corendon Airlines Europe", "iata": "XR", "icao": "CXI"}]}, {"destination": {"icao": "EDDS", "iata": "STR", "name": "Stuttgart ", "shortName": "Stuttgart", "municipalityName": "Stuttgart", "location": {"lat": 48.6899, "lon": 9.22196}, "countryCode": "DE"}, "averageDailyFlights": 1.48, "operators": [{"name": "Air Cairo", "iata": "SM", "icao": "MSC"}, {"name": "Eurowings", "iata": "EW", "icao": "EWG"}, {"name": "TUIfly", "iata": "X3", "icao": "TUI"}, {"name": "Norwegian Air UK"}]}, {"destination": {"icao": "LTFJ", "iata": "SAW", "name": "Istanbul Sabiha G\u00f6k\u00e7en", "shortName": "Sabiha G\u00f6k\u00e7en", "municipalityName": "Istanbul", "location": {"lat": 40.8986, "lon": 29.3092}, "countryCode": "TR"}, "averageDailyFlights": 1.45, "operators": [{"name": "Pegasus", "iata": "PC", "icao": "PGT"}, {"name": "Turkish Airlines", "iata": "TK", "icao": "THY"}]}, {"destination": {"icao": "EDDF", "iata": "FRA", "name": "Frankfurt-am-Main ", "shortName": "Frankfurt-am-Main", "municipalityName": "Frankfurt-am-Main", "location": {"lat": 50.0264, "lon": 8.543129}, "countryCode": "DE"}, "averageDailyFlights": 1.43, "operators": [{"name": "Flight Alaska"}, {"name": "Condor", "iata": "DE", "icao": "CFG"}, {"name": "Air Cairo", "iata": "SM", "icao": "MSC"}, {"name": "TUIfly", "iata": "X3", "icao": "TUI"}]}, {"destination": {"icao": "EDDM", "iata": "MUC", "name": "Munich ", "shortName": "Munich", "municipalityName": "Munich", "location": {"lat": 48.3538, "lon": 11.7861}, "countryCode": "DE"}, "averageDailyFlights": 1.43, "operators": [{"name": "Condor", "iata": "DE", "icao": "CFG"}, {"name": "Air Cairo", "iata": "SM", "icao": "MSC"}]}, {"destination": {"icao": "EDDB", "iata": "BER", "name": "Berlin Brandenburg", "shortName": "Brandenburg", "municipalityName": "Berlin", "location": {"lat": 52.35139, "lon": 13.493889}, "countryCode": "DE"}, "averageDailyFlights": 1.29, "operators": [{"name": "Corendon Airlines Europe", "iata": "XR", "icao": "CXI"}, {"name": "SundAir", "iata": "SR", "icao": "SDR"}, {"name": "Air Cairo", "iata": "SM", "icao": "MSC"}, {"name": "easyJet", "iata": "U2", "icao": "EZY"}, {"name": "Eurowings", "iata": "EW", "icao": "EWG"}]}, {"destination": {"icao": "EDDN", "iata": "NUE", "name": "Nuremberg ", "shortName": "Nuremberg", "municipalityName": "Nuremberg", "location": {"lat": 49.4987, "lon": 11.0669}, "countryCode": "DE"}, "averageDailyFlights": 1.29, "operators": [{"name": "Norwegian Air UK"}, {"name": "Eurowings", "iata": "EW", "icao": "EWG"}, {"name": "Air Cairo", "iata": "SM", "icao": "MSC"}, {"name": "Corendon Airlines Europe", "iata": "XR", "icao": "CXI"}]}, {"destination": {"icao": "LKPR", "iata": "PRG", "name": "Prague Ruzyn\u011b", "shortName": "Ruzyn\u011b", "municipalityName": "Prague", "location": {"lat": 50.1008, "lon": 14.26}, "countryCode": "CZ"}, "averageDailyFlights": 1.14, "operators": [{"name": "SmartWings", "iata": "QS", "icao": "TVS"}, {"name": "Air Cairo", "iata": "SM", "icao": "MSC"}]}, {"destination": {"icao": "LOWW", "iata": "VIE", "name": "Vienna Schwechat", "shortName": "Schwechat", "municipalityName": "Vienna", "location": {"lat": 48.1103, "lon": 16.5697}, "countryCode": "AT"}, "averageDailyFlights": 1.14, "operators": [{"name": "Air Cairo", "iata": "SM", "icao": "MSC"}, {"name": "Wizz Air Malta", "iata": "W4", "icao": "WMT"}, {"name": "Corendon Airlines Europe", "iata": "XR", "icao": "CXI"}]}, {"destination": {"icao": "EGCC", "iata": "MAN", "name": "Manchester ", "shortName": "Manchester", "municipalityName": "Manchester", "location": {"lat": 53.3537, "lon": -2.27495}, "countryCode": "GB"}, "averageDailyFlights": 1.0, "operators": [{"name": "easyJet", "iata": "U2", "icao": "EZY"}]}, {"destination": {"name": "Saint-Petersburg"}, "averageDailyFlights": 1.0, "operators": [{"name": "AlMasria", "iata": "UJ", "icao": "LMU"}, {"name": "Aeroflot", "iata": "SU", "icao": "AFL"}, {"name": "Air Cairo", "iata": "SM", "icao": "MSC"}]}, {"destination": {"icao": "EBBR", "iata": "BRU", "name": "Brussels ", "shortName": "Brussels", "municipalityName": "Brussels", "location": {"lat": 50.9014, "lon": 4.484439}, "countryCode": "BE"}, "averageDailyFlights": 0.86, "operators": [{"name": "Brussels Airlines", "iata": "SN", "icao": "BEL"}, {"name": "TUI Airlines Belgium", "iata": "TB", "icao": "JAF"}]}, {"destination": {"icao": "EDDK", "iata": "CGN", "name": "Cologne Bonn", "shortName": "Bonn", "municipalityName": "Cologne", "location": {"lat": 50.8659, "lon": 7.142739}, "countryCode": "DE"}, "averageDailyFlights": 0.86, "operators": [{"name": "Air Cairo", "iata": "SM", "icao": "MSC"}, {"name": "Eurowings", "iata": "EW", "icao": "EWG"}, {"name": "Corendon Airlines Europe", "iata": "XR", "icao": "CXI"}]}, {"destination": {"icao": "EDDH", "iata": "HAM", "name": "Hamburg ", "shortName": "Hamburg", "municipalityName": "Hamburg", "location": {"lat": 53.6304, "lon": 9.988229}, "countryCode": "DE"}, "averageDailyFlights": 0.86, "operators": [{"name": "Condor", "iata": "DE", "icao": "CFG"}, {"name": "Air Cairo", "iata": "SM", "icao": "MSC"}, {"name": "Eurowings", "iata": "EW", "icao": "EWG"}]}, {"destination": {"icao": "LTAI", "iata": "AYT", "name": "Antalya ", "shortName": "Antalya", "municipalityName": "Antalya", "location": {"lat": 36.8987, "lon": 30.8005}, "countryCode": "TR"}, "averageDailyFlights": 0.57, "operators": [{"name": "Pegasus", "iata": "PC", "icao": "PGT"}]}, {"destination": {"icao": "LFSB", "iata": "BSL", "name": "B\u00e2le/Mulhouse Euro Basel-Mulhouse-Freiburg", "shortName": "Euro Basel-Mulhouse-Freiburg", "municipalityName": "B\u00e2le/Mulhouse", "location": {"lat": 47.5896, "lon": 7.52991}, "countryCode": "FR"}, "averageDailyFlights": 0.43, "operators": [{"name": "easyJet", "iata": "U2", "icao": "EZY"}]}, {"destination": {"icao": "EGGD", "iata": "BRS", "name": "Bristol ", "shortName": "Bristol", "municipalityName": "Bristol", "location": {"lat": 51.3827, "lon": -2.719089}, "countryCode": "GB"}, "averageDailyFlights": 0.43, "operators": [{"name": "easyJet", "iata": "U2", "icao": "EZY"}]}, {"destination": {"icao": "EGPF", "iata": "GLA", "name": "Glasgow ", "shortName": "Glasgow", "municipalityName": "Glasgow", "location": {"lat": 55.8719, "lon": -4.43306}, "countryCode": "GB"}, "averageDailyFlights": 0.43, "operators": [{"name": "easyJet", "iata": "U2", "icao": "EZY"}]}, {"destination": {"icao": "LHBP", "iata": "BUD", "name": "Budapest Ferenc Liszt", "shortName": "Ferenc Liszt", "municipalityName": "Budapest", "location": {"lat": 47.4369, "lon": 19.255598}, "countryCode": "HU"}, "averageDailyFlights": 0.33, "operators": [{"name": "Wizz Air", "iata": "W6", "icao": "WZZ"}, {"name": "Air Cairo", "iata": "SM", "icao": "MSC"}]}, {"destination": {"icao": "EGAA", "iata": "BFS", "name": "Belfast ", "shortName": "Belfast", "municipalityName": "Belfast", "location": {"lat": 54.6575, "lon": -6.215829}, "countryCode": "GB"}, "averageDailyFlights": 0.29, "operators": [{"name": "easyJet", "iata": "U2", "icao": "EZY"}]}, {"destination": {"icao": "EGPH", "iata": "EDI", "name": "Edinburgh ", "shortName": "Edinburgh", "municipalityName": "Edinburgh", "location": {"lat": 55.95, "lon": -3.372499}, "countryCode": "GB"}, "averageDailyFlights": 0.29, "operators": [{"name": "easyJet", "iata": "U2", "icao": "EZY"}]}, {"destination": {"icao": "LSGG", "iata": "GVA", "name": "Geneva Cointrin", "shortName": "Cointrin", "municipalityName": "Geneva", "location": {"lat": 46.2381, "lon": 6.10895}, "countryCode": "CH"}, "averageDailyFlights": 0.29, "operators": [{"name": "easyJet", "iata": "U2", "icao": "EZY"}]}, {"destination": {"icao": "LOWG", "iata": "GRZ", "name": "Graz ", "shortName": "Graz", "municipalityName": "Graz", "location": {"lat": 46.9911, "lon": 15.439599}, "countryCode": "AT"}, "averageDailyFlights": 0.29, "operators": [{"name": "Eurowings", "iata": "EW", "icao": "EWG"}]}, {"destination": {"icao": "EGGP", "iata": "LPL", "name": "Liverpool John Lennon", "shortName": "John Lennon", "municipalityName": "Liverpool", "location": {"lat": 53.3336, "lon": -2.84972}, "countryCode": "GB"}, "averageDailyFlights": 0.29, "operators": [{"name": "easyJet", "iata": "U2", "icao": "EZY"}]}, {"destination": {"icao": "LIMC", "iata": "MXP", "name": "Milan Malpensa", "shortName": "Malpensa", "municipalityName": "Milan", "location": {"lat": 45.6306, "lon": 8.72811}, "countryCode": "IT"}, "averageDailyFlights": 0.29, "operators": [{"name": "easyJet", "iata": "U2", "icao": "EZY"}]}, {"destination": {"icao": "LIRN", "iata": "NAP", "name": "N\u00e1poli Naples", "shortName": "Naples", "municipalityName": "N\u00e1poli", "location": {"lat": 40.886, "lon": 14.2908}, "countryCode": "IT"}, "averageDailyFlights": 0.29, "operators": [{"name": "easyJet", "iata": "U2", "icao": "EZY"}]}, {"destination": {"icao": "LIRF", "iata": "FCO", "name": "Rome Leonardo da Vinci\u2013Fiumicino", "shortName": "Leonardo da Vinci\u2013Fiumicino", "municipalityName": "Rome", "location": {"lat": 41.8045, "lon": 12.2508}, "countryCode": "IT"}, "averageDailyFlights": 0.29, "operators": [{"name": "Wizz Air Malta", "iata": "W4", "icao": "WMT"}]}, {"destination": {"icao": "LOWS", "iata": "SZG", "name": "Salzburg ", "shortName": "Salzburg", "municipalityName": "Salzburg", "location": {"lat": 47.7933, "lon": 13.0043}, "countryCode": "AT"}, "averageDailyFlights": 0.29, "operators": [{"name": "Eurowings", "iata": "EW", "icao": "EWG"}]}, {"destination": {"icao": "HESH", "iata": "SSH", "name": "Sharm el Sheikh ", "shortName": "Sharm el Sheikh", "municipalityName": "Sharm el Sheikh", "location": {"lat": 27.9773, "lon": 34.395}, "countryCode": "EG"}, "averageDailyFlights": 0.29, "operators": [{"name": "Air Cairo", "iata": "SM", "icao": "MSC"}]}, {"destination": {"icao": "URSS", "iata": "AER", "localCode": "\u0421\u041e\u0427", "name": "Sochi ", "shortName": "Sochi", "municipalityName": "Sochi", "location": {"lat": 43.4499, "lon": 39.9566}, "countryCode": "RU"}, "averageDailyFlights": 0.29, "operators": [{"name": "Red Wings", "iata": "WZ", "icao": "RWZ"}]}, {"destination": {"icao": "EYVI", "iata": "VNO", "localCode": "\u0412\u0418\u041b", "name": "Vilnius ", "shortName": "Vilnius", "municipalityName": "Vilnius", "location": {"lat": 54.6341, "lon": 25.2858}, "countryCode": "LT"}, "averageDailyFlights": 0.29, "operators": [{"name": "JSC Avion Express", "iata": "X9", "icao": "NVD"}, {"name": "Aura Airlines"}]}, {"destination": {"name": "Minsk"}, "averageDailyFlights": 0.29, "operators": [{"name": "Belavia", "iata": "B2", "icao": "BRU"}]}, {"destination": {"icao": "EKAH", "iata": "AAR", "name": "Aarhus ", "shortName": "Aarhus", "municipalityName": "Aarhus", "location": {"lat": 56.3, "lon": 10.619}, "countryCode": "DK"}, "averageDailyFlights": 0.14, "operators": [{"name": "Air Cairo", "iata": "SM", "icao": "MSC"}]}, {"destination": {"icao": "LYBE", "iata": "BEG", "name": "Belgrade Nikola Tesla", "shortName": "Nikola Tesla", "municipalityName": "Belgrade", "location": {"lat": 44.8184, "lon": 20.3091}, "countryCode": "RS"}, "averageDailyFlights": 0.14, "operators": [{"name": "Air Cairo", "iata": "SM", "icao": "MSC"}]}, {"destination": {"icao": "LZIB", "iata": "BTS", "name": "Bratislava M. R. \u0160tef\u00e1nik", "shortName": "M. R. \u0160tef\u00e1nik", "municipalityName": "Bratislava", "location": {"lat": 48.1702, "lon": 17.2127}, "countryCode": "SK"}, "averageDailyFlights": 0.14, "operators": [{"name": "Air Cairo", "iata": "SM", "icao": "MSC"}]}, {"destination": {"icao": "EDDW", "iata": "BRE", "name": "Bremen ", "shortName": "Bremen", "municipalityName": "Bremen", "location": {"lat": 53.0475, "lon": 8.786669}, "countryCode": "DE"}, "averageDailyFlights": 0.14, "operators": [{"name": "SundAir", "iata": "SR", "icao": "SDR"}]}, {"destination": {"icao": "LKTB", "iata": "BRQ", "name": "Brno -Tu\u0159any", "shortName": "-Tu\u0159any", "municipalityName": "Brno", "location": {"lat": 49.1513, "lon": 16.6944}, "countryCode": "CZ"}, "averageDailyFlights": 0.14, "operators": [{"name": "SmartWings", "iata": "QS", "icao": "TVS"}]}, {"destination": {"icao": "EDDC", "iata": "DRS", "name": "Dresden ", "shortName": "Dresden", "municipalityName": "Dresden", "location": {"lat": 51.1328, "lon": 13.7672}, "countryCode": "DE"}, "averageDailyFlights": 0.14, "operators": [{"name": "SundAir", "iata": "SR", "icao": "SDR"}]}, {"destination": {"icao": "ELLX", "iata": "LUX", "name": "Luxembourg -Findel", "shortName": "-Findel", "municipalityName": "Luxembourg", "location": {"lat": 49.6266, "lon": 6.21152}, "countryCode": "LU"}, "averageDailyFlights": 0.14, "operators": [{"name": "Luxair", "iata": "LG", "icao": "LGL"}]}, {"destination": {"icao": "LFLL", "iata": "LYS", "name": "Lyon Saint-Exup\u00e9ry", "shortName": "Saint-Exup\u00e9ry", "municipalityName": "Lyon", "location": {"lat": 45.7264, "lon": 5.090829}, "countryCode": "FR"}, "averageDailyFlights": 0.14, "operators": [{"name": "Transavia France", "iata": "TO", "icao": "TVF"}]}, {"destination": {"icao": "HEMA", "iata": "RMF", "name": "Marsa Alam ", "shortName": "Marsa Alam", "municipalityName": "Marsa Alam", "location": {"lat": 25.5571, "lon": 34.5837}, "countryCode": "EG"}, "averageDailyFlights": 0.14, "operators": [{"name": "Air Cairo", "iata": "SM", "icao": "MSC"}]}, {"destination": {"icao": "LFPO", "iata": "ORY", "name": "Paris -Orly", "shortName": "-Orly", "municipalityName": "Paris", "location": {"lat": 48.7253, "lon": 2.35944}, "countryCode": "FR"}, "averageDailyFlights": 0.14, "operators": [{"name": "Transavia France", "iata": "TO", "icao": "TVF"}]}, {"destination": {"icao": "EVRA", "iata": "RIX", "localCode": "\u0420\u0418\u0425", "name": "Riga ", "shortName": "Riga", "municipalityName": "Riga", "location": {"lat": 56.9236, "lon": 23.9711}, "countryCode": "LV"}, "averageDailyFlights": 0.14, "operators": [{"name": "Aura Airlines"}]}, {"destination": {"icao": "EETN", "iata": "TLL", "localCode": "TLL", "name": "Tallinn Lennart Meri", "shortName": "Lennart Meri", "municipalityName": "Tallinn", "location": {"lat": 59.4133, "lon": 24.8328}, "countryCode": "EE"}, "averageDailyFlights": 0.14, "operators": [{"name": "Aura Airlines"}]}, {"destination": {"name": "Ekaterinburg"}, "averageDailyFlights": 0.14, "operators": [{"name": "Air Cairo", "iata": "SM", "icao": "MSC"}]}, {"destination": {"name": "Mineralnyye Vody"}, "averageDailyFlights": 0.14, "operators": [{"name": "Red Wings", "iata": "WZ", "icao": "RWZ"}]}]}