{"routes": [{"destination": {"icao": "EDDL", "iata": "DUS", "name": "Duesseldorf D\u00fcsseldorf", "shortName": "D\u00fcsseldorf", "municipalityName": "Duesseldorf", "location": {"lat": 51.2895, "lon": 6.766779}, "countryCode": "DE"}, "averageDailyFlights": 0.86, "operators": [{"name": "Eurowings", "iata": "EW", "icao": "EWG"}, {"name": "TUIfly", "iata": "X3", "icao": "TUI"}, {"name": "Air Cairo", "iata": "SM", "icao": "MSC"}, {"name": "Corendon Airlines Europe", "iata": "XR", "icao": "CXI"}]}, {"destination": {"icao": "LKPR", "iata": "PRG", "name": "Prague Ruzyn\u011b", "shortName": "Ruzyn\u011b", "municipalityName": "Prague", "location": {"lat": 50.1008, "lon": 14.26}, "countryCode": "CZ"}, "averageDailyFlights": 0.71, "operators": [{"name": "SmartWings", "iata": "QS", "icao": "TVS"}]}, {"destination": {"icao": "HESH", "iata": "SSH", "name": "Sharm el Sheikh ", "shortName": "Sharm el Sheikh", "municipalityName": "Sharm el Sheikh", "location": {"lat": 27.9773, "lon": 34.395}, "countryCode": "EG"}, "averageDailyFlights": 0.71, "operators": [{"name": "Neos", "iata": "NO", "icao": "NOS"}]}, {"destination": {"icao": "LIMC", "iata": "MXP", "name": "Milan Malpensa", "shortName": "Malpensa", "municipalityName": "Milan", "location": {"lat": 45.6306, "lon": 8.72811}, "countryCode": "IT"}, "averageDailyFlights": 0.57, "operators": [{"name": "Wizz Air Malta", "iata": "W4", "icao": "WMT"}, {"name": "Neos", "iata": "NO", "icao": "NOS"}, {"name": "easyJet", "iata": "U2", "icao": "EZY"}]}, {"destination": {"icao": "EDDB", "iata": "BER", "name": "Berlin Brandenburg", "shortName": "Brandenburg", "municipalityName": "Berlin", "location": {"lat": 52.35139, "lon": 13.493889}, "countryCode": "DE"}, "averageDailyFlights": 0.43, "operators": [{"name": "easyJet", "iata": "U2", "icao": "EZY"}]}, {"destination": {"icao": "HECA", "iata": "CAI", "name": "Cairo ", "shortName": "Cairo", "municipalityName": "Cairo", "location": {"lat": 30.1219, "lon": 31.4056}, "countryCode": "EG"}, "averageDailyFlights": 0.43, "operators": [{"name": "EgyptAir", "iata": "MS", "icao": "MSR"}, {"name": "Air Cairo", "iata": "SM", "icao": "MSC"}]}, {"destination": {"icao": "EDDF", "iata": "FRA", "name": "Frankfurt-am-Main ", "shortName": "Frankfurt-am-Main", "municipalityName": "Frankfurt-am-Main", "location": {"lat": 50.0264, "lon": 8.543129}, "countryCode": "DE"}, "averageDailyFlights": 0.43, "operators": [{"name": "Flight Alaska"}, {"name": "Air Cairo", "iata": "SM", "icao": "MSC"}, {"name": "TUIfly", "iata": "X3", "icao": "TUI"}]}, {"destination": {"icao": "LSZH", "iata": "ZRH", "name": "Zurich Kloten", "shortName": "Kloten", "municipalityName": "Zurich", "location": {"lat": 47.4647, "lon": 8.549169}, "countryCode": "CH"}, "averageDailyFlights": 0.32, "operators": [{"name": "Edelweiss Air", "iata": "WK", "icao": "EDW"}, {"name": "Tri-MG Intra Asia Airlines", "iata": "GM", "icao": "TMG"}]}, {"destination": {"icao": "EDDV", "iata": "HAJ", "name": "Hanover Hannover", "shortName": "Hannover", "municipalityName": "Hanover", "location": {"lat": 52.4611, "lon": 9.685079}, "countryCode": "DE"}, "averageDailyFlights": 0.29, "operators": [{"name": "Corendon Airlines Europe", "iata": "XR", "icao": "CXI"}, {"name": "Air Cairo", "iata": "SM", "icao": "MSC"}]}, {"destination": {"icao": "EDDP", "iata": "LEJ", "name": "Leipzig Halle", "shortName": "Halle", "municipalityName": "Leipzig", "location": {"lat": 51.4324, "lon": 12.2416}, "countryCode": "DE"}, "averageDailyFlights": 0.29, "operators": [{"name": "Air Cairo", "iata": "SM", "icao": "MSC"}]}, {"destination": {"icao": "EBBR", "iata": "BRU", "name": "Brussels ", "shortName": "Brussels", "municipalityName": "Brussels", "location": {"lat": 50.9014, "lon": 4.484439}, "countryCode": "BE"}, "averageDailyFlights": 0.14, "operators": [{"name": "TUI Airlines Belgium", "iata": "TB", "icao": "JAF"}]}, {"destination": {"icao": "EDDK", "iata": "CGN", "name": "Cologne Bonn", "shortName": "Bonn", "municipalityName": "Cologne", "location": {"lat": 50.8659, "lon": 7.142739}, "countryCode": "DE"}, "averageDailyFlights": 0.14, "operators": [{"name": "Air Cairo", "iata": "SM", "icao": "MSC"}]}, {"destination": {"icao": "HEGN", "iata": "HRG", "name": "Hurghada ", "shortName": "Hurghada", "municipalityName": "Hurghada", "location": {"lat": 27.1783, "lon": 33.7994}, "countryCode": "EG"}, "averageDailyFlights": 0.14, "operators": [{"name": "TUI Airlines Nederland (Netherlands)", "iata": "OR", "icao": "TFL"}]}, {"destination": {"icao": "HELX", "iata": "LXR", "name": "Luxor ", "shortName": "Luxor", "municipalityName": "Luxor", "location": {"lat": 25.671, "lon": 32.7066}, "countryCode": "EG"}, "averageDailyFlights": 0.14, "operators": [{"name": "Air Cairo", "iata": "SM", "icao": "MSC"}]}, {"destination": {"icao": "EDDM", "iata": "MUC", "name": "Munich ", "shortName": "Munich", "municipalityName": "Munich", "location": {"lat": 48.3538, "lon": 11.7861}, "countryCode": "DE"}, "averageDailyFlights": 0.14, "operators": [{"name": "Air Cairo", "iata": "SM", "icao": "MSC"}]}, {"destination": {"icao": "LIRN", "iata": "NAP", "name": "N\u00e1poli Naples", "shortName": "Naples", "municipalityName": "N\u00e1poli", "location": {"lat": 40.886, "lon": 14.2908}, "countryCode": "IT"}, "averageDailyFlights": 0.14, "operators": [{"name": "easyJet", "iata": "U2", "icao": "EZY"}]}, {"destination": {"icao": "EDDN", "iata": "NUE", "name": "Nuremberg ", "shortName": "Nuremberg", "municipalityName": "Nuremberg", "location": {"lat": 49.4987, "lon": 11.0669}, "countryCode": "DE"}, "averageDailyFlights": 0.14, "operators": [{"name": "Eurowings", "iata": "EW", "icao": "EWG"}]}, {"destination": {"icao": "LOWS", "iata": "SZG", "name": "Salzburg ", "shortName": "Salzburg", "municipalityName": "Salzburg", "location": {"lat": 47.7933, "lon": 13.0043}, "countryCode": "AT"}, "averageDailyFlights": 0.14, "operators": [{"name": "Eurowings", "iata": "EW", "icao": "EWG"}]}, {"destination": {"icao": "LOWW", "iata": "VIE", "name": "Vienna Schwechat", "shortName": "Schwechat", "municipalityName": "Vienna", "location": {"lat": 48.1103, "lon": 16.5697}, "countryCode": "AT"}, "averageDailyFlights": 0.14, "operators": [{"name": "Air Cairo", "iata": "SM", "icao": "MSC"}]}]}