{"routes": [{"destination": {"icao": "KCLT", "iata": "CLT", "name": "Charlotte Douglas", "shortName": "Douglas", "municipalityName": "Charlotte", "location": {"lat": 35.214, "lon": -80.9431}, "countryCode": "US"}, "averageDailyFlights": 3.57, "operators": [{"name": "American Airlines", "iata": "AA", "icao": "AAL"}]}, {"destination": {"icao": "KORD", "iata": "ORD", "name": "Chicago O'Hare", "shortName": "O'Hare", "municipalityName": "Chicago", "location": {"lat": 41.9786, "lon": -87.9048}, "countryCode": "US"}, "averageDailyFlights": 3.29, "operators": [{"name": "Delta Air Lines", "iata": "DL", "icao": "DAL"}, {"name": "SkyWest Airlines", "iata": "OO", "icao": "SKW"}, {"name": "NetJets Aviation", "iata": "1I", "icao": "EJA"}, {"name": "LXJ"}]}, {"destination": {"icao": "KDCA", "iata": "DCA", "name": "District of Columbia Ronald Reagan Washington National", "shortName": "Ronald Reagan Washington National", "municipalityName": "District of Columbia", "location": {"lat": 38.8521, "lon": -77.0377}, "countryCode": "US"}, "averageDailyFlights": 1.14, "operators": [{"name": "American Airlines", "iata": "AA", "icao": "AAL"}]}, {"destination": {"icao": "KIND", "iata": "IND", "name": "Indianapolis ", "shortName": "Indianapolis", "municipalityName": "Indianapolis", "location": {"lat": 39.7173, "lon": -86.2944}, "countryCode": "US"}, "averageDailyFlights": 1.14, "operators": [{"name": "CSJ"}]}, {"destination": {"icao": "KMCO", "iata": "MCO", "name": "Orlando ", "shortName": "Orlando", "municipalityName": "Orlando", "location": {"lat": 28.4294, "lon": -81.309}, "countryCode": "US"}, "averageDailyFlights": 1.14, "operators": [{"name": "Breeze Airways", "iata": "MX", "icao": "MXY"}]}, {"destination": {"icao": "KCVG", "iata": "CVG", "name": "Cincinnati Northern Kentucky", "shortName": "Northern Kentucky", "municipalityName": "Cincinnati", "location": {"lat": 39.0488, "lon": -84.6678}, "countryCode": "US"}, "averageDailyFlights": 0.86, "operators": [{"name": "CSJ"}]}, {"destination": {"icao": "KAPF", "iata": "APF", "name": "Naples Municipal", "shortName": "Municipal", "municipalityName": "Naples", "location": {"lat": 26.1526, "lon": -81.7753}, "countryCode": "US"}, "averageDailyFlights": 0.86, "operators": [{"name": "XSK"}, {"name": "LXJ"}, {"name": "NetJets Aviation", "iata": "1I", "icao": "EJA"}]}, {"destination": {"icao": "KDPA", "iata": "DPA", "name": "Chicago/West Chicago Dupage", "shortName": "Dupage", "municipalityName": "Chicago/West Chicago", "location": {"lat": 41.9078, "lon": -88.2486}, "countryCode": "US"}, "averageDailyFlights": 0.76, "operators": [{"name": "CSJ"}, {"name": "United Airlines", "iata": "UA", "icao": "UAL"}]}, {"destination": {"icao": "KCHS", "iata": "CHS", "name": "Charleston Air Force Base-", "shortName": "Air Force Base-", "municipalityName": "Charleston", "location": {"lat": 32.8986, "lon": -80.0405}, "countryCode": "US"}, "averageDailyFlights": 0.71, "operators": [{"name": "Breeze Airways", "iata": "MX", "icao": "MXY"}]}, {"destination": {"icao": "CYHM", "iata": "YHM", "name": "Hamilton John C. Munro", "shortName": "John C. Munro", "municipalityName": "Hamilton", "location": {"lat": 43.1736, "lon": -79.935}, "countryCode": "CA"}, "averageDailyFlights": 0.71, "operators": [{"name": "CSJ"}]}, {"destination": {"icao": "KRSW", "iata": "RSW", "name": "Fort Myers Southwest Florida", "shortName": "Southwest Florida", "municipalityName": "Fort Myers", "location": {"lat": 26.5362, "lon": -81.7552}, "countryCode": "US"}, "averageDailyFlights": 0.57, "operators": [{"name": "Breeze Airways", "iata": "MX", "icao": "MXY"}, {"name": "LXJ"}]}, {"destination": {"icao": "KRDU", "iata": "RDU", "name": "Raleigh/Durham Raleigh Durham", "shortName": "Raleigh Durham", "municipalityName": "Raleigh/Durham", "location": {"lat": 35.8776, "lon": -78.7875}, "countryCode": "US"}, "averageDailyFlights": 0.57, "operators": [{"name": "NetJets Aviation", "iata": "1I", "icao": "EJA"}, {"name": "Breeze Airways", "iata": "MX", "icao": "MXY"}]}, {"destination": {"icao": "KPBI", "iata": "PBI", "name": "West Palm Beach Palm Beach", "shortName": "Palm Beach", "municipalityName": "West Palm Beach", "location": {"lat": 26.6832, "lon": -80.0956}, "countryCode": "US"}, "averageDailyFlights": 0.57, "operators": [{"name": "LXJ"}, {"name": "Breeze Airways", "iata": "MX", "icao": "MXY"}, {"name": "NetJets Aviation", "iata": "1I", "icao": "EJA"}]}, {"destination": {"icao": "KLAS", "iata": "LAS", "name": "Las Vegas McCarran", "shortName": "McCarran", "municipalityName": "Las Vegas", "location": {"lat": 36.0801, "lon": -115.152}, "countryCode": "US"}, "averageDailyFlights": 0.43, "operators": [{"name": "Breeze Airways", "iata": "MX", "icao": "MXY"}]}, {"destination": {"icao": "KPIT", "iata": "PIT", "name": "Pittsburgh ", "shortName": "Pittsburgh", "municipalityName": "Pittsburgh", "location": {"lat": 40.4915, "lon": -80.2329}, "countryCode": "US"}, "averageDailyFlights": 0.43, "operators": [{"name": "NetJets Aviation", "iata": "1I", "icao": "EJA"}, {"name": "RVJ"}]}, {"destination": {"icao": "KPDK", "iata": "PDK", "name": "Atlanta DeKalb Peachtree", "shortName": "DeKalb Peachtree", "municipalityName": "Atlanta", "location": {"lat": 33.8756, "lon": -84.302}, "countryCode": "US"}, "averageDailyFlights": 0.29, "operators": [{"name": "XSK"}]}, {"destination": {"icao": "KFLL", "iata": "FLL", "name": "Fort Lauderdale Hollywood", "shortName": "Hollywood", "municipalityName": "Fort Lauderdale", "location": {"lat": 26.0726, "lon": -80.1527}, "countryCode": "US"}, "averageDailyFlights": 0.29, "operators": [{"name": "Allegiant Air", "iata": "G4", "icao": "AAY"}]}, {"destination": {"icao": "KGLS", "iata": "GLS", "name": "Galveston Scholes  At", "shortName": "Scholes  At", "municipalityName": "Galveston", "location": {"lat": 29.2653, "lon": -94.8604}, "countryCode": "US"}, "averageDailyFlights": 0.29, "operators": [{"name": "JRE"}]}, {"destination": {"icao": "KLEX", "iata": "LEX", "name": "Lexington Blue Grass", "shortName": "Blue Grass", "municipalityName": "Lexington", "location": {"lat": 38.0365, "lon": -84.6059}, "countryCode": "US"}, "averageDailyFlights": 0.29, "operators": [{"name": "JRE"}]}, {"destination": {"icao": "KLYH", "iata": "LYH", "name": "Lynchburg Regional Preston Glenn Field", "shortName": "Regional Preston Glenn Field", "municipalityName": "Lynchburg", "location": {"lat": 37.3267, "lon": -79.2004}, "countryCode": "US"}, "averageDailyFlights": 0.29, "operators": [{"name": "JRE"}]}, {"destination": {"icao": "KBNA", "iata": "BNA", "name": "Nashville ", "shortName": "Nashville", "municipalityName": "Nashville", "location": {"lat": 36.1245, "lon": -86.6782}, "countryCode": "US"}, "averageDailyFlights": 0.29, "operators": [{"name": "Allegiant Air", "iata": "G4", "icao": "AAY"}]}, {"destination": {"icao": "KSFB", "iata": "SFB", "name": "Orlando Sanford", "shortName": "Sanford", "municipalityName": "Orlando", "location": {"lat": 28.7776, "lon": -81.2375}, "countryCode": "US"}, "averageDailyFlights": 0.29, "operators": [{"name": "Allegiant Air", "iata": "G4", "icao": "AAY"}]}, {"destination": {"icao": "KSRQ", "iata": "SRQ", "name": "Sarasota/Bradenton Sarasota Bradenton", "shortName": "Sarasota Bradenton", "municipalityName": "Sarasota/Bradenton", "location": {"lat": 27.3954, "lon": -82.5544}, "countryCode": "US"}, "averageDailyFlights": 0.29, "operators": [{"name": "Allegiant Air", "iata": "G4", "icao": "AAY"}]}, {"destination": {"icao": "KSAV", "iata": "SAV", "name": "Savannah Hilton Head", "shortName": "Hilton Head", "municipalityName": "Savannah", "location": {"lat": 32.1276, "lon": -81.2021}, "countryCode": "US"}, "averageDailyFlights": 0.29, "operators": [{"name": "Allegiant Air", "iata": "G4", "icao": "AAY"}]}, {"destination": {"icao": "KPIE", "iata": "PIE", "name": "St Petersburg-Clearwater St Petersburg Clearwater", "shortName": "St Petersburg Clearwater", "municipalityName": "St Petersburg-Clearwater", "location": {"lat": 27.9102, "lon": -82.6874}, "countryCode": "US"}, "averageDailyFlights": 0.29, "operators": [{"name": "Allegiant Air", "iata": "G4", "icao": "AAY"}]}, {"destination": {"icao": "KTPA", "iata": "TPA", "name": "Tampa ", "shortName": "Tampa", "municipalityName": "Tampa", "location": {"lat": 27.9755, "lon": -82.5332}, "countryCode": "US"}, "averageDailyFlights": 0.29, "operators": [{"name": "Breeze Airways", "iata": "MX", "icao": "MXY"}]}, {"destination": {"icao": "KYNG", "iata": "YNG", "name": "Youngstown/Warren Youngstown Warren Regional", "shortName": "Youngstown Warren Regional", "municipalityName": "Youngstown/Warren", "location": {"lat": 41.2607, "lon": -80.6791}, "countryCode": "US"}, "averageDailyFlights": 0.29, "operators": [{"name": "XSK"}]}, {"destination": {"name": "Sharlot Kaunti"}, "averageDailyFlights": 0.29, "operators": [{"name": "Allegiant Air", "iata": "G4", "icao": "AAY"}]}, {"destination": {"icao": "KACY", "iata": "ACY", "name": "Atlantic City ", "shortName": "Atlantic City", "municipalityName": "Atlantic City", "location": {"lat": 39.4576, "lon": -74.5772}, "countryCode": "US"}, "averageDailyFlights": 0.14, "operators": [{"name": "NetJets Aviation", "iata": "1I", "icao": "EJA"}]}, {"destination": {"icao": "KBED", "iata": "BED", "name": "Bedford Laurence G Hanscom Field", "shortName": "Laurence G Hanscom Field", "municipalityName": "Bedford", "location": {"lat": 42.47, "lon": -71.289}, "countryCode": "US"}, "averageDailyFlights": 0.14, "operators": [{"name": "Ultimate Air Shuttle", "iata": "UE", "icao": "UJC"}]}, {"destination": {"icao": "KBMG", "iata": "BMG", "name": "Bloomington Monroe County", "shortName": "Monroe County", "municipalityName": "Bloomington", "location": {"lat": 39.146, "lon": -86.6167}, "countryCode": "US"}, "averageDailyFlights": 0.14, "operators": [{"name": "LXJ"}]}, {"destination": {"icao": "KBCT", "iata": "BCT", "name": "Boca Raton ", "shortName": "Boca Raton", "municipalityName": "Boca Raton", "location": {"lat": 26.378498, "lon": -80.1077}, "countryCode": "US"}, "averageDailyFlights": 0.14, "operators": [{"name": "NetJets Aviation", "iata": "1I", "icao": "EJA"}]}, {"destination": {"icao": "KBTP", "iata": "BTP", "name": "Butler County-K W Scholter Field", "shortName": "County-K W Scholter Field", "municipalityName": "Butler", "location": {"lat": 40.7769, "lon": -79.9497}, "countryCode": "US"}, "averageDailyFlights": 0.14, "operators": [{"name": "XSK"}]}, {"destination": {"icao": "KCGI", "iata": "CGI", "name": "Cape Girardeau Regional", "shortName": "Regional", "municipalityName": "Cape Girardeau", "location": {"lat": 37.2253, "lon": -89.5708}, "countryCode": "US"}, "averageDailyFlights": 0.14, "operators": [{"name": "CSJ"}]}, {"destination": {"icao": "KCHO", "iata": "CHO", "name": "Charlottesville Albemarle", "shortName": "Albemarle", "municipalityName": "Charlottesville", "location": {"lat": 38.1386, "lon": -78.4529}, "countryCode": "US"}, "averageDailyFlights": 0.14, "operators": [{"name": "NetJets Aviation", "iata": "1I", "icao": "EJA"}]}, {"destination": {"icao": "KCGF", "iata": "CGF", "name": "Cleveland Cuyahoga County", "shortName": "Cuyahoga County", "municipalityName": "Cleveland", "location": {"lat": 41.5651, "lon": -81.4864}, "countryCode": "US"}, "averageDailyFlights": 0.14, "operators": [{"name": "LXJ"}]}, {"destination": {"icao": "KBKL", "iata": "BKL", "name": "Cleveland Burke Lakefront", "shortName": "Burke Lakefront", "municipalityName": "Cleveland", "location": {"lat": 41.5175, "lon": -81.6833}, "countryCode": "US"}, "averageDailyFlights": 0.14, "operators": [{"name": "CSJ"}]}, {"destination": {"icao": "KCMH", "iata": "CMH", "name": "Columbus Port", "shortName": "Port", "municipalityName": "Columbus", "location": {"lat": 39.998, "lon": -82.8919}, "countryCode": "US"}, "averageDailyFlights": 0.14, "operators": [{"name": "NetJets Aviation", "iata": "1I", "icao": "EJA"}]}, {"destination": {"icao": "KDAY", "iata": "DAY", "name": "Dayton James M Cox", "shortName": "James M Cox", "municipalityName": "Dayton", "location": {"lat": 39.9024, "lon": -84.2194}, "countryCode": "US"}, "averageDailyFlights": 0.14, "operators": [{"name": "American Airlines", "iata": "AA", "icao": "AAL"}]}, {"destination": {"icao": "KYIP", "iata": "YIP", "name": "Detroit Willow Run", "shortName": "Willow Run", "municipalityName": "Detroit", "location": {"lat": 42.2379, "lon": -83.5304}, "countryCode": "US"}, "averageDailyFlights": 0.14, "operators": [{"name": "CXK"}]}, {"destination": {"icao": "KFWA", "iata": "FWA", "name": "Fort Wayne ", "shortName": "Fort Wayne", "municipalityName": "Fort Wayne", "location": {"lat": 40.9785, "lon": -85.1951}, "countryCode": "US"}, "averageDailyFlights": 0.14, "operators": [{"name": "NetJets Aviation", "iata": "1I", "icao": "EJA"}]}, {"destination": {"icao": "KFTW", "iata": "FTW", "name": "Fort Worth Meacham", "shortName": "Meacham", "municipalityName": "Fort Worth", "location": {"lat": 32.8198, "lon": -97.3624}, "countryCode": "US"}, "averageDailyFlights": 0.14, "operators": [{"name": "NetJets Aviation", "iata": "1I", "icao": "EJA"}]}, {"destination": {"icao": "KFKL", "iata": "FKL", "name": "Franklin Venango Regional", "shortName": "Venango Regional", "municipalityName": "Franklin", "location": {"lat": 41.3779, "lon": -79.8604}, "countryCode": "US"}, "averageDailyFlights": 0.14, "operators": [{"name": "CSJ"}]}, {"destination": {"icao": "KGSO", "iata": "GSO", "name": "Greensboro Piedmont Triad", "shortName": "Piedmont Triad", "municipalityName": "Greensboro", "location": {"lat": 36.0978, "lon": -79.9373}, "countryCode": "US"}, "averageDailyFlights": 0.14, "operators": [{"name": "BYA"}]}, {"destination": {"icao": "KGPT", "iata": "GPT", "name": "Gulfport Biloxi", "shortName": "Biloxi", "municipalityName": "Gulfport", "location": {"lat": 30.4073, "lon": -89.0701}, "countryCode": "US"}, "averageDailyFlights": 0.14, "operators": [{"name": "Sun Country Airlines", "iata": "SY", "icao": "SCX"}]}, {"destination": {"icao": "KAZO", "iata": "AZO", "name": "Kalamazoo Battle Creek", "shortName": "Battle Creek", "municipalityName": "Kalamazoo", "location": {"lat": 42.2349, "lon": -85.5521}, "countryCode": "US"}, "averageDailyFlights": 0.14, "operators": [{"name": "CSJ"}]}, {"destination": {"icao": "KEEN", "iata": "EEN", "name": "Keene Dillant Hopkins", "shortName": "Dillant Hopkins", "municipalityName": "Keene", "location": {"lat": 42.8984, "lon": -72.2708}, "countryCode": "US"}, "averageDailyFlights": 0.14, "operators": [{"name": "NetJets Aviation", "iata": "1I", "icao": "EJA"}]}, {"destination": {"icao": "KEYW", "iata": "EYW", "name": "Key West ", "shortName": "Key West", "municipalityName": "Key West", "location": {"lat": 24.5561, "lon": -81.7596}, "countryCode": "US"}, "averageDailyFlights": 0.14, "operators": [{"name": "PJC"}]}, {"destination": {"icao": "KLAF", "iata": "LAF", "name": "Lafayette Purdue University", "shortName": "Purdue University", "municipalityName": "Lafayette", "location": {"lat": 40.4123, "lon": -86.9369}, "countryCode": "US"}, "averageDailyFlights": 0.14, "operators": [{"name": "CSJ"}]}, {"destination": {"icao": "KLNS", "iata": "LNS", "name": "Lancaster ", "shortName": "Lancaster", "municipalityName": "Lancaster", "location": {"lat": 40.1217, "lon": -76.2961}, "countryCode": "US"}, "averageDailyFlights": 0.14, "operators": [{"name": "XSK"}]}, {"destination": {"icao": "KMCN", "iata": "MCN", "name": "Macon Middle Georgia Regional", "shortName": "Middle Georgia Regional", "municipalityName": "Macon", "location": {"lat": 32.6928, "lon": -83.6492}, "countryCode": "US"}, "averageDailyFlights": 0.14, "operators": [{"name": "American Airlines", "iata": "AA", "icao": "AAL"}]}, {"destination": {"icao": "KMHT", "iata": "MHT", "name": "Manchester ", "shortName": "Manchester", "municipalityName": "Manchester", "location": {"lat": 42.9326, "lon": -71.4357}, "countryCode": "US"}, "averageDailyFlights": 0.14, "operators": [{"name": "CSJ"}]}, {"destination": {"icao": "KMMU", "iata": "MMU", "name": "Morristown Municipal", "shortName": "Municipal", "municipalityName": "Morristown", "location": {"lat": 40.7994, "lon": -74.4149}, "countryCode": "US"}, "averageDailyFlights": 0.14, "operators": [{"name": "CSJ"}]}, {"destination": {"icao": "KOMA", "iata": "OMA", "name": "Omaha Eppley Airfield", "shortName": "Eppley Airfield", "municipalityName": "Omaha", "location": {"lat": 41.3032, "lon": -95.8941}, "countryCode": "US"}, "averageDailyFlights": 0.14, "operators": [{"name": "XSK"}]}, {"destination": {"icao": "KSUS", "iata": "SUS", "name": "Saint Louis Spirit of St Louis", "shortName": "Spirit of St Louis", "municipalityName": "Saint Louis", "location": {"lat": 38.6621, "lon": -90.652}, "countryCode": "US"}, "averageDailyFlights": 0.14, "operators": [{"name": "CSJ"}]}, {"destination": {"icao": "KSGH", "iata": "SGH", "name": "Springfield -Beckley Municipal", "shortName": "-Beckley Municipal", "municipalityName": "Springfield", "location": {"lat": 39.8403, "lon": -83.8402}, "countryCode": "US"}, "averageDailyFlights": 0.14, "operators": [{"name": "LXJ"}]}, {"destination": {"icao": "KTEB", "iata": "TEB", "name": "Teterboro ", "shortName": "Teterboro", "municipalityName": "Teterboro", "location": {"lat": 40.8501, "lon": -74.0608}, "countryCode": "US"}, "averageDailyFlights": 0.14, "operators": [{"name": "LXJ"}]}, {"destination": {"icao": "KOKV", "iata": "WGO", "name": "Winchester Regional", "shortName": "Regional", "municipalityName": "Winchester", "location": {"lat": 39.1435, "lon": -78.1444}, "countryCode": "US"}, "averageDailyFlights": 0.14, "operators": [{"name": "OPN"}]}]}