{"routes": [{"destination": {"icao": "KDFW", "iata": "DFW", "name": "Dallas-Fort Worth ", "shortName": "Dallas-Fort Worth", "municipalityName": "Dallas-Fort Worth", "location": {"lat": 32.8968, "lon": -97.038}, "countryCode": "US"}, "averageDailyFlights": 2.93, "operators": [{"name": "Envoy Air", "iata": "MQ", "icao": "ENY"}, {"name": "American Airlines", "iata": "AA", "icao": "AAL"}]}, {"destination": {"icao": "KORD", "iata": "ORD", "name": "Chicago O'Hare", "shortName": "O'Hare", "municipalityName": "Chicago", "location": {"lat": 41.9786, "lon": -87.9048}, "countryCode": "US"}, "averageDailyFlights": 2.79, "operators": [{"name": "Envoy Air", "iata": "MQ", "icao": "ENY"}, {"name": "American Airlines", "iata": "AA", "icao": "AAL"}]}, {"destination": {"icao": "KMDW", "iata": "MDW", "name": "Chicago Midway", "shortName": "Midway", "municipalityName": "Chicago", "location": {"lat": 41.786, "lon": -87.7524}, "countryCode": "US"}, "averageDailyFlights": 0.71, "operators": [{"name": "FSR"}]}, {"destination": {"icao": "KLAF", "iata": "LAF", "name": "Lafayette Purdue University", "shortName": "Purdue University", "municipalityName": "Lafayette", "location": {"lat": 40.4123, "lon": -86.9369}, "countryCode": "US"}, "averageDailyFlights": 0.43, "operators": [{"name": "PDU"}]}, {"destination": {"icao": "KATL", "iata": "ATL", "name": "Atlanta Hartsfield Jackson", "shortName": "Hartsfield Jackson", "municipalityName": "Atlanta", "location": {"lat": 33.6367, "lon": -84.4281}, "countryCode": "US"}, "averageDailyFlights": 0.29, "operators": [{"name": "FSR"}]}, {"destination": {"icao": "KIND", "iata": "IND", "name": "Indianapolis ", "shortName": "Indianapolis", "municipalityName": "Indianapolis", "location": {"lat": 39.7173, "lon": -86.2944}, "countryCode": "US"}, "averageDailyFlights": 0.29, "operators": [{"name": "FSR"}]}, {"destination": {"icao": "KMFE", "iata": "MFE", "name": "Mc Allen Miller", "shortName": "Miller", "municipalityName": "Mc Allen", "location": {"lat": 26.1758, "lon": -98.2386}, "countryCode": "US"}, "averageDailyFlights": 0.29, "operators": [{"name": "GXA"}]}, {"destination": {"icao": "KBNA", "iata": "BNA", "name": "Nashville ", "shortName": "Nashville", "municipalityName": "Nashville", "location": {"lat": 36.1245, "lon": -86.6782}, "countryCode": "US"}, "averageDailyFlights": 0.29, "operators": [{"name": "TWY"}]}, {"destination": {"icao": "KMSY", "iata": "MSY", "name": "New Orleans Louis Armstrong", "shortName": "Louis Armstrong", "municipalityName": "New Orleans", "location": {"lat": 29.9934, "lon": -90.258}, "countryCode": "US"}, "averageDailyFlights": 0.29, "operators": [{"name": "FSR"}]}, {"destination": {"icao": "KORF", "iata": "ORF", "name": "Norfolk ", "shortName": "Norfolk", "municipalityName": "Norfolk", "location": {"lat": 36.8946, "lon": -76.2012}, "countryCode": "US"}, "averageDailyFlights": 0.29, "operators": [{"name": "Breeze Airways", "iata": "MX", "icao": "MXY"}]}, {"destination": {"icao": "KILG", "iata": "ILG", "name": "Wilmington New Castle", "shortName": "New Castle", "municipalityName": "Wilmington", "location": {"lat": 39.6787, "lon": -75.6065}, "countryCode": "US"}, "averageDailyFlights": 0.29, "operators": [{"name": "TMB"}]}, {"destination": {"icao": "KBVY", "iata": "BVY", "name": "Beverly Municipal", "shortName": "Municipal", "municipalityName": "Beverly", "location": {"lat": 42.5842, "lon": -70.9165}, "countryCode": "US"}, "averageDailyFlights": 0.14, "operators": [{"name": "JRE"}]}, {"destination": {"icao": "KCPS", "iata": "CPS", "name": "Cahokia/St Louis St Louis Downtown", "shortName": "St Louis Downtown", "municipalityName": "Cahokia/St Louis", "location": {"lat": 38.5707, "lon": -90.1562}, "countryCode": "US"}, "averageDailyFlights": 0.14, "operators": [{"name": "BKN"}]}, {"destination": {"icao": "KCOU", "iata": "COU", "name": "Columbia Regional", "shortName": "Regional", "municipalityName": "Columbia", "location": {"lat": 38.8181, "lon": -92.2196}, "countryCode": "US"}, "averageDailyFlights": 0.14, "operators": [{"name": "FSR"}]}, {"destination": {"icao": "KAPA", "iata": "APA", "name": "Denver Centennial", "shortName": "Centennial", "municipalityName": "Denver", "location": {"lat": 39.5701, "lon": -104.849}, "countryCode": "US"}, "averageDailyFlights": 0.14, "operators": [{"name": "NetJets Aviation", "iata": "1I", "icao": "EJA"}]}, {"destination": {"icao": "KIAD", "iata": "IAD", "name": "District of Columbia Washington Dulles", "shortName": "Washington Dulles", "municipalityName": "District of Columbia", "location": {"lat": 38.9445, "lon": -77.4558}, "countryCode": "US"}, "averageDailyFlights": 0.14, "operators": [{"name": "NetJets Aviation", "iata": "1I", "icao": "EJA"}]}, {"destination": {"icao": "KGYY", "iata": "GYY", "name": "Gary Chicago", "shortName": "Chicago", "municipalityName": "Gary", "location": {"lat": 41.6163, "lon": -87.4128}, "countryCode": "US"}, "averageDailyFlights": 0.14, "operators": [{"name": "EJM"}]}, {"destination": {"icao": "KEFW", "iata": "EFW", "name": "Jefferson Municipal", "shortName": "Municipal", "municipalityName": "Jefferson", "location": {"lat": 42.0102, "lon": -94.3426}, "countryCode": "US"}, "averageDailyFlights": 0.14, "operators": [{"name": "Nordwind Airlines", "iata": "N4", "icao": "NWS"}]}, {"destination": {"icao": "KLNK", "iata": "LNK", "name": "Lincoln ", "shortName": "Lincoln", "municipalityName": "Lincoln", "location": {"lat": 40.851, "lon": -96.7592}, "countryCode": "US"}, "averageDailyFlights": 0.14, "operators": [{"name": "Breeze Airways", "iata": "MX", "icao": "MXY"}]}, {"destination": {"icao": "KAPF", "iata": "APF", "name": "Naples Municipal", "shortName": "Municipal", "municipalityName": "Naples", "location": {"lat": 26.1526, "lon": -81.7753}, "countryCode": "US"}, "averageDailyFlights": 0.14, "operators": [{"name": "EJM"}]}, {"destination": {"icao": "KUIN", "iata": "UIN", "name": "Quincy Regional Baldwin Field", "shortName": "Regional Baldwin Field", "municipalityName": "Quincy", "location": {"lat": 39.9427, "lon": -91.1946}, "countryCode": "US"}, "averageDailyFlights": 0.14, "operators": [{"name": "DCM"}]}, {"destination": {"icao": "KTVC", "iata": "TVC", "name": "Traverse City Cherry Capital", "shortName": "Cherry Capital", "municipalityName": "Traverse City", "location": {"lat": 44.7414, "lon": -85.5822}, "countryCode": "US"}, "averageDailyFlights": 0.14, "operators": [{"name": "WUP"}]}, {"destination": {"icao": "KTCL", "iata": "TCL", "name": "Tuscaloosa Regional", "shortName": "Regional", "municipalityName": "Tuscaloosa", "location": {"lat": 33.2206, "lon": -87.6114}, "countryCode": "US"}, "averageDailyFlights": 0.14, "operators": [{"name": "iAero Airways", "iata": "WQ", "icao": "SWQ"}]}]}