{"routes": [{"destination": {"icao": "KDEN", "iata": "DEN", "name": "Denver ", "shortName": "Denver", "municipalityName": "Denver", "location": {"lat": 39.8617, "lon": -104.673}, "countryCode": "US"}, "averageDailyFlights": 1.71, "operators": [{"name": "Denver Air Connection", "iata": "KG", "icao": "LYM"}]}, {"destination": {"icao": "KOMA", "iata": "OMA", "name": "Omaha Eppley Airfield", "shortName": "Eppley Airfield", "municipalityName": "Omaha", "location": {"lat": 41.3032, "lon": -95.8941}, "countryCode": "US"}, "averageDailyFlights": 1.14, "operators": [{"name": "BVN"}, {"name": "Ameriflight", "iata": "A8", "icao": "AMF"}]}, {"destination": {"icao": "KBIE", "iata": "BIE", "name": "Beatrice Municipal", "shortName": "Municipal", "municipalityName": "Beatrice", "location": {"lat": 40.3013, "lon": -96.7541}, "countryCode": "US"}, "averageDailyFlights": 0.86, "operators": [{"name": "Ameriflight", "iata": "A8", "icao": "AMF"}]}, {"destination": {"icao": "KLXN", "iata": "LXN", "name": "Lexington Jim Kelly Field", "shortName": "Jim Kelly Field", "municipalityName": "Lexington", "location": {"lat": 40.791, "lon": -99.7773}, "countryCode": "US"}, "averageDailyFlights": 0.29, "operators": [{"name": "SIH"}]}, {"destination": {"icao": "KSDL", "iata": "SCF", "name": "Scottsdale ", "shortName": "Scottsdale", "municipalityName": "Scottsdale", "location": {"lat": 33.6229, "lon": -111.911}, "countryCode": "US"}, "averageDailyFlights": 0.29, "operators": [{"name": "NetJets Aviation", "iata": "1I", "icao": "EJA"}]}, {"destination": {"icao": "KAIA", "iata": "AIA", "name": "Alliance Municipal", "shortName": "Municipal", "municipalityName": "Alliance", "location": {"lat": 42.0532, "lon": -102.804}, "countryCode": "US"}, "averageDailyFlights": 0.14, "operators": [{"name": "SIH"}]}, {"destination": {"icao": "KEAR", "iata": "EAR", "name": "Kearney Regional", "shortName": "Regional", "municipalityName": "Kearney", "location": {"lat": 40.727, "lon": -99.0068}, "countryCode": "US"}, "averageDailyFlights": 0.14, "operators": [{"name": "BVN"}]}, {"destination": {"icao": "KLBL", "iata": "LBL", "name": "Liberal Mid-America Regional", "shortName": "Mid-America Regional", "municipalityName": "Liberal", "location": {"lat": 37.0442, "lon": -100.96}, "countryCode": "US"}, "averageDailyFlights": 0.14, "operators": [{"name": "EMD"}]}, {"destination": {"icao": "KLBF", "iata": "LBF", "name": "North Platte Regional  Lee Bird Field", "shortName": "Regional  Lee Bird Field", "municipalityName": "North Platte", "location": {"lat": 41.1262, "lon": -100.684}, "countryCode": "US"}, "averageDailyFlights": 0.14, "operators": [{"name": "BVN"}]}]}