{"routes": [{"destination": {"icao": "KDFW", "iata": "DFW", "name": "Dallas-Fort Worth ", "shortName": "Dallas-Fort Worth", "municipalityName": "Dallas-Fort Worth", "location": {"lat": 32.8968, "lon": -97.038}, "countryCode": "US"}, "averageDailyFlights": 9.32, "operators": [{"name": "American Airlines", "iata": "AA", "icao": "AAL"}, {"name": "Envoy Air", "iata": "MQ", "icao": "ENY"}, {"name": "NetJets Aviation", "iata": "1I", "icao": "EJA"}]}, {"destination": {"icao": "KPHX", "iata": "PHX", "name": "Phoenix Sky Harbor", "shortName": "Sky Harbor", "municipalityName": "Phoenix", "location": {"lat": 33.4343, "lon": -112.012}, "countryCode": "US"}, "averageDailyFlights": 7.29, "operators": [{"name": "American Airlines", "iata": "AA", "icao": "AAL"}, {"name": "Southwest Airlines", "iata": "WN", "icao": "SWA"}, {"name": "SkyWest Airlines", "iata": "OO", "icao": "SKW"}]}, {"destination": {"icao": "KIAH", "iata": "IAH", "name": "Houston George Bush", "shortName": "George Bush", "municipalityName": "Houston", "location": {"lat": 29.9844, "lon": -95.3414}, "countryCode": "US"}, "averageDailyFlights": 6.57, "operators": [{"name": "United Airlines", "iata": "UA", "icao": "UAL"}, {"name": "Delta Air Lines", "iata": "DL", "icao": "DAL"}, {"name": "iAero Airways", "iata": "WQ", "icao": "SWQ"}]}, {"destination": {"icao": "KDAL", "iata": "DAL", "name": "Dallas Love Field", "shortName": "Love Field", "municipalityName": "Dallas", "location": {"lat": 32.8471, "lon": -96.8518}, "countryCode": "US"}, "averageDailyFlights": 5.29, "operators": [{"name": "XSR"}, {"name": "Southwest Airlines", "iata": "WN", "icao": "SWA"}, {"name": "NetJets Aviation", "iata": "1I", "icao": "EJA"}]}, {"destination": {"icao": "KDEN", "iata": "DEN", "name": "Denver ", "shortName": "Denver", "municipalityName": "Denver", "location": {"lat": 39.8617, "lon": -104.673}, "countryCode": "US"}, "averageDailyFlights": 5.0, "operators": [{"name": "United Airlines", "iata": "UA", "icao": "UAL"}, {"name": "Southwest Airlines", "iata": "WN", "icao": "SWA"}, {"name": "PJC"}, {"name": "Frontier Airlines", "iata": "F9", "icao": "FFT"}]}, {"destination": {"icao": "KLAS", "iata": "LAS", "name": "Las Vegas McCarran", "shortName": "McCarran", "municipalityName": "Las Vegas", "location": {"lat": 36.0801, "lon": -115.152}, "countryCode": "US"}, "averageDailyFlights": 4.0, "operators": [{"name": "Southwest Airlines", "iata": "WN", "icao": "SWA"}, {"name": "FFL"}, {"name": "CYO"}, {"name": "Frontier Airlines", "iata": "F9", "icao": "FFT"}, {"name": "NetJets Aviation", "iata": "1I", "icao": "EJA"}]}, {"destination": {"icao": "KAUS", "iata": "AUS", "name": "Austin Bergstrom", "shortName": "Bergstrom", "municipalityName": "Austin", "location": {"lat": 30.194498, "lon": -97.6699}, "countryCode": "US"}, "averageDailyFlights": 3.43, "operators": [{"name": "Southwest Airlines", "iata": "WN", "icao": "SWA"}, {"name": "CYC"}, {"name": "Libyan Airlines", "iata": "LN", "icao": "LAA"}, {"name": "CYO"}]}, {"destination": {"icao": "KHOU", "iata": "HOU", "name": "Houston William P Hobby", "shortName": "William P Hobby", "municipalityName": "Houston", "location": {"lat": 29.6454, "lon": -95.2789}, "countryCode": "US"}, "averageDailyFlights": 3.14, "operators": [{"name": "Southwest Airlines", "iata": "WN", "icao": "SWA"}, {"name": "SCM"}]}, {"destination": {"icao": "KLAX", "iata": "LAX", "name": "Los Angeles ", "shortName": "Los Angeles", "municipalityName": "Los Angeles", "location": {"lat": 33.9425, "lon": -118.408}, "countryCode": "US"}, "averageDailyFlights": 3.0, "operators": [{"name": "American Airlines", "iata": "AA", "icao": "AAL"}, {"name": "Southwest Airlines", "iata": "WN", "icao": "SWA"}]}, {"destination": {"icao": "KSAT", "iata": "SAT", "name": "San Antonio ", "shortName": "San Antonio", "municipalityName": "San Antonio", "location": {"lat": 29.5337, "lon": -98.4698}, "countryCode": "US"}, "averageDailyFlights": 2.43, "operators": [{"name": "Southwest Airlines", "iata": "WN", "icao": "SWA"}, {"name": "CYO"}, {"name": "Libyan Airlines", "iata": "LN", "icao": "LAA"}]}, {"destination": {"icao": "KATL", "iata": "ATL", "name": "Atlanta Hartsfield Jackson", "shortName": "Hartsfield Jackson", "municipalityName": "Atlanta", "location": {"lat": 33.6367, "lon": -84.4281}, "countryCode": "US"}, "averageDailyFlights": 1.86, "operators": [{"name": "Delta Air Lines", "iata": "DL", "icao": "DAL"}]}, {"destination": {"icao": "KTOL", "iata": "TOL", "name": "Toledo Express", "shortName": "Express", "municipalityName": "Toledo", "location": {"lat": 41.5868, "lon": -83.8078}, "countryCode": "US"}, "averageDailyFlights": 1.43, "operators": [{"name": "IFL"}, {"name": "RAX"}, {"name": "Ameriflight", "iata": "A8", "icao": "AMF"}]}, {"destination": {"icao": "KORD", "iata": "ORD", "name": "Chicago O'Hare", "shortName": "O'Hare", "municipalityName": "Chicago", "location": {"lat": 41.9786, "lon": -87.9048}, "countryCode": "US"}, "averageDailyFlights": 1.14, "operators": [{"name": "Envoy Air", "iata": "MQ", "icao": "ENY"}]}, {"destination": {"icao": "KLGB", "iata": "LGB", "name": "Long Beach Daugherty Field/", "shortName": "Daugherty Field/", "municipalityName": "Long Beach", "location": {"lat": 33.8177, "lon": -118.152}, "countryCode": "US"}, "averageDailyFlights": 1.14, "operators": [{"name": "CYO"}, {"name": "Southwest Airlines", "iata": "WN", "icao": "SWA"}]}, {"destination": {"icao": "KSEA", "iata": "SEA", "name": "Seattle Tacoma", "shortName": "Tacoma", "municipalityName": "Seattle", "location": {"lat": 47.449, "lon": -122.309}, "countryCode": "US"}, "averageDailyFlights": 1.14, "operators": [{"name": "Alaska Airlines", "iata": "AS", "icao": "ASA"}]}, {"destination": {"icao": "MMCU", "iata": "CUU", "name": "Chihuahua City General Roberto Fierro Villalobos", "shortName": "General Roberto Fierro Villalobos", "municipalityName": "Chihuahua City", "location": {"lat": 28.7029, "lon": -105.965}, "countryCode": "MX"}, "averageDailyFlights": 0.86, "operators": [{"name": "Gulf and Caribbean Cargo", "iata": "IF", "icao": "TSU"}]}, {"destination": {"icao": "KGYR", "iata": "GYR", "name": "Goodyear Phoenix", "shortName": "Phoenix", "municipalityName": "Goodyear", "location": {"lat": 33.4225, "lon": -112.376}, "countryCode": "US"}, "averageDailyFlights": 0.71, "operators": [{"name": "VECA", "iata": "VU", "icao": "VAR"}]}, {"destination": {"icao": "MGGT", "iata": "GUA", "name": "Guatemala City La Aurora", "shortName": "La Aurora", "municipalityName": "Guatemala City", "location": {"lat": 14.583299, "lon": -90.5275}, "countryCode": "GT"}, "averageDailyFlights": 0.71, "operators": [{"name": "iAero Airways", "iata": "WQ", "icao": "SWQ"}, {"name": "GXA"}]}, {"destination": {"icao": "KLRD", "iata": "LRD", "name": "Laredo ", "shortName": "Laredo", "municipalityName": "Laredo", "location": {"lat": 27.5438, "lon": -99.4616}, "countryCode": "US"}, "averageDailyFlights": 0.71, "operators": [{"name": "Ameriflight", "iata": "A8", "icao": "AMF"}, {"name": "PKW"}, {"name": "USA Jet Airlines", "iata": "UJ", "icao": "JUS"}]}, {"destination": {"icao": "KLBB", "iata": "LBB", "name": "Lubbock Preston Smith", "shortName": "Preston Smith", "municipalityName": "Lubbock", "location": {"lat": 33.6636, "lon": -101.823}, "countryCode": "US"}, "averageDailyFlights": 0.71, "operators": [{"name": "EMD"}, {"name": "GTX"}, {"name": "Libyan Airlines", "iata": "LN", "icao": "LAA"}]}, {"destination": {"icao": "KABQ", "iata": "ABQ", "name": "The Duke City Albuquerque  Sunport", "shortName": "Albuquerque  Sunport", "municipalityName": "The Duke City", "location": {"lat": 35.0402, "lon": -106.609}, "countryCode": "US"}, "averageDailyFlights": 0.71, "operators": [{"name": "CSI"}, {"name": "MMF"}]}, {"destination": {"icao": "KFFZ", "iata": "MSC", "name": "Mesa Falcon Field", "shortName": "Falcon Field", "municipalityName": "Mesa", "location": {"lat": 33.4608, "lon": -111.728}, "countryCode": "US"}, "averageDailyFlights": 0.57, "operators": [{"name": "OXF"}]}, {"destination": {"icao": "KMAF", "iata": "MAF", "name": "Midland ", "shortName": "Midland", "municipalityName": "Midland", "location": {"lat": 31.9425, "lon": -102.202}, "countryCode": "US"}, "averageDailyFlights": 0.57, "operators": [{"name": "CSI"}]}, {"destination": {"icao": "KSAN", "iata": "SAN", "name": "San Diego ", "shortName": "San Diego", "municipalityName": "San Diego", "location": {"lat": 32.7336, "lon": -117.19}, "countryCode": "US"}, "averageDailyFlights": 0.57, "operators": [{"name": "Southwest Airlines", "iata": "WN", "icao": "SWA"}]}, {"destination": {"icao": "KADS", "iata": "ADS", "name": "Dallas Addison", "shortName": "Addison", "municipalityName": "Dallas", "location": {"lat": 32.9686, "lon": -96.8364}, "countryCode": "US"}, "averageDailyFlights": 0.43, "operators": [{"name": "Ameriflight", "iata": "A8", "icao": "AMF"}, {"name": "Libyan Airlines", "iata": "LN", "icao": "LAA"}]}, {"destination": {"icao": "MMHO", "iata": "HMO", "name": "Hermosillo General Ignacio P. Garcia", "shortName": "General Ignacio P. Garcia", "municipalityName": "Hermosillo", "location": {"lat": 29.0959, "lon": -111.048}, "countryCode": "MX"}, "averageDailyFlights": 0.43, "operators": [{"name": "USA Jet Airlines", "iata": "UJ", "icao": "JUS"}]}, {"destination": {"icao": "KTUS", "iata": "TUS", "name": "Tucson ", "shortName": "Tucson", "municipalityName": "Tucson", "location": {"lat": 32.1161, "lon": -110.941}, "countryCode": "US"}, "averageDailyFlights": 0.43, "operators": [{"name": "MMF"}, {"name": "CYO"}]}, {"destination": {"icao": "KCNM", "iata": "CNM", "name": "Carlsbad Cavern City Air Terminal", "shortName": "Cavern City Air Terminal", "municipalityName": "Carlsbad", "location": {"lat": 32.3375, "lon": -104.263}, "countryCode": "US"}, "averageDailyFlights": 0.29, "operators": [{"name": "Libyan Airlines", "iata": "LN", "icao": "LAA"}, {"name": "CSI"}]}, {"destination": {"icao": "KEGE", "iata": "EGE", "name": "Eagle County Regional", "shortName": "County Regional", "municipalityName": "Eagle", "location": {"lat": 39.6426, "lon": -106.918}, "countryCode": "US"}, "averageDailyFlights": 0.29, "operators": [{"name": "NetJets Aviation", "iata": "1I", "icao": "EJA"}]}, {"destination": {"icao": "KMCI", "iata": "MCI", "name": "Kansas City ", "shortName": "Kansas City", "municipalityName": "Kansas City", "location": {"lat": 39.2976, "lon": -94.7139}, "countryCode": "US"}, "averageDailyFlights": 0.29, "operators": [{"name": "NetJets Aviation", "iata": "1I", "icao": "EJA"}]}, {"destination": {"icao": "KLRU", "iata": "LRU", "name": "Las Cruces ", "shortName": "Las Cruces", "municipalityName": "Las Cruces", "location": {"lat": 32.2894, "lon": -106.922}, "countryCode": "US"}, "averageDailyFlights": 0.29, "operators": [{"name": "FLC"}, {"name": "Libyan Airlines", "iata": "LN", "icao": "LAA"}]}, {"destination": {"icao": "KLVS", "iata": "LVS", "name": "Las Vegas Municipal", "shortName": "Municipal", "municipalityName": "Las Vegas", "location": {"lat": 35.6542, "lon": -105.142}, "countryCode": "US"}, "averageDailyFlights": 0.29, "operators": [{"name": "CSI"}]}, {"destination": {"icao": "KLYH", "iata": "LYH", "name": "Lynchburg Regional Preston Glenn Field", "shortName": "Regional Preston Glenn Field", "municipalityName": "Lynchburg", "location": {"lat": 37.3267, "lon": -79.2004}, "countryCode": "US"}, "averageDailyFlights": 0.29, "operators": [{"name": "FTN"}]}, {"destination": {"icao": "KMSY", "iata": "MSY", "name": "New Orleans Louis Armstrong", "shortName": "Louis Armstrong", "municipalityName": "New Orleans", "location": {"lat": 29.9934, "lon": -90.258}, "countryCode": "US"}, "averageDailyFlights": 0.29, "operators": [{"name": "MMF"}]}, {"destination": {"icao": "KOKC", "iata": "OKC", "name": "Oklahoma City Will Rogers World", "shortName": "Will Rogers World", "municipalityName": "Oklahoma City", "location": {"lat": 35.3931, "lon": -97.6007}, "countryCode": "US"}, "averageDailyFlights": 0.29, "operators": [{"name": "FLC"}, {"name": "USA Jet Airlines", "iata": "UJ", "icao": "JUS"}]}, {"destination": {"icao": "KIWA", "iata": "AZA", "name": "Phoenix -Mesa-Gateway", "shortName": "-Mesa-Gateway", "municipalityName": "Phoenix", "location": {"lat": 33.3078, "lon": -111.655}, "countryCode": "US"}, "averageDailyFlights": 0.29, "operators": [{"name": "CXK"}, {"name": "GXA"}]}, {"destination": {"icao": "KROG", "iata": "ROG", "name": "Rogers Municipal -Carter Field", "shortName": "Municipal -Carter Field", "municipalityName": "Rogers", "location": {"lat": 36.3723, "lon": -94.1069}, "countryCode": "US"}, "averageDailyFlights": 0.29, "operators": [{"name": "FFL"}]}, {"destination": {"icao": "KROW", "iata": "ROW", "name": "Roswell Air Center", "shortName": "Air Center", "municipalityName": "Roswell", "location": {"lat": 33.3016, "lon": -104.531}, "countryCode": "US"}, "averageDailyFlights": 0.29, "operators": [{"name": "Libyan Airlines", "iata": "LN", "icao": "LAA"}]}, {"destination": {"icao": "KSJT", "iata": "SJT", "name": "San Angelo Regional Mathis Field", "shortName": "Regional Mathis Field", "municipalityName": "San Angelo", "location": {"lat": 31.3577, "lon": -100.496}, "countryCode": "US"}, "averageDailyFlights": 0.29, "operators": [{"name": "Ameriflight", "iata": "A8", "icao": "AMF"}, {"name": "EMD"}]}, {"destination": {"icao": "KSAF", "iata": "SAF", "name": "Santa Fe Municipal", "shortName": "Municipal", "municipalityName": "Santa Fe", "location": {"lat": 35.6171, "lon": -106.089}, "countryCode": "US"}, "averageDailyFlights": 0.29, "operators": [{"name": "NetJets Aviation", "iata": "1I", "icao": "EJA"}, {"name": "CYO"}]}, {"destination": {"icao": "KSVC", "iata": "SVC", "name": "Silver City Grant County", "shortName": "Grant County", "municipalityName": "Silver City", "location": {"lat": 32.6365, "lon": -108.156}, "countryCode": "US"}, "averageDailyFlights": 0.29, "operators": [{"name": "Libyan Airlines", "iata": "LN", "icao": "LAA"}]}, {"destination": {"icao": "CYYZ", "iata": "YYZ", "name": "Toronto Pearson", "shortName": "Pearson", "municipalityName": "Toronto", "location": {"lat": 43.6772, "lon": -79.6306}, "countryCode": "CA"}, "averageDailyFlights": 0.29, "operators": [{"name": "PHX"}]}, {"destination": {"icao": "KALO", "iata": "ALO", "name": "Waterloo Regional", "shortName": "Regional", "municipalityName": "Waterloo", "location": {"lat": 42.5571, "lon": -92.4003}, "countryCode": "US"}, "averageDailyFlights": 0.29, "operators": [{"name": "IFL"}, {"name": "USA Jet Airlines", "iata": "UJ", "icao": "JUS"}]}, {"destination": {"icao": "KATS", "iata": "ATS", "name": "Artesia Municipal", "shortName": "Municipal", "municipalityName": "Artesia", "location": {"lat": 32.8525, "lon": -104.468}, "countryCode": "US"}, "averageDailyFlights": 0.14, "operators": [{"name": "Libyan Airlines", "iata": "LN", "icao": "LAA"}]}, {"destination": {"icao": "KASE", "iata": "ASE", "name": "Aspen Sardy Field", "shortName": "Sardy Field", "municipalityName": "Aspen", "location": {"lat": 39.2232, "lon": -106.869}, "countryCode": "US"}, "averageDailyFlights": 0.14, "operators": [{"name": "NetJets Aviation", "iata": "1I", "icao": "EJA"}]}, {"destination": {"icao": "KBOI", "iata": "BOI", "name": "Boise Gowen field", "shortName": "Gowen field", "municipalityName": "Boise", "location": {"lat": 43.5644, "lon": -116.223}, "countryCode": "US"}, "averageDailyFlights": 0.14, "operators": [{"name": "Ameristar Jet Charter", "iata": "7Z", "icao": "AJI"}]}, {"destination": {"icao": "KBUR", "iata": "BUR", "name": "Burbank Bob Hope", "shortName": "Bob Hope", "municipalityName": "Burbank", "location": {"lat": 34.2007, "lon": -118.359}, "countryCode": "US"}, "averageDailyFlights": 0.14, "operators": [{"name": "LXJ"}]}, {"destination": {"icao": "KCRQ", "iata": "CLD", "name": "Carlsbad Mc Clellan-Palomar", "shortName": "Mc Clellan-Palomar", "municipalityName": "Carlsbad", "location": {"lat": 33.1283, "lon": -117.28}, "countryCode": "US"}, "averageDailyFlights": 0.14, "operators": [{"name": "RLI"}]}, {"destination": {"icao": "KCNO", "iata": "CNO", "name": "Chino ", "shortName": "Chino", "municipalityName": "Chino", "location": {"lat": 33.9747, "lon": -117.637}, "countryCode": "US"}, "averageDailyFlights": 0.14, "operators": [{"name": "Ameriflight", "iata": "A8", "icao": "AMF"}]}, {"destination": {"icao": "KDRT", "iata": "DRT", "name": "Del Rio ", "shortName": "Del Rio", "municipalityName": "Del Rio", "location": {"lat": 29.3742, "lon": -100.927}, "countryCode": "US"}, "averageDailyFlights": 0.14, "operators": [{"name": "USA Jet Airlines", "iata": "UJ", "icao": "JUS"}]}, {"destination": {"icao": "KAPA", "iata": "APA", "name": "Denver Centennial", "shortName": "Centennial", "municipalityName": "Denver", "location": {"lat": 39.5701, "lon": -104.849}, "countryCode": "US"}, "averageDailyFlights": 0.14, "operators": [{"name": "CYO"}]}, {"destination": {"icao": "KBJC", "iata": "BJC", "name": "Denver Rocky Mountain Metropolitan", "shortName": "Rocky Mountain Metropolitan", "municipalityName": "Denver", "location": {"lat": 39.9088, "lon": -105.117}, "countryCode": "US"}, "averageDailyFlights": 0.14, "operators": [{"name": "NetJets Aviation", "iata": "1I", "icao": "EJA"}]}, {"destination": {"icao": "CYEG", "iata": "YEG", "name": "Edmonton ", "shortName": "Edmonton", "municipalityName": "Edmonton", "location": {"lat": 53.3097, "lon": -113.58}, "countryCode": "CA"}, "averageDailyFlights": 0.14, "operators": [{"name": "Eastern Airlines", "iata": "2D", "icao": "EAL"}]}, {"destination": {"icao": "KELP", "iata": "ELP", "name": "El Paso ", "shortName": "El Paso", "municipalityName": "El Paso", "location": {"lat": 31.8072, "lon": -106.378}, "countryCode": "US"}, "averageDailyFlights": 0.14, "operators": [{"name": "FLC"}]}, {"destination": {"icao": "KGNT", "iata": "GNT", "name": "Grants -Milan Municipal", "shortName": "-Milan Municipal", "municipalityName": "Grants", "location": {"lat": 35.1673, "lon": -107.902}, "countryCode": "US"}, "averageDailyFlights": 0.14, "operators": [{"name": "CSI"}]}, {"destination": {"icao": "KHGR", "iata": "HGR", "name": "Hagerstown Regional Richard A Henson Field", "shortName": "Regional Richard A Henson Field", "municipalityName": "Hagerstown", "location": {"lat": 39.7079, "lon": -77.7295}, "countryCode": "US"}, "averageDailyFlights": 0.14, "operators": [{"name": "USC"}]}, {"destination": {"icao": "KHOB", "iata": "HOB", "name": "Hobbs Lea County Regional", "shortName": "Lea County Regional", "municipalityName": "Hobbs", "location": {"lat": 32.6875, "lon": -103.217}, "countryCode": "US"}, "averageDailyFlights": 0.14, "operators": [{"name": "CSI"}]}, {"destination": {"icao": "KLNK", "iata": "LNK", "name": "Lincoln ", "shortName": "Lincoln", "municipalityName": "Lincoln", "location": {"lat": 40.851, "lon": -96.7592}, "countryCode": "US"}, "averageDailyFlights": 0.14, "operators": [{"name": "NetJets Aviation", "iata": "1I", "icao": "EJA"}]}, {"destination": {"icao": "MMMM", "iata": "MLM", "name": "Morelia General Francisco J. Mujica", "shortName": "General Francisco J. Mujica", "municipalityName": "Morelia", "location": {"lat": 19.8499, "lon": -101.025}, "countryCode": "MX"}, "averageDailyFlights": 0.14, "operators": [{"name": "iAero Airways", "iata": "WQ", "icao": "SWQ"}]}, {"destination": {"icao": "KMCO", "iata": "MCO", "name": "Orlando ", "shortName": "Orlando", "municipalityName": "Orlando", "location": {"lat": 28.4294, "lon": -81.309}, "countryCode": "US"}, "averageDailyFlights": 0.14, "operators": [{"name": "Southwest Airlines", "iata": "WN", "icao": "SWA"}]}, {"destination": {"icao": "KSRR", "iata": "RUI", "name": "Ruidoso Sierra Blanca Regional", "shortName": "Sierra Blanca Regional", "municipalityName": "Ruidoso", "location": {"lat": 33.4628, "lon": -105.535}, "countryCode": "US"}, "averageDailyFlights": 0.14, "operators": [{"name": "CYO"}]}, {"destination": {"icao": "KSBA", "iata": "SBA", "name": "Santa Barbara Municipal", "shortName": "Municipal", "municipalityName": "Santa Barbara", "location": {"lat": 34.4262, "lon": -119.84}, "countryCode": "US"}, "averageDailyFlights": 0.14, "operators": [{"name": "CYO"}]}, {"destination": {"icao": "KSGU", "iata": "SGU", "name": "St. George St George Municipal", "shortName": "St George Municipal", "municipalityName": "St. George", "location": {"lat": 37.03639, "lon": -113.51031}, "countryCode": "US"}, "averageDailyFlights": 0.14, "operators": [{"name": "CYO"}]}, {"destination": {"icao": "KTEX", "iata": "TEX", "name": "Telluride Regional", "shortName": "Regional", "municipalityName": "Telluride", "location": {"lat": 37.9538, "lon": -107.908}, "countryCode": "US"}, "averageDailyFlights": 0.14, "operators": [{"name": "NetJets Aviation", "iata": "1I", "icao": "EJA"}]}]}