{"routes": [{"destination": {"icao": "KPHX", "iata": "PHX", "name": "Phoenix Sky Harbor", "shortName": "Sky Harbor", "municipalityName": "Phoenix", "location": {"lat": 33.4343, "lon": -112.012}, "countryCode": "US"}, "averageDailyFlights": 4.71, "operators": [{"name": "Empire Airlines", "iata": "EM", "icao": "CFS"}, {"name": "NetJets Aviation", "iata": "1I", "icao": "EJA"}, {"name": "American Airlines", "iata": "AA", "icao": "AAL"}, {"name": "Southern Airways Express", "iata": "9X", "icao": "FDY"}, {"name": "SkyWest Airlines", "iata": "OO", "icao": "SKW"}]}, {"destination": {"icao": "KDFW", "iata": "DFW", "name": "Dallas-Fort Worth ", "shortName": "Dallas-Fort Worth", "municipalityName": "Dallas-Fort Worth", "location": {"lat": 32.8968, "lon": -97.038}, "countryCode": "US"}, "averageDailyFlights": 1.14, "operators": [{"name": "American Airlines", "iata": "AA", "icao": "AAL"}]}, {"destination": {"icao": "KSDL", "iata": "SCF", "name": "Scottsdale ", "shortName": "Scottsdale", "municipalityName": "Scottsdale", "location": {"lat": 33.6229, "lon": -111.911}, "countryCode": "US"}, "averageDailyFlights": 0.71, "operators": [{"name": "FFL"}, {"name": "FTH"}, {"name": "LXJ"}]}, {"destination": {"icao": "KLAS", "iata": "LAS", "name": "Las Vegas McCarran", "shortName": "McCarran", "municipalityName": "Las Vegas", "location": {"lat": 36.0801, "lon": -115.152}, "countryCode": "US"}, "averageDailyFlights": 0.43, "operators": [{"name": "FTH"}, {"name": "Libyan Airlines", "iata": "LN", "icao": "LAA"}, {"name": "LXJ"}]}, {"destination": {"icao": "KGUP", "iata": "GUP", "name": "Gallup Municipal", "shortName": "Municipal", "municipalityName": "Gallup", "location": {"lat": 35.5111, "lon": -108.789}, "countryCode": "US"}, "averageDailyFlights": 0.29, "operators": [{"name": "CSI"}]}, {"destination": {"icao": "KFMN", "iata": "FMN", "name": "Farmington Four Corners Regional", "shortName": "Four Corners Regional", "municipalityName": "Farmington", "location": {"lat": 36.7412, "lon": -108.23}, "countryCode": "US"}, "averageDailyFlights": 0.14, "operators": [{"name": "CSI"}]}, {"destination": {"icao": "KGYR", "iata": "GYR", "name": "Goodyear Phoenix", "shortName": "Phoenix", "municipalityName": "Goodyear", "location": {"lat": 33.4225, "lon": -112.376}, "countryCode": "US"}, "averageDailyFlights": 0.14, "operators": [{"name": "VECA", "iata": "VU", "icao": "VAR"}]}, {"destination": {"icao": "KEFD", "iata": "EFD", "name": "Houston Ellington", "shortName": "Ellington", "municipalityName": "Houston", "location": {"lat": 29.6073, "lon": -95.1588}, "countryCode": "US"}, "averageDailyFlights": 0.14, "operators": [{"name": "LXJ"}]}, {"destination": {"icao": "KIGM", "iata": "IGM", "name": "Kingman ", "shortName": "Kingman", "municipalityName": "Kingman", "location": {"lat": 35.2595, "lon": -113.938}, "countryCode": "US"}, "averageDailyFlights": 0.14, "operators": [{"name": "Libyan Airlines", "iata": "LN", "icao": "LAA"}]}, {"destination": {"icao": "KFFZ", "iata": "MSC", "name": "Mesa Falcon Field", "shortName": "Falcon Field", "municipalityName": "Mesa", "location": {"lat": 33.4608, "lon": -111.728}, "countryCode": "US"}, "averageDailyFlights": 0.14, "operators": [{"name": "NetJets Aviation", "iata": "1I", "icao": "EJA"}]}, {"destination": {"icao": "KOAK", "iata": "OAK", "name": "Oakland Metropolitan", "shortName": "Metropolitan", "municipalityName": "Oakland", "location": {"lat": 37.7213, "lon": -122.221}, "countryCode": "US"}, "averageDailyFlights": 0.14, "operators": [{"name": "NetJets Aviation", "iata": "1I", "icao": "EJA"}]}, {"destination": {"icao": "KPGA", "iata": "PGA", "name": "Page Municipal", "shortName": "Municipal", "municipalityName": "Page", "location": {"lat": 36.9261, "lon": -111.448}, "countryCode": "US"}, "averageDailyFlights": 0.14, "operators": [{"name": "Libyan Airlines", "iata": "LN", "icao": "LAA"}]}, {"destination": {"icao": "KSBA", "iata": "SBA", "name": "Santa Barbara Municipal", "shortName": "Municipal", "municipalityName": "Santa Barbara", "location": {"lat": 34.4262, "lon": -119.84}, "countryCode": "US"}, "averageDailyFlights": 0.14, "operators": [{"name": "LXJ"}]}, {"destination": {"icao": "KSKX", "iata": "TSM", "name": "Taos Regional", "shortName": "Regional", "municipalityName": "Taos", "location": {"lat": 36.4582, "lon": -105.672}, "countryCode": "US"}, "averageDailyFlights": 0.14, "operators": [{"name": "My Jet Xpress Airlines", "iata": "N7", "icao": "NEP"}]}, {"destination": {"icao": "KTEX", "iata": "TEX", "name": "Telluride Regional", "shortName": "Regional", "municipalityName": "Telluride", "location": {"lat": 37.9538, "lon": -107.908}, "countryCode": "US"}, "averageDailyFlights": 0.14, "operators": [{"name": "FFL"}]}, {"destination": {"icao": "KTUS", "iata": "TUS", "name": "Tucson ", "shortName": "Tucson", "municipalityName": "Tucson", "location": {"lat": 32.1161, "lon": -110.941}, "countryCode": "US"}, "averageDailyFlights": 0.14, "operators": [{"name": "LXJ"}]}, {"destination": {"icao": "KVNY", "iata": "VNY", "name": "Van Nuys ", "shortName": "Van Nuys", "municipalityName": "Van Nuys", "location": {"lat": 34.2098, "lon": -118.49}, "countryCode": "US"}, "averageDailyFlights": 0.14, "operators": [{"name": "LXJ"}]}]}