{"routes": [{"destination": {"name": "Khotorn"}, "averageDailyFlights": 0.43, "operators": [{"name": "Advanced Air", "iata": "AN", "icao": "WSN"}]}, {"destination": {"icao": "KSJC", "iata": "SJC", "name": "San Jose Norman Y. Mineta", "shortName": "Norman Y. Mineta", "municipalityName": "San Jose", "location": {"lat": 37.3626, "lon": -121.929}, "countryCode": "US"}, "averageDailyFlights": 0.38, "operators": [{"name": "NetJets Aviation", "iata": "1I", "icao": "EJA"}, {"name": "Advanced Air", "iata": "AN", "icao": "WSN"}]}, {"destination": {"icao": "KCRQ", "iata": "CLD", "name": "Carlsbad Mc Clellan-Palomar", "shortName": "Mc Clellan-Palomar", "municipalityName": "Carlsbad", "location": {"lat": 33.1283, "lon": -117.28}, "countryCode": "US"}, "averageDailyFlights": 0.29, "operators": [{"name": "Advanced Air", "iata": "AN", "icao": "WSN"}]}, {"destination": {"icao": "KRNO", "iata": "RNO", "name": "Reno Tahoe", "shortName": "Tahoe", "municipalityName": "Reno", "location": {"lat": 39.4991, "lon": -119.768}, "countryCode": "US"}, "averageDailyFlights": 0.29, "operators": [{"name": "REH"}]}, {"destination": {"icao": "KGJT", "iata": "GJT", "name": "Grand Junction Regional", "shortName": "Regional", "municipalityName": "Grand Junction", "location": {"lat": 39.1224, "lon": -108.527}, "countryCode": "US"}, "averageDailyFlights": 0.14, "operators": [{"name": "VNT"}]}, {"destination": {"icao": "KSNA", "iata": "SNA", "name": "Santa Ana John Wayne -Orange County", "shortName": "John Wayne -Orange County", "municipalityName": "Santa Ana", "location": {"lat": 33.6757, "lon": -117.868}, "countryCode": "US"}, "averageDailyFlights": 0.14, "operators": [{"name": "CYO"}]}]}