{"routes": [{"destination": {"icao": "KMYR", "iata": "MYR", "name": "Myrtle Beach ", "shortName": "Myrtle Beach", "municipalityName": "Myrtle Beach", "location": {"lat": 33.6797, "lon": -78.9283}, "countryCode": "US"}, "averageDailyFlights": 12.86, "operators": [{"name": "LTA"}]}, {"destination": {"icao": "KCLT", "iata": "CLT", "name": "Charlotte Douglas", "shortName": "Douglas", "municipalityName": "Charlotte", "location": {"lat": 35.214, "lon": -80.9431}, "countryCode": "US"}, "averageDailyFlights": 7.71, "operators": [{"name": "American Airlines", "iata": "AA", "icao": "AAL"}]}, {"destination": {"icao": "KATL", "iata": "ATL", "name": "Atlanta Hartsfield Jackson", "shortName": "Hartsfield Jackson", "municipalityName": "Atlanta", "location": {"lat": 33.6367, "lon": -84.4281}, "countryCode": "US"}, "averageDailyFlights": 3.57, "operators": [{"name": "Delta Air Lines", "iata": "DL", "icao": "DAL"}, {"name": "NetJets Aviation", "iata": "1I", "icao": "EJA"}]}, {"destination": {"icao": "KEWR", "iata": "EWR", "name": "Newark Liberty", "shortName": "Liberty", "municipalityName": "Newark", "location": {"lat": 40.6925, "lon": -74.1687}, "countryCode": "US"}, "averageDailyFlights": 3.0, "operators": [{"name": "United Airlines", "iata": "UA", "icao": "UAL"}, {"name": "Spirit Airlines", "iata": "NK", "icao": "NKS"}]}, {"destination": {"icao": "KCRE", "iata": "CRE", "name": "North Myrtle Beach Grand Strand", "shortName": "Grand Strand", "municipalityName": "North Myrtle Beach", "location": {"lat": 33.8117, "lon": -78.7239}, "countryCode": "US"}, "averageDailyFlights": 3.0, "operators": [{"name": "LTA"}]}, {"destination": {"icao": "KBWI", "iata": "BWI", "name": "Baltimore Washington  Thurgood Marshall", "shortName": "Washington  Thurgood Marshall", "municipalityName": "Baltimore", "location": {"lat": 39.1754, "lon": -76.6683}, "countryCode": "US"}, "averageDailyFlights": 2.71, "operators": [{"name": "Southwest Airlines", "iata": "WN", "icao": "SWA"}]}, {"destination": {"icao": "KLGA", "iata": "LGA", "name": "New York La Guardia", "shortName": "La Guardia", "municipalityName": "New York", "location": {"lat": 40.7772, "lon": -73.8726}, "countryCode": "US"}, "averageDailyFlights": 2.29, "operators": [{"name": "Delta Air Lines", "iata": "DL", "icao": "DAL"}, {"name": "Spirit Airlines", "iata": "NK", "icao": "NKS"}]}, {"destination": {"icao": "KILM", "iata": "ILM", "name": "Wilmington ", "shortName": "Wilmington", "municipalityName": "Wilmington", "location": {"lat": 34.2706, "lon": -77.9026}, "countryCode": "US"}, "averageDailyFlights": 2.0, "operators": [{"name": "LTA"}]}, {"destination": {"icao": "KFLO", "iata": "FLO", "name": "Florence Regional", "shortName": "Regional", "municipalityName": "Florence", "location": {"lat": 34.1854, "lon": -79.7239}, "countryCode": "US"}, "averageDailyFlights": 1.43, "operators": [{"name": "LTA"}]}, {"destination": {"icao": "KGGE", "iata": "GGE", "name": "Georgetown County", "shortName": "County", "municipalityName": "Georgetown", "location": {"lat": 33.3117, "lon": -79.3196}, "countryCode": "US"}, "averageDailyFlights": 1.43, "operators": [{"name": "LTA"}]}, {"destination": {"icao": "KBNA", "iata": "BNA", "name": "Nashville ", "shortName": "Nashville", "municipalityName": "Nashville", "location": {"lat": 36.1245, "lon": -86.6782}, "countryCode": "US"}, "averageDailyFlights": 1.29, "operators": [{"name": "Southwest Airlines", "iata": "WN", "icao": "SWA"}]}, {"destination": {"icao": "KBOS", "iata": "BOS", "name": "Boston General Edward Lawrence Logan", "shortName": "General Edward Lawrence Logan", "municipalityName": "Boston", "location": {"lat": 42.3643, "lon": -71.0052}, "countryCode": "US"}, "averageDailyFlights": 1.14, "operators": [{"name": "Spirit Airlines", "iata": "NK", "icao": "NKS"}]}, {"destination": {"icao": "KDTW", "iata": "DTW", "name": "Detroit Metropolitan Wayne County", "shortName": "Metropolitan Wayne County", "municipalityName": "Detroit", "location": {"lat": 42.2124, "lon": -83.3534}, "countryCode": "US"}, "averageDailyFlights": 1.14, "operators": [{"name": "Delta Air Lines", "iata": "DL", "icao": "DAL"}]}, {"destination": {"icao": "KDCA", "iata": "DCA", "name": "District of Columbia Ronald Reagan Washington National", "shortName": "Ronald Reagan Washington National", "municipalityName": "District of Columbia", "location": {"lat": 38.8521, "lon": -77.0377}, "countryCode": "US"}, "averageDailyFlights": 1.14, "operators": [{"name": "American Airlines", "iata": "AA", "icao": "AAL"}]}, {"destination": {"icao": "KFLL", "iata": "FLL", "name": "Fort Lauderdale Hollywood", "shortName": "Hollywood", "municipalityName": "Fort Lauderdale", "location": {"lat": 26.0726, "lon": -80.1527}, "countryCode": "US"}, "averageDailyFlights": 1.14, "operators": [{"name": "Spirit Airlines", "iata": "NK", "icao": "NKS"}]}, {"destination": {"icao": "KMCO", "iata": "MCO", "name": "Orlando ", "shortName": "Orlando", "municipalityName": "Orlando", "location": {"lat": 28.4294, "lon": -81.309}, "countryCode": "US"}, "averageDailyFlights": 1.14, "operators": [{"name": "Spirit Airlines", "iata": "NK", "icao": "NKS"}]}, {"destination": {"icao": "KPHL", "iata": "PHL", "name": "Philadelphia ", "shortName": "Philadelphia", "municipalityName": "Philadelphia", "location": {"lat": 39.8719, "lon": -75.2411}, "countryCode": "US"}, "averageDailyFlights": 1.14, "operators": [{"name": "American Airlines", "iata": "AA", "icao": "AAL"}]}, {"destination": {"icao": "KMDW", "iata": "MDW", "name": "Chicago Midway", "shortName": "Midway", "municipalityName": "Chicago", "location": {"lat": 41.786, "lon": -87.7524}, "countryCode": "US"}, "averageDailyFlights": 1.0, "operators": [{"name": "Southwest Airlines", "iata": "WN", "icao": "SWA"}]}, {"destination": {"icao": "KLBT", "iata": "LBT", "name": "Lumberton Regional", "shortName": "Regional", "municipalityName": "Lumberton", "location": {"lat": 34.6099, "lon": -79.0594}, "countryCode": "US"}, "averageDailyFlights": 1.0, "operators": [{"name": "LTA"}]}, {"destination": {"icao": "KCHS", "iata": "CHS", "name": "Charleston Air Force Base-", "shortName": "Air Force Base-", "municipalityName": "Charleston", "location": {"lat": 32.8986, "lon": -80.0405}, "countryCode": "US"}, "averageDailyFlights": 0.43, "operators": [{"name": "BOE"}]}, {"destination": {"icao": "KCHO", "iata": "CHO", "name": "Charlottesville Albemarle", "shortName": "Albemarle", "municipalityName": "Charlottesville", "location": {"lat": 38.1386, "lon": -78.4529}, "countryCode": "US"}, "averageDailyFlights": 0.43, "operators": [{"name": "LTA"}]}, {"destination": {"icao": "KCAE", "iata": "CAE", "name": "Columbia Metropolitan", "shortName": "Metropolitan", "municipalityName": "Columbia", "location": {"lat": 33.9388, "lon": -81.1195}, "countryCode": "US"}, "averageDailyFlights": 0.43, "operators": [{"name": "LTA"}]}, {"destination": {"icao": "KABE", "iata": "ABE", "name": "Allentown Lehigh Valley", "shortName": "Lehigh Valley", "municipalityName": "Allentown", "location": {"lat": 40.6521, "lon": -75.4408}, "countryCode": "US"}, "averageDailyFlights": 0.29, "operators": [{"name": "Allegiant Air", "iata": "G4", "icao": "AAY"}]}, {"destination": {"icao": "KARW", "iata": "BFT", "name": "Beaufort County", "shortName": "County", "municipalityName": "Beaufort", "location": {"lat": 32.4122, "lon": -80.6344}, "countryCode": "US"}, "averageDailyFlights": 0.29, "operators": [{"name": "LTA"}]}, {"destination": {"icao": "KCTZ", "iata": "CTZ", "name": "Clinton Sampson County", "shortName": "Sampson County", "municipalityName": "Clinton", "location": {"lat": 34.9756, "lon": -78.3646}, "countryCode": "US"}, "averageDailyFlights": 0.29, "operators": [{"name": "LTA"}]}, {"destination": {"icao": "MYAB", "iata": "MAY", "name": "Mangrove Cay Clarence A. Bain", "shortName": "Clarence A. Bain", "municipalityName": "Mangrove Cay", "location": {"lat": 24.2877, "lon": -77.6846}, "countryCode": "BS"}, "averageDailyFlights": 0.29, "operators": [{"name": "JRE"}]}, {"destination": {"icao": "KHVN", "iata": "HVN", "name": "New Haven Tweed", "shortName": "Tweed", "municipalityName": "New Haven", "location": {"lat": 41.2637, "lon": -72.8868}, "countryCode": "US"}, "averageDailyFlights": 0.29, "operators": [{"name": "VXP"}]}, {"destination": {"icao": "KSWF", "iata": "SWF", "name": "Newburgh Stewart", "shortName": "Stewart", "municipalityName": "Newburgh", "location": {"lat": 41.5041, "lon": -74.1048}, "countryCode": "US"}, "averageDailyFlights": 0.29, "operators": [{"name": "Allegiant Air", "iata": "G4", "icao": "AAY"}]}, {"destination": {"icao": "KORF", "iata": "ORF", "name": "Norfolk ", "shortName": "Norfolk", "municipalityName": "Norfolk", "location": {"lat": 36.8946, "lon": -76.2012}, "countryCode": "US"}, "averageDailyFlights": 0.29, "operators": [{"name": "RVJ"}]}, {"destination": {"icao": "KRDU", "iata": "RDU", "name": "Raleigh/Durham Raleigh Durham", "shortName": "Raleigh Durham", "municipalityName": "Raleigh/Durham", "location": {"lat": 35.8776, "lon": -78.7875}, "countryCode": "US"}, "averageDailyFlights": 0.29, "operators": [{"name": "OKC"}]}, {"destination": {"icao": "KAVL", "iata": "AVL", "name": "Asheville Regional", "shortName": "Regional", "municipalityName": "Asheville", "location": {"lat": 35.4362, "lon": -82.5418}, "countryCode": "US"}, "averageDailyFlights": 0.14, "operators": [{"name": "LTA"}]}, {"destination": {"icao": "KAGS", "iata": "AGS", "name": "Augusta Regional At Bush Field", "shortName": "Regional At Bush Field", "municipalityName": "Augusta", "location": {"lat": 33.3699, "lon": -81.9645}, "countryCode": "US"}, "averageDailyFlights": 0.14, "operators": [{"name": "LTA"}]}, {"destination": {"icao": "KBBP", "iata": "BTN", "name": "Bennettsville Marlboro County Jetport H.E. Avent Field", "shortName": "Marlboro County Jetport H.E. Avent Field", "municipalityName": "Bennettsville", "location": {"lat": 34.6217, "lon": -79.7344}, "countryCode": "US"}, "averageDailyFlights": 0.14, "operators": [{"name": "LTA"}]}, {"destination": {"icao": "KTRI", "iata": "TRI", "name": "Bristol/Johnson/Kingsport Tri Cities Regional Tn Va", "shortName": "Tri Cities Regional Tn Va", "municipalityName": "Bristol/Johnson/Kingsport", "location": {"lat": 36.4752, "lon": -82.4074}, "countryCode": "US"}, "averageDailyFlights": 0.14, "operators": [{"name": "LTA"}]}, {"destination": {"icao": "KFRG", "iata": "FRG", "name": "Farmingdale Republic", "shortName": "Republic", "municipalityName": "Farmingdale", "location": {"lat": 40.7288, "lon": -73.4134}, "countryCode": "US"}, "averageDailyFlights": 0.14, "operators": [{"name": "CNS"}]}, {"destination": {"icao": "KFXE", "iata": "FXE", "name": "Fort Lauderdale Executive", "shortName": "Executive", "municipalityName": "Fort Lauderdale", "location": {"lat": 26.197298, "lon": -80.1707}, "countryCode": "US"}, "averageDailyFlights": 0.14, "operators": [{"name": "WSP"}]}, {"destination": {"icao": "KGNV", "iata": "GNV", "name": "Gainesville Regional", "shortName": "Regional", "municipalityName": "Gainesville", "location": {"lat": 29.6901, "lon": -82.2718}, "countryCode": "US"}, "averageDailyFlights": 0.14, "operators": [{"name": "WSP"}]}, {"destination": {"icao": "KGRD", "iata": "GRD", "name": "Greenwood County", "shortName": "County", "municipalityName": "Greenwood", "location": {"lat": 34.2487, "lon": -82.1591}, "countryCode": "US"}, "averageDailyFlights": 0.14, "operators": [{"name": "NetJets Aviation", "iata": "1I", "icao": "EJA"}]}, {"destination": {"icao": "KMDT", "iata": "MDT", "name": "Harrisburg ", "shortName": "Harrisburg", "municipalityName": "Harrisburg", "location": {"lat": 40.1935, "lon": -76.7634}, "countryCode": "US"}, "averageDailyFlights": 0.14, "operators": [{"name": "TEK"}]}, {"destination": {"icao": "KROA", "iata": "ROA", "name": "Roanoke \u2013Blacksburg Regional", "shortName": "\u2013Blacksburg Regional", "municipalityName": "Roanoke", "location": {"lat": 37.3255, "lon": -79.9754}, "countryCode": "US"}, "averageDailyFlights": 0.14, "operators": [{"name": "Sun Country Airlines", "iata": "SY", "icao": "SCX"}]}, {"destination": {"icao": "KSBY", "iata": "SBY", "name": "Salisbury Ocean City Wicomico Regional", "shortName": "Ocean City Wicomico Regional", "municipalityName": "Salisbury", "location": {"lat": 38.3405, "lon": -75.5103}, "countryCode": "US"}, "averageDailyFlights": 0.14, "operators": [{"name": "NetJets Aviation", "iata": "1I", "icao": "EJA"}]}, {"destination": {"icao": "KTMA", "iata": "TMA", "name": "Tifton Henry Tift Myers", "shortName": "Henry Tift Myers", "municipalityName": "Tifton", "location": {"lat": 31.429, "lon": -83.4885}, "countryCode": "US"}, "averageDailyFlights": 0.14, "operators": [{"name": "LTA"}]}, {"destination": {"icao": "KPBI", "iata": "PBI", "name": "West Palm Beach Palm Beach", "shortName": "Palm Beach", "municipalityName": "West Palm Beach", "location": {"lat": 26.6832, "lon": -80.0956}, "countryCode": "US"}, "averageDailyFlights": 0.14, "operators": [{"name": "NetJets Aviation", "iata": "1I", "icao": "EJA"}]}, {"destination": {"icao": "KHPN", "iata": "HPN", "name": "White Plains Westchester County", "shortName": "Westchester County", "municipalityName": "White Plains", "location": {"lat": 41.067, "lon": -73.7076}, "countryCode": "US"}, "averageDailyFlights": 0.14, "operators": [{"name": "Contour Aviation", "iata": "LF", "icao": "VTE"}]}, {"destination": {"icao": "KOKV", "iata": "WGO", "name": "Winchester Regional", "shortName": "Regional", "municipalityName": "Winchester", "location": {"lat": 39.1435, "lon": -78.1444}, "countryCode": "US"}, "averageDailyFlights": 0.14, "operators": [{"name": "NetJets Aviation", "iata": "1I", "icao": "EJA"}]}]}