{"routes": [{"destination": {"icao": "KLAS", "iata": "LAS", "name": "Las Vegas McCarran", "shortName": "McCarran", "municipalityName": "Las Vegas", "location": {"lat": 36.0801, "lon": -115.152}, "countryCode": "US"}, "averageDailyFlights": 0.71, "operators": [{"name": "CBC"}, {"name": "NetJets Aviation", "iata": "1I", "icao": "EJA"}]}, {"destination": {"icao": "KCOS", "iata": "COS", "name": "Colorado Springs City of  Municipal", "shortName": "City of  Municipal", "municipalityName": "Colorado Springs", "location": {"lat": 38.8058, "lon": -104.701}, "countryCode": "US"}, "averageDailyFlights": 0.43, "operators": [{"name": "LXJ"}, {"name": "N2"}, {"name": "JPR"}]}, {"destination": {"icao": "KTWF", "iata": "TWF", "name": "Twin Falls Joslin Field Magic Valley Regional", "shortName": "Joslin Field Magic Valley Regional", "municipalityName": "Twin Falls", "location": {"lat": 42.4818, "lon": -114.488}, "countryCode": "US"}, "averageDailyFlights": 0.43, "operators": [{"name": "CXK"}]}, {"destination": {"icao": "KBMI", "iata": "BMI", "name": "Bloomington/Normal Central Illinois Regional  at Bloomington-Normal", "shortName": "Central Illinois Regional  at Bloomington-Normal", "municipalityName": "Bloomington/Normal", "location": {"lat": 40.4771, "lon": -88.9159}, "countryCode": "US"}, "averageDailyFlights": 0.29, "operators": [{"name": "IFL"}, {"name": "RAX"}]}, {"destination": {"icao": "KBZN", "iata": "BZN", "name": "Bozeman Gallatin Field", "shortName": "Gallatin Field", "municipalityName": "Bozeman", "location": {"lat": 45.7775, "lon": -111.153}, "countryCode": "US"}, "averageDailyFlights": 0.29, "operators": [{"name": "CBC"}]}, {"destination": {"icao": "KDIK", "iata": "DIK", "name": "Dickinson Theodore Roosevelt Regional", "shortName": "Theodore Roosevelt Regional", "municipalityName": "Dickinson", "location": {"lat": 46.7974, "lon": -102.802}, "countryCode": "US"}, "averageDailyFlights": 0.29, "operators": [{"name": "XCN"}]}, {"destination": {"icao": "KEGE", "iata": "EGE", "name": "Eagle County Regional", "shortName": "County Regional", "municipalityName": "Eagle", "location": {"lat": 39.6426, "lon": -106.918}, "countryCode": "US"}, "averageDailyFlights": 0.29, "operators": [{"name": "CBC"}]}, {"destination": {"icao": "KSLC", "iata": "SLC", "name": "Salt Lake City ", "shortName": "Salt Lake City", "municipalityName": "Salt Lake City", "location": {"lat": 40.7884, "lon": -111.978}, "countryCode": "US"}, "averageDailyFlights": 0.29, "operators": [{"name": "CBC"}]}, {"destination": {"icao": "KSGU", "iata": "SGU", "name": "St. George St George Municipal", "shortName": "St George Municipal", "municipalityName": "St. George", "location": {"lat": 37.03639, "lon": -113.51031}, "countryCode": "US"}, "averageDailyFlights": 0.29, "operators": [{"name": "CBC"}]}, {"destination": {"icao": "KASE", "iata": "ASE", "name": "Aspen Sardy Field", "shortName": "Sardy Field", "municipalityName": "Aspen", "location": {"lat": 39.2232, "lon": -106.869}, "countryCode": "US"}, "averageDailyFlights": 0.14, "operators": [{"name": "CBC"}]}, {"destination": {"icao": "KBVU", "iata": "BLD", "name": "Boulder City Municipal", "shortName": "Municipal", "municipalityName": "Boulder City", "location": {"lat": 35.9475, "lon": -114.861}, "countryCode": "US"}, "averageDailyFlights": 0.14, "operators": [{"name": "TCA", "iata": "N6", "icao": "TZS"}]}, {"destination": {"icao": "KBMC", "iata": "BMC", "name": "Brigham City ", "shortName": "Brigham City", "municipalityName": "Brigham City", "location": {"lat": 41.5524, "lon": -112.062}, "countryCode": "US"}, "averageDailyFlights": 0.14, "operators": [{"name": "CBC"}]}, {"destination": {"icao": "KBUR", "iata": "BUR", "name": "Burbank Bob Hope", "shortName": "Bob Hope", "municipalityName": "Burbank", "location": {"lat": 34.2007, "lon": -118.359}, "countryCode": "US"}, "averageDailyFlights": 0.14, "operators": [{"name": "CBC"}]}, {"destination": {"icao": "KBJC", "iata": "BJC", "name": "Denver Rocky Mountain Metropolitan", "shortName": "Rocky Mountain Metropolitan", "municipalityName": "Denver", "location": {"lat": 39.9088, "lon": -105.117}, "countryCode": "US"}, "averageDailyFlights": 0.14, "operators": [{"name": "CBC"}]}, {"destination": {"icao": "KELY", "iata": "ELY", "name": "Ely Yelland Field", "shortName": "Yelland Field", "municipalityName": "Ely", "location": {"lat": 39.2997, "lon": -114.842}, "countryCode": "US"}, "averageDailyFlights": 0.14, "operators": [{"name": "Nordwind Airlines", "iata": "N4", "icao": "NWS"}]}, {"destination": {"icao": "KMGM", "iata": "MGM", "name": "Montgomery Regional (Dannelly Field)", "shortName": "Regional (Dannelly Field)", "municipalityName": "Montgomery", "location": {"lat": 32.3006, "lon": -86.394}, "countryCode": "US"}, "averageDailyFlights": 0.14, "operators": [{"name": "RAX"}]}, {"destination": {"icao": "KOAK", "iata": "OAK", "name": "Oakland Metropolitan", "shortName": "Metropolitan", "municipalityName": "Oakland", "location": {"lat": 37.7213, "lon": -122.221}, "countryCode": "US"}, "averageDailyFlights": 0.14, "operators": [{"name": "CBC"}]}, {"destination": {"icao": "KPHX", "iata": "PHX", "name": "Phoenix Sky Harbor", "shortName": "Sky Harbor", "municipalityName": "Phoenix", "location": {"lat": 33.4343, "lon": -112.012}, "countryCode": "US"}, "averageDailyFlights": 0.14, "operators": [{"name": "Ameriflight", "iata": "A8", "icao": "AMF"}]}, {"destination": {"icao": "KRWL", "iata": "RWL", "name": "Rawlins Harvey Field", "shortName": "Harvey Field", "municipalityName": "Rawlins", "location": {"lat": 41.8056, "lon": -107.2}, "countryCode": "US"}, "averageDailyFlights": 0.14, "operators": [{"name": "CBC"}]}, {"destination": {"icao": "KSUS", "iata": "SUS", "name": "Saint Louis Spirit of St Louis", "shortName": "Spirit of St Louis", "municipalityName": "Saint Louis", "location": {"lat": 38.6621, "lon": -90.652}, "countryCode": "US"}, "averageDailyFlights": 0.14, "operators": [{"name": "NetJets Aviation", "iata": "1I", "icao": "EJA"}]}, {"destination": {"icao": "KSAT", "iata": "SAT", "name": "San Antonio ", "shortName": "San Antonio", "municipalityName": "San Antonio", "location": {"lat": 29.5337, "lon": -98.4698}, "countryCode": "US"}, "averageDailyFlights": 0.14, "operators": [{"name": "CBC"}]}, {"destination": {"icao": "KSJC", "iata": "SJC", "name": "San Jose Norman Y. Mineta", "shortName": "Norman Y. Mineta", "municipalityName": "San Jose", "location": {"lat": 37.3626, "lon": -121.929}, "countryCode": "US"}, "averageDailyFlights": 0.14, "operators": [{"name": "TWY"}]}, {"destination": {"icao": "KSNA", "iata": "SNA", "name": "Santa Ana John Wayne -Orange County", "shortName": "John Wayne -Orange County", "municipalityName": "Santa Ana", "location": {"lat": 33.6757, "lon": -117.868}, "countryCode": "US"}, "averageDailyFlights": 0.14, "operators": [{"name": "CBC"}]}, {"destination": {"icao": "KSDL", "iata": "SCF", "name": "Scottsdale ", "shortName": "Scottsdale", "municipalityName": "Scottsdale", "location": {"lat": 33.6229, "lon": -111.911}, "countryCode": "US"}, "averageDailyFlights": 0.14, "operators": [{"name": "CBC"}]}, {"destination": {"icao": "KFSD", "iata": "FSD", "name": "Sioux Falls Joe Foss Field", "shortName": "Joe Foss Field", "municipalityName": "Sioux Falls", "location": {"lat": 43.582, "lon": -96.7419}, "countryCode": "US"}, "averageDailyFlights": 0.14, "operators": [{"name": "LXJ"}]}, {"destination": {"icao": "KVNY", "iata": "VNY", "name": "Van Nuys ", "shortName": "Van Nuys", "municipalityName": "Van Nuys", "location": {"lat": 34.2098, "lon": -118.49}, "countryCode": "US"}, "averageDailyFlights": 0.14, "operators": [{"name": "CBC"}]}, {"destination": {"icao": "KICT", "iata": "ICT", "name": "Wichita Mid Continent", "shortName": "Mid Continent", "municipalityName": "Wichita", "location": {"lat": 37.6499, "lon": -97.4331}, "countryCode": "US"}, "averageDailyFlights": 0.14, "operators": [{"name": "XCN"}]}, {"destination": {"icao": "KWRL", "iata": "WRL", "name": "Worland Municipal", "shortName": "Municipal", "municipalityName": "Worland", "location": {"lat": 43.9657, "lon": -107.951}, "countryCode": "US"}, "averageDailyFlights": 0.14, "operators": [{"name": "SGO"}]}]}