{"routes": [{"destination": {"icao": "KBED", "iata": "BED", "name": "Bedford Laurence G Hanscom Field", "shortName": "Laurence G Hanscom Field", "municipalityName": "Bedford", "location": {"lat": 42.47, "lon": -71.289}, "countryCode": "US"}, "averageDailyFlights": 1.14, "operators": [{"name": "CNS"}, {"name": "CAP"}]}, {"destination": {"icao": "KHPN", "iata": "HPN", "name": "White Plains Westchester County", "shortName": "Westchester County", "municipalityName": "White Plains", "location": {"lat": 41.067, "lon": -73.7076}, "countryCode": "US"}, "averageDailyFlights": 0.71, "operators": [{"name": "CNS"}, {"name": "NetJets Aviation", "iata": "1I", "icao": "EJA"}, {"name": "NGF"}]}, {"destination": {"icao": "KTEB", "iata": "TEB", "name": "Teterboro ", "shortName": "Teterboro", "municipalityName": "Teterboro", "location": {"lat": 40.8501, "lon": -74.0608}, "countryCode": "US"}, "averageDailyFlights": 0.57, "operators": [{"name": "CNS"}, {"name": "LAK"}]}, {"destination": {"icao": "KISP", "iata": "ISP", "name": "Islip Long Island Mac Arthur", "shortName": "Long Island Mac Arthur", "municipalityName": "Islip", "location": {"lat": 40.7952, "lon": -73.1002}, "countryCode": "US"}, "averageDailyFlights": 0.29, "operators": [{"name": "CNS"}]}, {"destination": {"icao": "KSWF", "iata": "SWF", "name": "Newburgh Stewart", "shortName": "Stewart", "municipalityName": "Newburgh", "location": {"lat": 41.5041, "lon": -74.1048}, "countryCode": "US"}, "averageDailyFlights": 0.29, "operators": [{"name": "FLC"}]}, {"destination": {"icao": "KSFB", "iata": "SFB", "name": "Orlando Sanford", "shortName": "Sanford", "municipalityName": "Orlando", "location": {"lat": 28.7776, "lon": -81.2375}, "countryCode": "US"}, "averageDailyFlights": 0.29, "operators": [{"name": "Allegiant Air", "iata": "G4", "icao": "AAY"}]}, {"destination": {"icao": "KLOM", "iata": "BBX", "name": "Philadelphia Wings Field", "shortName": "Wings Field", "municipalityName": "Philadelphia", "location": {"lat": 40.1375, "lon": -75.2651}, "countryCode": "US"}, "averageDailyFlights": 0.29, "operators": [{"name": "CNS"}]}, {"destination": {"icao": "KPQI", "iata": "PQI", "name": "Presque Isle Northern Maine Regional  at", "shortName": "Northern Maine Regional  at", "municipalityName": "Presque Isle", "location": {"lat": 46.689, "lon": -68.0448}, "countryCode": "US"}, "averageDailyFlights": 0.29, "operators": [{"name": "FLC"}]}, {"destination": {"icao": "TJSJ", "iata": "SJU", "name": "San Juan Luis Munoz Marin", "shortName": "Luis Munoz Marin", "municipalityName": "San Juan", "location": {"lat": 18.4394, "lon": -66.0018}, "countryCode": "PR"}, "averageDailyFlights": 0.29, "operators": [{"name": "JKR"}]}, {"destination": {"name": "Sharlot Kaunti"}, "averageDailyFlights": 0.29, "operators": [{"name": "Allegiant Air", "iata": "G4", "icao": "AAY"}]}, {"destination": {"icao": "KALB", "iata": "ALB", "name": "Albany ", "shortName": "Albany", "municipalityName": "Albany", "location": {"lat": 42.7483, "lon": -73.8017}, "countryCode": "US"}, "averageDailyFlights": 0.14, "operators": [{"name": "CNS"}]}, {"destination": {"icao": "KCHA", "iata": "CHA", "name": "Chattanooga Lovell Field", "shortName": "Lovell Field", "municipalityName": "Chattanooga", "location": {"lat": 35.0353, "lon": -85.2038}, "countryCode": "US"}, "averageDailyFlights": 0.14, "operators": [{"name": "CNS"}]}, {"destination": {"icao": "KMDW", "iata": "MDW", "name": "Chicago Midway", "shortName": "Midway", "municipalityName": "Chicago", "location": {"lat": 41.786, "lon": -87.7524}, "countryCode": "US"}, "averageDailyFlights": 0.14, "operators": [{"name": "LXJ"}]}, {"destination": {"icao": "KYIP", "iata": "YIP", "name": "Detroit Willow Run", "shortName": "Willow Run", "municipalityName": "Detroit", "location": {"lat": 42.2379, "lon": -83.5304}, "countryCode": "US"}, "averageDailyFlights": 0.14, "operators": [{"name": "CNS"}]}, {"destination": {"icao": "KAFJ", "iata": "WSG", "name": "District of Columbia Washington County", "shortName": "Washington County", "municipalityName": "District of Columbia", "location": {"lat": 40.1365, "lon": -80.2902}, "countryCode": "US"}, "averageDailyFlights": 0.14, "operators": [{"name": "CNS"}]}, {"destination": {"icao": "KIAD", "iata": "IAD", "name": "District of Columbia Washington Dulles", "shortName": "Washington Dulles", "municipalityName": "District of Columbia", "location": {"lat": 38.9445, "lon": -77.4558}, "countryCode": "US"}, "averageDailyFlights": 0.14, "operators": [{"name": "Nordwind Airlines", "iata": "N4", "icao": "NWS"}]}, {"destination": {"icao": "KELM", "iata": "ELM", "name": "Elmira/Corning Elmira Corning Regional", "shortName": "Elmira Corning Regional", "municipalityName": "Elmira/Corning", "location": {"lat": 42.1599, "lon": -76.8916}, "countryCode": "US"}, "averageDailyFlights": 0.14, "operators": [{"name": "CNS"}]}, {"destination": {"icao": "KGAI", "iata": "GAI", "name": "Gaithersburg Montgomery County Airpark", "shortName": "Montgomery County Airpark", "municipalityName": "Gaithersburg", "location": {"lat": 39.1683, "lon": -77.166}, "countryCode": "US"}, "averageDailyFlights": 0.14, "operators": [{"name": "CNS"}]}, {"destination": {"icao": "KGSP", "iata": "GSP", "name": "Greenville Spartanburg", "shortName": "Spartanburg", "municipalityName": "Greenville", "location": {"lat": 34.8957, "lon": -82.2189}, "countryCode": "US"}, "averageDailyFlights": 0.14, "operators": [{"name": "LAK"}]}, {"destination": {"icao": "KMDT", "iata": "MDT", "name": "Harrisburg ", "shortName": "Harrisburg", "municipalityName": "Harrisburg", "location": {"lat": 40.1935, "lon": -76.7634}, "countryCode": "US"}, "averageDailyFlights": 0.14, "operators": [{"name": "CNS"}]}, {"destination": {"icao": "KBNA", "iata": "BNA", "name": "Nashville ", "shortName": "Nashville", "municipalityName": "Nashville", "location": {"lat": 36.1245, "lon": -86.6782}, "countryCode": "US"}, "averageDailyFlights": 0.14, "operators": [{"name": "CNS"}]}, {"destination": {"icao": "KEWB", "iata": "EWB", "name": "New Bedford Regional", "shortName": "Regional", "municipalityName": "New Bedford", "location": {"lat": 41.6761, "lon": -70.9569}, "countryCode": "US"}, "averageDailyFlights": 0.14, "operators": [{"name": "CNS"}]}, {"destination": {"icao": "KHVN", "iata": "HVN", "name": "New Haven Tweed", "shortName": "Tweed", "municipalityName": "New Haven", "location": {"lat": 41.2637, "lon": -72.8868}, "countryCode": "US"}, "averageDailyFlights": 0.14, "operators": [{"name": "FTH"}]}, {"destination": {"icao": "KLGA", "iata": "LGA", "name": "New York La Guardia", "shortName": "La Guardia", "municipalityName": "New York", "location": {"lat": 40.7772, "lon": -73.8726}, "countryCode": "US"}, "averageDailyFlights": 0.14, "operators": [{"name": "NetJets Aviation", "iata": "1I", "icao": "EJA"}]}, {"destination": {"icao": "KOWD", "iata": "OWD", "name": "Norwood Memorial", "shortName": "Memorial", "municipalityName": "Norwood", "location": {"lat": 42.1905, "lon": -71.1729}, "countryCode": "US"}, "averageDailyFlights": 0.14, "operators": [{"name": "CNS"}]}, {"destination": {"icao": "KAGC", "iata": "AGC", "name": "Pittsburgh Allegheny County", "shortName": "Allegheny County", "municipalityName": "Pittsburgh", "location": {"lat": 40.3544, "lon": -79.9302}, "countryCode": "US"}, "averageDailyFlights": 0.14, "operators": [{"name": "NetJets Aviation", "iata": "1I", "icao": "EJA"}]}, {"destination": {"icao": "CYFJ", "iata": "YTM", "name": "Rivi\u00e8re Rouge Mont-Tremblant  Inc", "shortName": "Mont-Tremblant  Inc", "municipalityName": "Rivi\u00e8re Rouge", "location": {"lat": 46.4094, "lon": -74.78}, "countryCode": "CA"}, "averageDailyFlights": 0.14, "operators": [{"name": "NetJets Aviation", "iata": "1I", "icao": "EJA"}]}, {"destination": {"icao": "KVRB", "iata": "VRB", "name": "Vero Beach Municipal", "shortName": "Municipal", "municipalityName": "Vero Beach", "location": {"lat": 27.6556, "lon": -80.4179}, "countryCode": "US"}, "averageDailyFlights": 0.14, "operators": [{"name": "CNS"}]}, {"destination": {"icao": "KPBI", "iata": "PBI", "name": "West Palm Beach Palm Beach", "shortName": "Palm Beach", "municipalityName": "West Palm Beach", "location": {"lat": 26.6832, "lon": -80.0956}, "countryCode": "US"}, "averageDailyFlights": 0.14, "operators": [{"name": "Nordwind Airlines", "iata": "N4", "icao": "NWS"}]}, {"destination": {"icao": "KILM", "iata": "ILM", "name": "Wilmington ", "shortName": "Wilmington", "municipalityName": "Wilmington", "location": {"lat": 34.2706, "lon": -77.9026}, "countryCode": "US"}, "averageDailyFlights": 0.14, "operators": [{"name": "CNS"}]}, {"destination": {"icao": "KORH", "iata": "ORH", "name": "Worcester Regional", "shortName": "Regional", "municipalityName": "Worcester", "location": {"lat": 42.2673, "lon": -71.8757}, "countryCode": "US"}, "averageDailyFlights": 0.14, "operators": [{"name": "CNS"}]}]}