{"routes": [{"destination": {"icao": "KLAX", "iata": "LAX", "name": "Los Angeles ", "shortName": "Los Angeles", "municipalityName": "Los Angeles", "location": {"lat": 33.9425, "lon": -118.408}, "countryCode": "US"}, "averageDailyFlights": 30.57, "operators": [{"name": "Alaska Airlines", "iata": "AS", "icao": "ASA"}, {"name": "Southwest Airlines", "iata": "WN", "icao": "SWA"}, {"name": "Delta Air Lines", "iata": "DL", "icao": "DAL"}, {"name": "United Airlines", "iata": "UA", "icao": "UAL"}, {"name": "American Airlines", "iata": "AA", "icao": "AAL"}, {"name": "JetBlue Airways", "iata": "B6", "icao": "JBU"}, {"name": "LXJ"}, {"name": "JAS"}, {"name": "VJT"}, {"name": "DHR"}]}, {"destination": {"icao": "KSEA", "iata": "SEA", "name": "Seattle Tacoma", "shortName": "Tacoma", "municipalityName": "Seattle", "location": {"lat": 47.449, "lon": -122.309}, "countryCode": "US"}, "averageDailyFlights": 17.29, "operators": [{"name": "Alaska Airlines", "iata": "AS", "icao": "ASA"}, {"name": "Delta Air Lines", "iata": "DL", "icao": "DAL"}, {"name": "United Airlines", "iata": "UA", "icao": "UAL"}]}, {"destination": {"icao": "KJFK", "iata": "JFK", "name": "New York John F Kennedy", "shortName": "John F Kennedy", "municipalityName": "New York", "location": {"lat": 40.6398, "lon": -73.7789}, "countryCode": "US"}, "averageDailyFlights": 16.71, "operators": [{"name": "American Airlines", "iata": "AA", "icao": "AAL"}, {"name": "Delta Air Lines", "iata": "DL", "icao": "DAL"}, {"name": "JetBlue Airways", "iata": "B6", "icao": "JBU"}, {"name": "Alaska Airlines", "iata": "AS", "icao": "ASA"}, {"name": "Air France", "iata": "AF", "icao": "AFR"}]}, {"destination": {"icao": "KSAN", "iata": "SAN", "name": "San Diego ", "shortName": "San Diego", "municipalityName": "San Diego", "location": {"lat": 32.7336, "lon": -117.19}, "countryCode": "US"}, "averageDailyFlights": 16.71, "operators": [{"name": "Alaska Airlines", "iata": "AS", "icao": "ASA"}, {"name": "United Airlines", "iata": "UA", "icao": "UAL"}, {"name": "Southwest Airlines", "iata": "WN", "icao": "SWA"}, {"name": "NetJets Aviation", "iata": "1I", "icao": "EJA"}, {"name": "Libyan Airlines", "iata": "LN", "icao": "LAA"}, {"name": "TOG"}]}, {"destination": {"icao": "KLAS", "iata": "LAS", "name": "Las Vegas McCarran", "shortName": "McCarran", "municipalityName": "Las Vegas", "location": {"lat": 36.0801, "lon": -115.152}, "countryCode": "US"}, "averageDailyFlights": 15.29, "operators": [{"name": "NetJets Aviation", "iata": "1I", "icao": "EJA"}, {"name": "Southwest Airlines", "iata": "WN", "icao": "SWA"}, {"name": "Alaska Airlines", "iata": "AS", "icao": "ASA"}, {"name": "United Airlines", "iata": "UA", "icao": "UAL"}, {"name": "VJA"}, {"name": "Frontier Airlines", "iata": "F9", "icao": "FFT"}, {"name": "LXJ"}]}, {"destination": {"icao": "KPHX", "iata": "PHX", "name": "Phoenix Sky Harbor", "shortName": "Sky Harbor", "municipalityName": "Phoenix", "location": {"lat": 33.4343, "lon": -112.012}, "countryCode": "US"}, "averageDailyFlights": 14.43, "operators": [{"name": "American Airlines", "iata": "AA", "icao": "AAL"}, {"name": "Frontier Airlines", "iata": "F9", "icao": "FFT"}, {"name": "United Airlines", "iata": "UA", "icao": "UAL"}, {"name": "Southwest Airlines", "iata": "WN", "icao": "SWA"}, {"name": "Alaska Airlines", "iata": "AS", "icao": "ASA"}, {"name": "Envoy Air", "iata": "MQ", "icao": "ENY"}, {"name": "LXJ"}]}, {"destination": {"icao": "KDEN", "iata": "DEN", "name": "Denver ", "shortName": "Denver", "municipalityName": "Denver", "location": {"lat": 39.8617, "lon": -104.673}, "countryCode": "US"}, "averageDailyFlights": 13.29, "operators": [{"name": "Southwest Airlines", "iata": "WN", "icao": "SWA"}, {"name": "United Airlines", "iata": "UA", "icao": "UAL"}, {"name": "Frontier Airlines", "iata": "F9", "icao": "FFT"}]}, {"destination": {"icao": "KSNA", "iata": "SNA", "name": "Santa Ana John Wayne -Orange County", "shortName": "John Wayne -Orange County", "municipalityName": "Santa Ana", "location": {"lat": 33.6757, "lon": -117.868}, "countryCode": "US"}, "averageDailyFlights": 11.43, "operators": [{"name": "Alaska Airlines", "iata": "AS", "icao": "ASA"}, {"name": "United Airlines", "iata": "UA", "icao": "UAL"}, {"name": "NetJets Aviation", "iata": "1I", "icao": "EJA"}, {"name": "Southwest Airlines", "iata": "WN", "icao": "SWA"}, {"name": "LXJ"}, {"name": "VJA"}]}, {"destination": {"icao": "KDFW", "iata": "DFW", "name": "Dallas-Fort Worth ", "shortName": "Dallas-Fort Worth", "municipalityName": "Dallas-Fort Worth", "location": {"lat": 32.8968, "lon": -97.038}, "countryCode": "US"}, "averageDailyFlights": 10.86, "operators": [{"name": "American Airlines", "iata": "AA", "icao": "AAL"}, {"name": "United Airlines", "iata": "UA", "icao": "UAL"}, {"name": "Frontier Airlines", "iata": "F9", "icao": "FFT"}]}, {"destination": {"icao": "KORD", "iata": "ORD", "name": "Chicago O'Hare", "shortName": "O'Hare", "municipalityName": "Chicago", "location": {"lat": 41.9786, "lon": -87.9048}, "countryCode": "US"}, "averageDailyFlights": 10.57, "operators": [{"name": "American Airlines", "iata": "AA", "icao": "AAL"}, {"name": "United Airlines", "iata": "UA", "icao": "UAL"}, {"name": "Alaska Airlines", "iata": "AS", "icao": "ASA"}, {"name": "SkyWest Airlines", "iata": "OO", "icao": "SKW"}]}, {"destination": {"icao": "KSLC", "iata": "SLC", "name": "Salt Lake City ", "shortName": "Salt Lake City", "municipalityName": "Salt Lake City", "location": {"lat": 40.7884, "lon": -111.978}, "countryCode": "US"}, "averageDailyFlights": 10.43, "operators": [{"name": "Delta Air Lines", "iata": "DL", "icao": "DAL"}, {"name": "United Airlines", "iata": "UA", "icao": "UAL"}, {"name": "NetJets Aviation", "iata": "1I", "icao": "EJA"}, {"name": "Alaska Airlines", "iata": "AS", "icao": "ASA"}, {"name": "VJA"}, {"name": "LXJ"}]}, {"destination": {"icao": "KBOS", "iata": "BOS", "name": "Boston General Edward Lawrence Logan", "shortName": "General Edward Lawrence Logan", "municipalityName": "Boston", "location": {"lat": 42.3643, "lon": -71.0052}, "countryCode": "US"}, "averageDailyFlights": 10.0, "operators": [{"name": "Alaska Airlines", "iata": "AS", "icao": "ASA"}, {"name": "JetBlue Airways", "iata": "B6", "icao": "JBU"}, {"name": "United Airlines", "iata": "UA", "icao": "UAL"}, {"name": "Delta Air Lines", "iata": "DL", "icao": "DAL"}, {"name": "VJA"}]}, {"destination": {"icao": "KBUR", "iata": "BUR", "name": "Burbank Bob Hope", "shortName": "Bob Hope", "municipalityName": "Burbank", "location": {"lat": 34.2007, "lon": -118.359}, "countryCode": "US"}, "averageDailyFlights": 10.0, "operators": [{"name": "United Airlines", "iata": "UA", "icao": "UAL"}, {"name": "Alaska Airlines", "iata": "AS", "icao": "ASA"}, {"name": "SkyWest Airlines", "iata": "OO", "icao": "SKW"}, {"name": "Delta Air Lines", "iata": "DL", "icao": "DAL"}, {"name": "MVJ"}, {"name": "LXJ"}]}, {"destination": {"icao": "KEWR", "iata": "EWR", "name": "Newark Liberty", "shortName": "Liberty", "municipalityName": "Newark", "location": {"lat": 40.6925, "lon": -74.1687}, "countryCode": "US"}, "averageDailyFlights": 10.0, "operators": [{"name": "United Airlines", "iata": "UA", "icao": "UAL"}, {"name": "Alaska Airlines", "iata": "AS", "icao": "ASA"}]}, {"destination": {"icao": "KPDX", "iata": "PDX", "name": "Portland ", "shortName": "Portland", "municipalityName": "Portland", "location": {"lat": 45.5887, "lon": -122.598}, "countryCode": "US"}, "averageDailyFlights": 9.57, "operators": [{"name": "Alaska Airlines", "iata": "AS", "icao": "ASA"}, {"name": "United Airlines", "iata": "UA", "icao": "UAL"}, {"name": "NJZ"}, {"name": "NetJets Aviation", "iata": "1I", "icao": "EJA"}]}, {"destination": {"icao": "KIAH", "iata": "IAH", "name": "Houston George Bush", "shortName": "George Bush", "municipalityName": "Houston", "location": {"lat": 29.9844, "lon": -95.3414}, "countryCode": "US"}, "averageDailyFlights": 9.14, "operators": [{"name": "United Airlines", "iata": "UA", "icao": "UAL"}]}, {"destination": {"icao": "RCTP", "iata": "TPE", "name": "Taipei Taiwan Taoyuan", "shortName": "Taiwan Taoyuan", "municipalityName": "Taipei", "location": {"lat": 25.0777, "lon": 121.233}, "countryCode": "TW"}, "averageDailyFlights": 8.57, "operators": [{"name": "China Airlines", "iata": "CI", "icao": "CAL"}, {"name": "EVA Air", "iata": "BR", "icao": "EVA"}, {"name": "United Airlines", "iata": "UA", "icao": "UAL"}, {"name": "Starlux Airlines", "iata": "JX", "icao": "SJX"}]}, {"destination": {"icao": "KATL", "iata": "ATL", "name": "Atlanta Hartsfield Jackson", "shortName": "Hartsfield Jackson", "municipalityName": "Atlanta", "location": {"lat": 33.6367, "lon": -84.4281}, "countryCode": "US"}, "averageDailyFlights": 7.86, "operators": [{"name": "Delta Air Lines", "iata": "DL", "icao": "DAL"}, {"name": "Frontier Airlines", "iata": "F9", "icao": "FFT"}, {"name": "United Airlines", "iata": "UA", "icao": "UAL"}, {"name": "China Airlines", "iata": "CI", "icao": "CAL"}, {"name": "TWY"}]}, {"destination": {"icao": "CYVR", "iata": "YVR", "name": "Vancouver ", "shortName": "Vancouver", "municipalityName": "Vancouver", "location": {"lat": 49.1939, "lon": -123.184}, "countryCode": "CA"}, "averageDailyFlights": 7.57, "operators": [{"name": "Air Canada", "iata": "AC", "icao": "ACA"}, {"name": "United Airlines", "iata": "UA", "icao": "UAL"}, {"name": "ADS"}]}, {"destination": {"icao": "KPSP", "iata": "PSP", "name": "Palm Springs ", "shortName": "Palm Springs", "municipalityName": "Palm Springs", "location": {"lat": 33.8297, "lon": -116.507}, "countryCode": "US"}, "averageDailyFlights": 7.43, "operators": [{"name": "United Airlines", "iata": "UA", "icao": "UAL"}, {"name": "Alaska Airlines", "iata": "AS", "icao": "ASA"}, {"name": "TIV"}]}, {"destination": {"icao": "PHNL", "iata": "HNL", "name": "Honolulu ", "shortName": "Honolulu", "municipalityName": "Honolulu", "location": {"lat": 21.3187, "lon": -157.922}, "countryCode": "US"}, "averageDailyFlights": 7.14, "operators": [{"name": "United Airlines", "iata": "UA", "icao": "UAL"}, {"name": "Hawaiian Airlines", "iata": "HA", "icao": "HAL"}, {"name": "Alaska Airlines", "iata": "AS", "icao": "ASA"}]}, {"destination": {"icao": "CYYZ", "iata": "YYZ", "name": "Toronto Pearson", "shortName": "Pearson", "municipalityName": "Toronto", "location": {"lat": 43.6772, "lon": -79.6306}, "countryCode": "CA"}, "averageDailyFlights": 7.0, "operators": [{"name": "Air Canada", "iata": "AC", "icao": "ACA"}, {"name": "Porter Airlines", "iata": "PD", "icao": "POE"}, {"name": "United Airlines", "iata": "UA", "icao": "UAL"}]}, {"destination": {"icao": "MMMX", "iata": "MEX", "name": "Mexico City Licenciado Benito Juarez", "shortName": "Licenciado Benito Juarez", "municipalityName": "Mexico City", "location": {"lat": 19.4363, "lon": -99.0721}, "countryCode": "MX"}, "averageDailyFlights": 6.0, "operators": [{"name": "United Airlines", "iata": "UA", "icao": "UAL"}, {"name": "Aeromexico", "iata": "AM", "icao": "AMX"}]}, {"destination": {"icao": "KMIA", "iata": "MIA", "name": "Miami ", "shortName": "Miami", "municipalityName": "Miami", "location": {"lat": 25.7932, "lon": -80.2906}, "countryCode": "US"}, "averageDailyFlights": 6.0, "operators": [{"name": "NetJets Aviation", "iata": "1I", "icao": "EJA"}, {"name": "American Airlines", "iata": "AA", "icao": "AAL"}, {"name": "United Airlines", "iata": "UA", "icao": "UAL"}]}, {"destination": {"icao": "KAUS", "iata": "AUS", "name": "Austin Bergstrom", "shortName": "Bergstrom", "municipalityName": "Austin", "location": {"lat": 30.194498, "lon": -97.6699}, "countryCode": "US"}, "averageDailyFlights": 5.86, "operators": [{"name": "Alaska Airlines", "iata": "AS", "icao": "ASA"}, {"name": "United Airlines", "iata": "UA", "icao": "UAL"}]}, {"destination": {"icao": "KFLL", "iata": "FLL", "name": "Fort Lauderdale Hollywood", "shortName": "Hollywood", "municipalityName": "Fort Lauderdale", "location": {"lat": 26.0726, "lon": -80.1527}, "countryCode": "US"}, "averageDailyFlights": 5.86, "operators": [{"name": "United Airlines", "iata": "UA", "icao": "UAL"}, {"name": "JetBlue Airways", "iata": "B6", "icao": "JBU"}, {"name": "Alaska Airlines", "iata": "AS", "icao": "ASA"}, {"name": "LXJ"}]}, {"destination": {"icao": "EGLL", "iata": "LHR", "name": "London Heathrow", "shortName": "Heathrow", "municipalityName": "London", "location": {"lat": 51.4706, "lon": -0.461941}, "countryCode": "GB"}, "averageDailyFlights": 5.71, "operators": [{"name": "United Airlines", "iata": "UA", "icao": "UAL"}, {"name": "British Airways", "iata": "BA", "icao": "BAW"}, {"name": "Virgin Atlantic", "iata": "VS", "icao": "VIR"}]}, {"destination": {"icao": "RKSI", "iata": "ICN", "name": "Seoul Incheon", "shortName": "Incheon", "municipalityName": "Seoul", "location": {"lat": 37.4691, "lon": 126.451}, "countryCode": "KR"}, "averageDailyFlights": 5.57, "operators": [{"name": "Asiana Airlines", "iata": "OZ", "icao": "AAR"}, {"name": "United Airlines", "iata": "UA", "icao": "UAL"}, {"name": "Korean Air", "iata": "KE", "icao": "KAL"}]}, {"destination": {"icao": "KMSP", "iata": "MSP", "name": "Minneapolis Wold-Chamberlain", "shortName": "Wold-Chamberlain", "municipalityName": "Minneapolis", "location": {"lat": 44.882, "lon": -93.2218}, "countryCode": "US"}, "averageDailyFlights": 5.29, "operators": [{"name": "Delta Air Lines", "iata": "DL", "icao": "DAL"}, {"name": "United Airlines", "iata": "UA", "icao": "UAL"}]}, {"destination": {"icao": "KRNO", "iata": "RNO", "name": "Reno Tahoe", "shortName": "Tahoe", "municipalityName": "Reno", "location": {"lat": 39.4991, "lon": -119.768}, "countryCode": "US"}, "averageDailyFlights": 5.14, "operators": [{"name": "United Airlines", "iata": "UA", "icao": "UAL"}, {"name": "XSM"}, {"name": "TWY"}, {"name": "NetJets Aviation", "iata": "1I", "icao": "EJA"}, {"name": "LJY"}]}, {"destination": {"icao": "MMPR", "iata": "PVR", "name": "Puerto Vallarta Licenciado Gustavo D\u00edaz Ordaz", "shortName": "Licenciado Gustavo D\u00edaz Ordaz", "municipalityName": "Puerto Vallarta", "location": {"lat": 20.6801, "lon": -105.254}, "countryCode": "MX"}, "averageDailyFlights": 4.71, "operators": [{"name": "Alaska Airlines", "iata": "AS", "icao": "ASA"}, {"name": "United Airlines", "iata": "UA", "icao": "UAL"}]}, {"destination": {"icao": "MMSD", "iata": "SJD", "name": "San Jos\u00e9 del Cabo Los Cabos", "shortName": "Los Cabos", "municipalityName": "San Jos\u00e9 del Cabo", "location": {"lat": 23.1518, "lon": -109.721}, "countryCode": "MX"}, "averageDailyFlights": 4.71, "operators": [{"name": "Alaska Airlines", "iata": "AS", "icao": "ASA"}, {"name": "United Airlines", "iata": "UA", "icao": "UAL"}, {"name": "LXJ"}, {"name": "TWY"}]}, {"destination": {"icao": "KCLT", "iata": "CLT", "name": "Charlotte Douglas", "shortName": "Douglas", "municipalityName": "Charlotte", "location": {"lat": 35.214, "lon": -80.9431}, "countryCode": "US"}, "averageDailyFlights": 4.43, "operators": [{"name": "American Airlines", "iata": "AA", "icao": "AAL"}]}, {"destination": {"icao": "RJAA", "iata": "NRT", "name": "Tokyo Narita", "shortName": "Narita", "municipalityName": "Tokyo", "location": {"lat": 35.7647, "lon": 140.386}, "countryCode": "JP"}, "averageDailyFlights": 4.43, "operators": [{"name": "ANA", "iata": "NH", "icao": "ANA"}, {"name": "United Airlines", "iata": "UA", "icao": "UAL"}, {"name": "JAL", "iata": "JL", "icao": "JAL"}, {"name": "ZIPAIR Tokyo", "iata": "ZG", "icao": "TZP"}]}, {"destination": {"icao": "WSSS", "iata": "SIN", "name": "Singapore Changi", "shortName": "Changi", "municipalityName": "Singapore", "location": {"lat": 1.35019, "lon": 103.994}, "countryCode": "SG"}, "averageDailyFlights": 4.29, "operators": [{"name": "Singapore Airlines", "iata": "SQ", "icao": "SIA"}, {"name": "United Airlines", "iata": "UA", "icao": "UAL"}]}, {"destination": {"icao": "KACV", "iata": "ACV", "name": "Arcata/Eureka Arcata", "shortName": "Arcata", "municipalityName": "Arcata/Eureka", "location": {"lat": 40.9781, "lon": -124.109}, "countryCode": "US"}, "averageDailyFlights": 4.14, "operators": [{"name": "United Airlines", "iata": "UA", "icao": "UAL"}, {"name": "Delta Air Lines", "iata": "DL", "icao": "DAL"}]}, {"destination": {"icao": "KDTW", "iata": "DTW", "name": "Detroit Metropolitan Wayne County", "shortName": "Metropolitan Wayne County", "municipalityName": "Detroit", "location": {"lat": 42.2124, "lon": -83.3534}, "countryCode": "US"}, "averageDailyFlights": 3.86, "operators": [{"name": "Delta Air Lines", "iata": "DL", "icao": "DAL"}, {"name": "Air France", "iata": "AF", "icao": "AFR"}]}, {"destination": {"icao": "KFAT", "iata": "FAT", "name": "Fresno Yosemite", "shortName": "Yosemite", "municipalityName": "Fresno", "location": {"lat": 36.7762, "lon": -119.718}, "countryCode": "US"}, "averageDailyFlights": 3.71, "operators": [{"name": "United Airlines", "iata": "UA", "icao": "UAL"}, {"name": "SkyWest Airlines", "iata": "OO", "icao": "SKW"}, {"name": "TOG"}]}, {"destination": {"icao": "VHHH", "iata": "HKG", "name": "Hong Kong Chek Lap Kok", "shortName": "Chek Lap Kok", "municipalityName": "Hong Kong", "location": {"lat": 22.3089, "lon": 113.915}, "countryCode": "HK"}, "averageDailyFlights": 3.71, "operators": [{"name": "Cathay Pacific", "iata": "CX", "icao": "CPA"}, {"name": "United Airlines", "iata": "UA", "icao": "UAL"}]}, {"destination": {"icao": "KMCO", "iata": "MCO", "name": "Orlando ", "shortName": "Orlando", "municipalityName": "Orlando", "location": {"lat": 28.4294, "lon": -81.309}, "countryCode": "US"}, "averageDailyFlights": 3.57, "operators": [{"name": "Alaska Airlines", "iata": "AS", "icao": "ASA"}, {"name": "United Airlines", "iata": "UA", "icao": "UAL"}]}, {"destination": {"icao": "KSMF", "iata": "SMF", "name": "Sacramento ", "shortName": "Sacramento", "municipalityName": "Sacramento", "location": {"lat": 38.6954, "lon": -121.591}, "countryCode": "US"}, "averageDailyFlights": 3.57, "operators": [{"name": "Alaska Airlines", "iata": "AS", "icao": "ASA"}, {"name": "United Airlines", "iata": "UA", "icao": "UAL"}, {"name": "Southwest Airlines", "iata": "WN", "icao": "SWA"}]}, {"destination": {"icao": "KTUS", "iata": "TUS", "name": "Tucson ", "shortName": "Tucson", "municipalityName": "Tucson", "location": {"lat": 32.1161, "lon": -110.941}, "countryCode": "US"}, "averageDailyFlights": 3.57, "operators": [{"name": "Delta Air Lines", "iata": "DL", "icao": "DAL"}, {"name": "United Airlines", "iata": "UA", "icao": "UAL"}]}, {"destination": {"icao": "MMUN", "iata": "CUN", "name": "Canc\u00fan ", "shortName": "Canc\u00fan", "municipalityName": "Canc\u00fan", "location": {"lat": 21.0365, "lon": -86.8771}, "countryCode": "MX"}, "averageDailyFlights": 3.43, "operators": [{"name": "Alaska Airlines", "iata": "AS", "icao": "ASA"}, {"name": "United Airlines", "iata": "UA", "icao": "UAL"}]}, {"destination": {"icao": "PHOG", "iata": "OGG", "name": "Kahului ", "shortName": "Kahului", "municipalityName": "Kahului", "location": {"lat": 20.8986, "lon": -156.43}, "countryCode": "US"}, "averageDailyFlights": 3.43, "operators": [{"name": "Hawaiian Airlines", "iata": "HA", "icao": "HAL"}, {"name": "United Airlines", "iata": "UA", "icao": "UAL"}, {"name": "Alaska Airlines", "iata": "AS", "icao": "ASA"}]}, {"destination": {"icao": "KPHL", "iata": "PHL", "name": "Philadelphia ", "shortName": "Philadelphia", "municipalityName": "Philadelphia", "location": {"lat": 39.8719, "lon": -75.2411}, "countryCode": "US"}, "averageDailyFlights": 3.43, "operators": [{"name": "American Airlines", "iata": "AA", "icao": "AAL"}, {"name": "United Airlines", "iata": "UA", "icao": "UAL"}]}, {"destination": {"icao": "KBOI", "iata": "BOI", "name": "Boise Gowen field", "shortName": "Gowen field", "municipalityName": "Boise", "location": {"lat": 43.5644, "lon": -116.223}, "countryCode": "US"}, "averageDailyFlights": 3.29, "operators": [{"name": "United Airlines", "iata": "UA", "icao": "UAL"}, {"name": "Alaska Airlines", "iata": "AS", "icao": "ASA"}]}, {"destination": {"icao": "KRDM", "iata": "RDM", "name": "Redmond Roberts Field", "shortName": "Roberts Field", "municipalityName": "Redmond", "location": {"lat": 44.2541, "lon": -121.15}, "countryCode": "US"}, "averageDailyFlights": 3.29, "operators": [{"name": "United Airlines", "iata": "UA", "icao": "UAL"}, {"name": "Alaska Airlines", "iata": "AS", "icao": "ASA"}, {"name": "Delta Air Lines", "iata": "DL", "icao": "DAL"}, {"name": "SkyWest Airlines", "iata": "OO", "icao": "SKW"}]}, {"destination": {"icao": "KONT", "iata": "ONT", "name": "Ontario ", "shortName": "Ontario", "municipalityName": "Ontario", "location": {"lat": 34.056, "lon": -117.601}, "countryCode": "US"}, "averageDailyFlights": 3.14, "operators": [{"name": "United Airlines", "iata": "UA", "icao": "UAL"}, {"name": "Delta Air Lines", "iata": "DL", "icao": "DAL"}, {"name": "Frontier Airlines", "iata": "F9", "icao": "FFT"}]}, {"destination": {"icao": "KRDD", "iata": "RDD", "name": "Redding Municipal", "shortName": "Municipal", "municipalityName": "Redding", "location": {"lat": 40.509, "lon": -122.293}, "countryCode": "US"}, "averageDailyFlights": 3.0, "operators": [{"name": "SkyWest Airlines", "iata": "OO", "icao": "SKW"}, {"name": "United Airlines", "iata": "UA", "icao": "UAL"}]}, {"destination": {"icao": "KSBA", "iata": "SBA", "name": "Santa Barbara Municipal", "shortName": "Municipal", "municipalityName": "Santa Barbara", "location": {"lat": 34.4262, "lon": -119.84}, "countryCode": "US"}, "averageDailyFlights": 3.0, "operators": [{"name": "United Airlines", "iata": "UA", "icao": "UAL"}, {"name": "ASP"}]}, {"destination": {"icao": "MSLP", "iata": "SAL", "name": "Santa Clara El Salvador", "shortName": "El Salvador", "municipalityName": "Santa Clara", "location": {"lat": 13.440899, "lon": -89.0557}, "countryCode": "SV"}, "averageDailyFlights": 2.86, "operators": [{"name": "Avianca", "iata": "AV", "icao": "AVA"}]}, {"destination": {"icao": "LTFM", "iata": "IST", "name": "Istanbul ", "shortName": "Istanbul", "municipalityName": "Istanbul", "location": {"lat": 41.275276, "lon": 28.751944}, "countryCode": "TR"}, "averageDailyFlights": 2.71, "operators": [{"name": "Turkish Airlines", "iata": "TK", "icao": "THY"}]}, {"destination": {"icao": "KMFR", "iata": "MFR", "name": "Medford Rogue Valley", "shortName": "Rogue Valley", "municipalityName": "Medford", "location": {"lat": 42.3742, "lon": -122.873}, "countryCode": "US"}, "averageDailyFlights": 2.71, "operators": [{"name": "United Airlines", "iata": "UA", "icao": "UAL"}, {"name": "Delta Air Lines", "iata": "DL", "icao": "DAL"}, {"name": "SkyWest Airlines", "iata": "OO", "icao": "SKW"}]}, {"destination": {"icao": "KMRY", "iata": "MRY", "name": "Monterey Peninsula", "shortName": "Peninsula", "municipalityName": "Monterey", "location": {"lat": 36.587, "lon": -121.843}, "countryCode": "US"}, "averageDailyFlights": 2.71, "operators": [{"name": "United Airlines", "iata": "UA", "icao": "UAL"}, {"name": "NetJets Aviation", "iata": "1I", "icao": "EJA"}, {"name": "LXJ"}, {"name": "FTH"}]}, {"destination": {"icao": "PHKO", "iata": "KOA", "name": "Kailua/Kona Kona  At Keahole", "shortName": "Kona  At Keahole", "municipalityName": "Kailua/Kona", "location": {"lat": 19.7388, "lon": -156.046}, "countryCode": "US"}, "averageDailyFlights": 2.43, "operators": [{"name": "United Airlines", "iata": "UA", "icao": "UAL"}]}, {"destination": {"icao": "YSSY", "iata": "SYD", "name": "Sydney City Sydney Kingsford Smith", "shortName": "Sydney Kingsford Smith", "municipalityName": "Sydney City", "location": {"lat": -33.9461, "lon": 151.177}, "countryCode": "AU"}, "averageDailyFlights": 2.43, "operators": [{"name": "United Airlines", "iata": "UA", "icao": "UAL"}, {"name": "Qantas", "iata": "QF", "icao": "QFA"}]}, {"destination": {"icao": "NZAA", "iata": "AKL", "name": "Auckland ", "shortName": "Auckland", "municipalityName": "Auckland", "location": {"lat": -37.0081, "lon": 174.792}, "countryCode": "NZ"}, "averageDailyFlights": 2.29, "operators": [{"name": "Air New Zealand", "iata": "NZ", "icao": "ANZ"}, {"name": "United Airlines", "iata": "UA", "icao": "UAL"}]}, {"destination": {"icao": "KBZN", "iata": "BZN", "name": "Bozeman Gallatin Field", "shortName": "Gallatin Field", "municipalityName": "Bozeman", "location": {"lat": 45.7775, "lon": -111.153}, "countryCode": "US"}, "averageDailyFlights": 2.29, "operators": [{"name": "XOJ"}, {"name": "United Airlines", "iata": "UA", "icao": "UAL"}, {"name": "Alaska Airlines", "iata": "AS", "icao": "ASA"}, {"name": "NetJets Aviation", "iata": "1I", "icao": "EJA"}, {"name": "EDG"}, {"name": "LXJ"}]}, {"destination": {"icao": "KDCA", "iata": "DCA", "name": "District of Columbia Ronald Reagan Washington National", "shortName": "Ronald Reagan Washington National", "municipalityName": "District of Columbia", "location": {"lat": 38.8521, "lon": -77.0377}, "countryCode": "US"}, "averageDailyFlights": 2.29, "operators": [{"name": "Alaska Airlines", "iata": "AS", "icao": "ASA"}, {"name": "United Airlines", "iata": "UA", "icao": "UAL"}]}, {"destination": {"icao": "KEUG", "iata": "EUG", "name": "Eugene Mahlon Sweet Field", "shortName": "Mahlon Sweet Field", "municipalityName": "Eugene", "location": {"lat": 44.1246, "lon": -123.212}, "countryCode": "US"}, "averageDailyFlights": 2.29, "operators": [{"name": "United Airlines", "iata": "UA", "icao": "UAL"}]}, {"destination": {"icao": "RPLL", "iata": "MNL", "name": "Manila Ninoy Aquino", "shortName": "Ninoy Aquino", "municipalityName": "Manila", "location": {"lat": 14.5086, "lon": 121.02}, "countryCode": "PH"}, "averageDailyFlights": 2.29, "operators": [{"name": "Philippine Airlines", "iata": "PR", "icao": "PAL"}, {"name": "United Airlines", "iata": "UA", "icao": "UAL"}]}, {"destination": {"icao": "KSBP", "iata": "SBP", "name": "San Luis Obispo San Luis County Regional", "shortName": "San Luis County Regional", "municipalityName": "San Luis Obispo", "location": {"lat": 35.2368, "lon": -120.642}, "countryCode": "US"}, "averageDailyFlights": 2.29, "operators": [{"name": "United Airlines", "iata": "UA", "icao": "UAL"}, {"name": "ASP"}]}, {"destination": {"icao": "KJAC", "iata": "JAC", "name": "Jackson Hole", "shortName": "Hole", "municipalityName": "Jackson", "location": {"lat": 43.6073, "lon": -110.738}, "countryCode": "US"}, "averageDailyFlights": 2.14, "operators": [{"name": "Alaska Airlines", "iata": "AS", "icao": "ASA"}, {"name": "United Airlines", "iata": "UA", "icao": "UAL"}]}, {"destination": {"icao": "KABQ", "iata": "ABQ", "name": "The Duke City Albuquerque  Sunport", "shortName": "Albuquerque  Sunport", "municipalityName": "The Duke City", "location": {"lat": 35.0402, "lon": -106.609}, "countryCode": "US"}, "averageDailyFlights": 2.14, "operators": [{"name": "United Airlines", "iata": "UA", "icao": "UAL"}]}, {"destination": {"icao": "KMCI", "iata": "MCI", "name": "Kansas City ", "shortName": "Kansas City", "municipalityName": "Kansas City", "location": {"lat": 39.2976, "lon": -94.7139}, "countryCode": "US"}, "averageDailyFlights": 2.0, "operators": [{"name": "SkyWest Airlines", "iata": "OO", "icao": "SKW"}, {"name": "United Airlines", "iata": "UA", "icao": "UAL"}]}, {"destination": {"icao": "KGEG", "iata": "GEG", "name": "Spokane ", "shortName": "Spokane", "municipalityName": "Spokane", "location": {"lat": 47.6199, "lon": -117.534}, "countryCode": "US"}, "averageDailyFlights": 2.0, "operators": [{"name": "United Airlines", "iata": "UA", "icao": "UAL"}, {"name": "LXJ"}]}, {"destination": {"icao": "KASE", "iata": "ASE", "name": "Aspen Sardy Field", "shortName": "Sardy Field", "municipalityName": "Aspen", "location": {"lat": 39.2232, "lon": -106.869}, "countryCode": "US"}, "averageDailyFlights": 1.86, "operators": [{"name": "United Airlines", "iata": "UA", "icao": "UAL"}, {"name": "VJA"}]}, {"destination": {"icao": "EDDF", "iata": "FRA", "name": "Frankfurt-am-Main ", "shortName": "Frankfurt-am-Main", "municipalityName": "Frankfurt-am-Main", "location": {"lat": 50.0264, "lon": 8.543129}, "countryCode": "DE"}, "averageDailyFlights": 1.86, "operators": [{"name": "Lufthansa", "iata": "LH", "icao": "DLH"}, {"name": "United Airlines", "iata": "UA", "icao": "UAL"}]}, {"destination": {"icao": "EDDM", "iata": "MUC", "name": "Munich ", "shortName": "Munich", "municipalityName": "Munich", "location": {"lat": 48.3538, "lon": 11.7861}, "countryCode": "DE"}, "averageDailyFlights": 1.86, "operators": [{"name": "United Airlines", "iata": "UA", "icao": "UAL"}, {"name": "Lufthansa", "iata": "LH", "icao": "DLH"}, {"name": "KAY"}]}, {"destination": {"icao": "MPTO", "iata": "PTY", "name": "Tocumen ", "shortName": "Tocumen", "municipalityName": "Tocumen", "location": {"lat": 9.071359, "lon": -79.3835}, "countryCode": "PA"}, "averageDailyFlights": 1.86, "operators": [{"name": "Copa Airlines", "iata": "CM", "icao": "CMP"}]}, {"destination": {"icao": "CYYC", "iata": "YYC", "name": "Calgary ", "shortName": "Calgary", "municipalityName": "Calgary", "location": {"lat": 51.1139, "lon": -114.02}, "countryCode": "CA"}, "averageDailyFlights": 1.71, "operators": [{"name": "HRT"}, {"name": "United Airlines", "iata": "UA", "icao": "UAL"}, {"name": "WestJet", "iata": "WS", "icao": "WJA"}]}, {"destination": {"icao": "VIDP", "iata": "DEL", "name": "New Delhi Indira Gandhi", "shortName": "Indira Gandhi", "municipalityName": "New Delhi", "location": {"lat": 28.5665, "lon": 77.1031}, "countryCode": "IN"}, "averageDailyFlights": 1.71, "operators": [{"name": "Air India", "iata": "AI", "icao": "AIC"}]}, {"destination": {"icao": "KTPA", "iata": "TPA", "name": "Tampa ", "shortName": "Tampa", "municipalityName": "Tampa", "location": {"lat": 27.9755, "lon": -82.5332}, "countryCode": "US"}, "averageDailyFlights": 1.57, "operators": [{"name": "United Airlines", "iata": "UA", "icao": "UAL"}, {"name": "Alaska Airlines", "iata": "AS", "icao": "ASA"}]}, {"destination": {"icao": "KSUN", "iata": "SUN", "name": "Hailey Friedman Memorial", "shortName": "Friedman Memorial", "municipalityName": "Hailey", "location": {"lat": 43.5044, "lon": -114.296}, "countryCode": "US"}, "averageDailyFlights": 1.43, "operators": [{"name": "United Airlines", "iata": "UA", "icao": "UAL"}, {"name": "Delta Air Lines", "iata": "DL", "icao": "DAL"}]}, {"destination": {"icao": "NTAA", "iata": "PPT", "name": "Papeete Faa'a", "shortName": "Faa'a", "municipalityName": "Papeete", "location": {"lat": -17.5537, "lon": -149.607}, "countryCode": "PF"}, "averageDailyFlights": 1.43, "operators": [{"name": "French Bee", "iata": "BF", "icao": "FBU"}, {"name": "United Airlines", "iata": "UA", "icao": "UAL"}]}, {"destination": {"icao": "ZSPD", "iata": "PVG", "name": "Shanghai Pudong", "shortName": "Pudong", "municipalityName": "Shanghai", "location": {"lat": 31.1434, "lon": 121.805}, "countryCode": "CN"}, "averageDailyFlights": 1.43, "operators": [{"name": "United Airlines", "iata": "UA", "icao": "UAL"}, {"name": "China Eastern Airlines", "iata": "MU", "icao": "CES"}]}, {"destination": {"icao": "ZBAA", "iata": "PEK", "name": "Beijing Capital", "shortName": "Capital", "municipalityName": "Beijing", "location": {"lat": 40.0801, "lon": 116.585}, "countryCode": "CN"}, "averageDailyFlights": 1.29, "operators": [{"name": "United Airlines", "iata": "UA", "icao": "UAL"}]}, {"destination": {"icao": "KCVG", "iata": "CVG", "name": "Cincinnati Northern Kentucky", "shortName": "Northern Kentucky", "municipalityName": "Cincinnati", "location": {"lat": 39.0488, "lon": -84.6678}, "countryCode": "US"}, "averageDailyFlights": 1.29, "operators": [{"name": "21 Air", "iata": "2I", "icao": "CSB"}, {"name": "Breeze Airways", "iata": "MX", "icao": "MXY"}]}, {"destination": {"icao": "OMDB", "iata": "DXB", "name": "Dubai ", "shortName": "Dubai", "municipalityName": "Dubai", "location": {"lat": 25.252798, "lon": 55.3644}, "countryCode": "AE"}, "averageDailyFlights": 1.29, "operators": [{"name": "Emirates", "iata": "EK", "icao": "UAE"}]}, {"destination": {"icao": "PHLI", "iata": "LIH", "name": "Lihue ", "shortName": "Lihue", "municipalityName": "Lihue", "location": {"lat": 21.976, "lon": -159.339}, "countryCode": "US"}, "averageDailyFlights": 1.29, "operators": [{"name": "United Airlines", "iata": "UA", "icao": "UAL"}]}, {"destination": {"icao": "KBNA", "iata": "BNA", "name": "Nashville ", "shortName": "Nashville", "municipalityName": "Nashville", "location": {"lat": 36.1245, "lon": -86.6782}, "countryCode": "US"}, "averageDailyFlights": 1.29, "operators": [{"name": "United Airlines", "iata": "UA", "icao": "UAL"}]}, {"destination": {"icao": "RJBB", "iata": "KIX", "name": "Osaka Kansai", "shortName": "Kansai", "municipalityName": "Osaka", "location": {"lat": 34.4273, "lon": 135.244}, "countryCode": "JP"}, "averageDailyFlights": 1.29, "operators": [{"name": "United Airlines", "iata": "UA", "icao": "UAL"}]}, {"destination": {"icao": "KVNY", "iata": "VNY", "name": "Van Nuys ", "shortName": "Van Nuys", "municipalityName": "Van Nuys", "location": {"lat": 34.2098, "lon": -118.49}, "countryCode": "US"}, "averageDailyFlights": 1.29, "operators": [{"name": "SIS"}, {"name": "NetJets Aviation", "iata": "1I", "icao": "EJA"}, {"name": "RDN"}, {"name": "TWY"}, {"name": "JDI"}, {"name": "EJM"}]}, {"destination": {"icao": "KBWI", "iata": "BWI", "name": "Baltimore Washington  Thurgood Marshall", "shortName": "Washington  Thurgood Marshall", "municipalityName": "Baltimore", "location": {"lat": 39.1754, "lon": -76.6683}, "countryCode": "US"}, "averageDailyFlights": 1.14, "operators": [{"name": "United Airlines", "iata": "UA", "icao": "UAL"}]}, {"destination": {"icao": "KCLE", "iata": "CLE", "name": "Cleveland Hopkins", "shortName": "Hopkins", "municipalityName": "Cleveland", "location": {"lat": 41.4117, "lon": -81.8498}, "countryCode": "US"}, "averageDailyFlights": 1.14, "operators": [{"name": "United Airlines", "iata": "UA", "icao": "UAL"}]}, {"destination": {"icao": "KCMH", "iata": "CMH", "name": "Columbus Port", "shortName": "Port", "municipalityName": "Columbus", "location": {"lat": 39.998, "lon": -82.8919}, "countryCode": "US"}, "averageDailyFlights": 1.14, "operators": [{"name": "United Airlines", "iata": "UA", "icao": "UAL"}]}, {"destination": {"icao": "OTHH", "iata": "DOH", "name": "Doha Hamad", "shortName": "Hamad", "municipalityName": "Doha", "location": {"lat": 25.273056, "lon": 51.608055}, "countryCode": "QA"}, "averageDailyFlights": 1.14, "operators": [{"name": "Qatar Airways", "iata": "QR", "icao": "QTR"}]}, {"destination": {"icao": "KEGE", "iata": "EGE", "name": "Eagle County Regional", "shortName": "County Regional", "municipalityName": "Eagle", "location": {"lat": 39.6426, "lon": -106.918}, "countryCode": "US"}, "averageDailyFlights": 1.14, "operators": [{"name": "United Airlines", "iata": "UA", "icao": "UAL"}]}, {"destination": {"icao": "KAFW", "iata": "AFW", "name": "Fort Worth Alliance", "shortName": "Alliance", "municipalityName": "Fort Worth", "location": {"lat": 32.9876, "lon": -97.3188}, "countryCode": "US"}, "averageDailyFlights": 1.14, "operators": [{"name": "ATI", "iata": "8C", "icao": "ATN"}]}, {"destination": {"icao": "KIND", "iata": "IND", "name": "Indianapolis ", "shortName": "Indianapolis", "municipalityName": "Indianapolis", "location": {"lat": 39.7173, "lon": -86.2944}, "countryCode": "US"}, "averageDailyFlights": 1.14, "operators": [{"name": "United Airlines", "iata": "UA", "icao": "UAL"}]}, {"destination": {"icao": "YMML", "iata": "MEL", "name": "Melbourne City Melbourne", "shortName": "Melbourne", "municipalityName": "Melbourne City", "location": {"lat": -37.6733, "lon": 144.843}, "countryCode": "AU"}, "averageDailyFlights": 1.14, "operators": [{"name": "United Airlines", "iata": "UA", "icao": "UAL"}]}, {"destination": {"icao": "CYUL", "iata": "YUL", "name": "Montreal Trudeau", "shortName": "Trudeau", "municipalityName": "Montreal", "location": {"lat": 45.4706, "lon": -73.7408}, "countryCode": "CA"}, "averageDailyFlights": 1.14, "operators": [{"name": "Air Canada", "iata": "AC", "icao": "ACA"}]}, {"destination": {"icao": "KMSY", "iata": "MSY", "name": "New Orleans Louis Armstrong", "shortName": "Louis Armstrong", "municipalityName": "New Orleans", "location": {"lat": 29.9934, "lon": -90.258}, "countryCode": "US"}, "averageDailyFlights": 1.14, "operators": [{"name": "United Airlines", "iata": "UA", "icao": "UAL"}]}, {"destination": {"icao": "KPSC", "iata": "PSC", "name": "Pasco Tri Cities", "shortName": "Tri Cities", "municipalityName": "Pasco", "location": {"lat": 46.2647, "lon": -119.119}, "countryCode": "US"}, "averageDailyFlights": 1.14, "operators": [{"name": "United Airlines", "iata": "UA", "icao": "UAL"}]}, {"destination": {"icao": "KPIT", "iata": "PIT", "name": "Pittsburgh ", "shortName": "Pittsburgh", "municipalityName": "Pittsburgh", "location": {"lat": 40.4915, "lon": -80.2329}, "countryCode": "US"}, "averageDailyFlights": 1.14, "operators": [{"name": "United Airlines", "iata": "UA", "icao": "UAL"}]}, {"destination": {"icao": "KRDU", "iata": "RDU", "name": "Raleigh/Durham Raleigh Durham", "shortName": "Raleigh Durham", "municipalityName": "Raleigh/Durham", "location": {"lat": 35.8776, "lon": -78.7875}, "countryCode": "US"}, "averageDailyFlights": 1.14, "operators": [{"name": "United Airlines", "iata": "UA", "icao": "UAL"}]}, {"destination": {"icao": "KSAT", "iata": "SAT", "name": "San Antonio ", "shortName": "San Antonio", "municipalityName": "San Antonio", "location": {"lat": 29.5337, "lon": -98.4698}, "countryCode": "US"}, "averageDailyFlights": 1.14, "operators": [{"name": "United Airlines", "iata": "UA", "icao": "UAL"}]}, {"destination": {"icao": "KILN", "iata": "ILN", "name": "Wilmington Airpark", "shortName": "Airpark", "municipalityName": "Wilmington", "location": {"lat": 39.4279, "lon": -83.7921}, "countryCode": "US"}, "averageDailyFlights": 1.14, "operators": [{"name": "ATI", "iata": "8C", "icao": "ATN"}]}, {"destination": {"icao": "KBFL", "iata": "BFL", "name": "Bakersfield Meadows Field", "shortName": "Meadows Field", "municipalityName": "Bakersfield", "location": {"lat": 35.4336, "lon": -119.057}, "countryCode": "US"}, "averageDailyFlights": 1.0, "operators": [{"name": "United Airlines", "iata": "UA", "icao": "UAL"}]}, {"destination": {"icao": "YBBN", "iata": "BNE", "name": "Brisbane City Brisbane", "shortName": "Brisbane", "municipalityName": "Brisbane City", "location": {"lat": -27.3842, "lon": 153.117}, "countryCode": "AU"}, "averageDailyFlights": 1.0, "operators": [{"name": "United Airlines", "iata": "UA", "icao": "UAL"}]}, {"destination": {"icao": "EKCH", "iata": "CPH", "name": "Copenhagen Kastrup", "shortName": "Kastrup", "municipalityName": "Copenhagen", "location": {"lat": 55.6179, "lon": 12.656}, "countryCode": "DK"}, "averageDailyFlights": 1.0, "operators": [{"name": "SAS", "iata": "SK", "icao": "SAS"}]}, {"destination": {"icao": "LFPG", "iata": "CDG", "name": "Paris Charles de Gaulle", "shortName": "Charles de Gaulle", "municipalityName": "Paris", "location": {"lat": 49.0128, "lon": 2.549999}, "countryCode": "FR"}, "averageDailyFlights": 1.0, "operators": [{"name": "Air France", "iata": "AF", "icao": "AFR"}]}, {"destination": {"icao": "LSZH", "iata": "ZRH", "name": "Zurich Kloten", "shortName": "Kloten", "municipalityName": "Zurich", "location": {"lat": 47.4647, "lon": 8.549169}, "countryCode": "CH"}, "averageDailyFlights": 1.0, "operators": [{"name": "SWISS", "iata": "LX", "icao": "SWR"}]}, {"destination": {"icao": "CYEG", "iata": "YEG", "name": "Edmonton ", "shortName": "Edmonton", "municipalityName": "Edmonton", "location": {"lat": 53.3097, "lon": -113.58}, "countryCode": "CA"}, "averageDailyFlights": 0.86, "operators": [{"name": "Air Canada", "iata": "AC", "icao": "ACA"}]}, {"destination": {"icao": "KRSW", "iata": "RSW", "name": "Fort Myers Southwest Florida", "shortName": "Southwest Florida", "municipalityName": "Fort Myers", "location": {"lat": 26.5362, "lon": -81.7552}, "countryCode": "US"}, "averageDailyFlights": 0.86, "operators": [{"name": "United Airlines", "iata": "UA", "icao": "UAL"}]}, {"destination": {"icao": "MMGL", "iata": "GDL", "name": "Guadalajara Don Miguel Hidalgo Y Costilla", "shortName": "Don Miguel Hidalgo Y Costilla", "municipalityName": "Guadalajara", "location": {"lat": 20.5218, "lon": -103.311}, "countryCode": "MX"}, "averageDailyFlights": 0.86, "operators": [{"name": "Aeromexico", "iata": "AM", "icao": "AMX"}]}, {"destination": {"icao": "EIDW", "iata": "DUB", "name": "Dublin ", "shortName": "Dublin", "municipalityName": "Dublin", "location": {"lat": 53.4213, "lon": -6.27007}, "countryCode": "IE"}, "averageDailyFlights": 0.71, "operators": [{"name": "Aer Lingus", "iata": "EI", "icao": "EIN"}]}, {"destination": {"icao": "VVTS", "iata": "SGN", "name": "Ho Chi Minh City Tan Son Nhat", "shortName": "Tan Son Nhat", "municipalityName": "Ho Chi Minh City", "location": {"lat": 10.818799, "lon": 106.652}, "countryCode": "VN"}, "averageDailyFlights": 0.71, "operators": [{"name": "Vietnam Airlines", "iata": "VN", "icao": "HVN"}]}, {"destination": {"icao": "VABB", "iata": "BOM", "name": "Mumbai Chhatrapati Shivaji", "shortName": "Chhatrapati Shivaji", "municipalityName": "Mumbai", "location": {"lat": 19.0887, "lon": 72.8679}, "countryCode": "IN"}, "averageDailyFlights": 0.71, "operators": [{"name": "Air India", "iata": "AI", "icao": "AIC"}]}, {"destination": {"icao": "KBFI", "iata": "BFI", "name": "Seattle Boeing Field King County", "shortName": "Boeing Field King County", "municipalityName": "Seattle", "location": {"lat": 47.53, "lon": -122.302}, "countryCode": "US"}, "averageDailyFlights": 0.71, "operators": [{"name": "NetJets Aviation", "iata": "1I", "icao": "EJA"}, {"name": "PXT"}, {"name": "LXJ"}]}, {"destination": {"icao": "EHAM", "iata": "AMS", "name": "Amsterdam Schiphol", "shortName": "Schiphol", "municipalityName": "Amsterdam", "location": {"lat": 52.3086, "lon": 4.763889}, "countryCode": "NL"}, "averageDailyFlights": 0.57, "operators": [{"name": "KLM", "iata": "KL", "icao": "KLM"}]}, {"destination": {"icao": "KBIH", "iata": "BIH", "name": "Bishop Eastern Sierra Regional", "shortName": "Eastern Sierra Regional", "municipalityName": "Bishop", "location": {"lat": 37.3731, "lon": -118.364}, "countryCode": "US"}, "averageDailyFlights": 0.57, "operators": [{"name": "Delta Air Lines", "iata": "DL", "icao": "DAL"}, {"name": "United Airlines", "iata": "UA", "icao": "UAL"}]}, {"destination": {"icao": "NZCH", "iata": "CHC", "name": "Christchurch ", "shortName": "Christchurch", "municipalityName": "Christchurch", "location": {"lat": -43.4894, "lon": 172.532}, "countryCode": "NZ"}, "averageDailyFlights": 0.57, "operators": [{"name": "United Airlines", "iata": "UA", "icao": "UAL"}]}, {"destination": {"icao": "KPAE", "iata": "PAE", "name": "Everett Snohomish County (Paine Field)", "shortName": "Snohomish County (Paine Field)", "municipalityName": "Everett", "location": {"lat": 47.9063, "lon": -122.282}, "countryCode": "US"}, "averageDailyFlights": 0.57, "operators": [{"name": "Alaska Airlines", "iata": "AS", "icao": "ASA"}]}, {"destination": {"icao": "KOTH", "iata": "OTH", "name": "North Bend Southwest Oregon Regional", "shortName": "Southwest Oregon Regional", "municipalityName": "North Bend", "location": {"lat": 43.4171, "lon": -124.246}, "countryCode": "US"}, "averageDailyFlights": 0.57, "operators": [{"name": "United Airlines", "iata": "UA", "icao": "UAL"}]}, {"destination": {"icao": "LFPO", "iata": "ORY", "name": "Paris -Orly", "shortName": "-Orly", "municipalityName": "Paris", "location": {"lat": 48.7253, "lon": 2.35944}, "countryCode": "FR"}, "averageDailyFlights": 0.57, "operators": [{"name": "French Bee", "iata": "BF", "icao": "FBU"}]}, {"destination": {"icao": "KSBD", "iata": "SBD", "name": "San Bernardino ", "shortName": "San Bernardino", "municipalityName": "San Bernardino", "location": {"lat": 34.0954, "lon": -117.235}, "countryCode": "US"}, "averageDailyFlights": 0.57, "operators": [{"name": "Breeze Airways", "iata": "MX", "icao": "MXY"}]}, {"destination": {"icao": "KSJC", "iata": "SJC", "name": "San Jose Norman Y. Mineta", "shortName": "Norman Y. Mineta", "municipalityName": "San Jose", "location": {"lat": 37.3626, "lon": -121.929}, "countryCode": "US"}, "averageDailyFlights": 0.57, "operators": [{"name": "United Airlines", "iata": "UA", "icao": "UAL"}, {"name": "NetJets Aviation", "iata": "1I", "icao": "EJA"}]}, {"destination": {"name": "Provo"}, "averageDailyFlights": 0.57, "operators": [{"name": "Breeze Airways", "iata": "MX", "icao": "MXY"}]}, {"destination": {"icao": "VOBL", "iata": "BLR", "name": "Bangalore Bengaluru", "shortName": "Bengaluru", "municipalityName": "Bangalore", "location": {"lat": 13.197899, "lon": 77.7063}, "countryCode": "IN"}, "averageDailyFlights": 0.43, "operators": [{"name": "Air India", "iata": "AI", "icao": "AIC"}]}, {"destination": {"icao": "LPPT", "iata": "LIS", "name": "Lisbon Portela", "shortName": "Portela", "municipalityName": "Lisbon", "location": {"lat": 38.7813, "lon": -9.135919}, "countryCode": "PT"}, "averageDailyFlights": 0.43, "operators": [{"name": "TAP Air Portugal", "iata": "TP", "icao": "TAP"}]}, {"destination": {"icao": "NFFN", "iata": "NAN", "name": "Nadi ", "shortName": "Nadi", "municipalityName": "Nadi", "location": {"lat": -17.7554, "lon": 177.443}, "countryCode": "FJ"}, "averageDailyFlights": 0.43, "operators": [{"name": "Fiji Airways", "iata": "FJ", "icao": "FJI"}]}, {"destination": {"icao": "KTRM", "iata": "TRM", "name": "Palm Springs Jacqueline Cochran Regional", "shortName": "Jacqueline Cochran Regional", "municipalityName": "Palm Springs", "location": {"lat": 33.6267, "lon": -116.16}, "countryCode": "US"}, "averageDailyFlights": 0.43, "operators": [{"name": "NetJets Aviation", "iata": "1I", "icao": "EJA"}, {"name": "CYO"}]}, {"destination": {"icao": "KRIC", "iata": "RIC", "name": "Richmond ", "shortName": "Richmond", "municipalityName": "Richmond", "location": {"lat": 37.5052, "lon": -77.3197}, "countryCode": "US"}, "averageDailyFlights": 0.43, "operators": [{"name": "Breeze Airways", "iata": "MX", "icao": "MXY"}]}, {"destination": {"icao": "KTEB", "iata": "TEB", "name": "Teterboro ", "shortName": "Teterboro", "municipalityName": "Teterboro", "location": {"lat": 40.8501, "lon": -74.0608}, "countryCode": "US"}, "averageDailyFlights": 0.43, "operators": [{"name": "LXJ"}, {"name": "VJA"}, {"name": "NetJets Aviation", "iata": "1I", "icao": "EJA"}]}, {"destination": {"icao": "KCEC", "iata": "CEC", "name": "Crescent City Jack Mc Namara Field", "shortName": "Jack Mc Namara Field", "municipalityName": "Crescent City", "location": {"lat": 41.7802, "lon": -124.237}, "countryCode": "US"}, "averageDailyFlights": 0.29, "operators": [{"name": "Libyan Airlines", "iata": "LN", "icao": "LAA"}, {"name": "Delta Air Lines", "iata": "DL", "icao": "DAL"}]}, {"destination": {"icao": "KAPA", "iata": "APA", "name": "Denver Centennial", "shortName": "Centennial", "municipalityName": "Denver", "location": {"lat": 39.5701, "lon": -104.849}, "countryCode": "US"}, "averageDailyFlights": 0.29, "operators": [{"name": "LXJ"}, {"name": "NetJets Aviation", "iata": "1I", "icao": "EJA"}]}, {"destination": {"icao": "KHWD", "iata": "HWD", "name": "Hayward Executive", "shortName": "Executive", "municipalityName": "Hayward", "location": {"lat": 37.6592, "lon": -122.122}, "countryCode": "US"}, "averageDailyFlights": 0.29, "operators": [{"name": "NJZ"}, {"name": "TWY"}]}, {"destination": {"icao": "KGPI", "iata": "FCA", "name": "Kalispell Glacier Park", "shortName": "Glacier Park", "municipalityName": "Kalispell", "location": {"lat": 48.3105, "lon": -114.256}, "countryCode": "US"}, "averageDailyFlights": 0.29, "operators": [{"name": "United Airlines", "iata": "UA", "icao": "UAL"}]}, {"destination": {"icao": "KSDF", "iata": "SDF", "name": "Louisville Standiford Field", "shortName": "Standiford Field", "municipalityName": "Louisville", "location": {"lat": 38.1744, "lon": -85.736}, "countryCode": "US"}, "averageDailyFlights": 0.29, "operators": [{"name": "Breeze Airways", "iata": "MX", "icao": "MXY"}]}, {"destination": {"icao": "KOAK", "iata": "OAK", "name": "Oakland Metropolitan", "shortName": "Metropolitan", "municipalityName": "Oakland", "location": {"lat": 37.7213, "lon": -122.221}, "countryCode": "US"}, "averageDailyFlights": 0.29, "operators": [{"name": "NetJets Aviation", "iata": "1I", "icao": "EJA"}]}, {"destination": {"icao": "KMCC", "iata": "MCC", "name": "Sacramento Mc Clellan Airfield", "shortName": "Mc Clellan Airfield", "municipalityName": "Sacramento", "location": {"lat": 38.6676, "lon": -121.401}, "countryCode": "US"}, "averageDailyFlights": 0.29, "operators": [{"name": "CMD"}, {"name": "PWA"}]}, {"destination": {"icao": "KSAF", "iata": "SAF", "name": "Santa Fe Municipal", "shortName": "Municipal", "municipalityName": "Santa Fe", "location": {"lat": 35.6171, "lon": -106.089}, "countryCode": "US"}, "averageDailyFlights": 0.29, "operators": [{"name": "NetJets Aviation", "iata": "1I", "icao": "EJA"}, {"name": "VJA"}]}, {"destination": {"icao": "RJGG", "iata": "NGO", "name": "Tokoname Chubu Centrair", "shortName": "Chubu Centrair", "municipalityName": "Tokoname", "location": {"lat": 34.8584, "lon": 136.805}, "countryCode": "JP"}, "averageDailyFlights": 0.29, "operators": [{"name": "China Airlines", "iata": "CI", "icao": "CAL"}]}, {"destination": {"icao": "KPBI", "iata": "PBI", "name": "West Palm Beach Palm Beach", "shortName": "Palm Beach", "municipalityName": "West Palm Beach", "location": {"lat": 26.6832, "lon": -80.0956}, "countryCode": "US"}, "averageDailyFlights": 0.29, "operators": [{"name": "TWY"}, {"name": "EJM"}]}, {"destination": {"icao": "ZHHH", "iata": "WUH", "name": "Wuhan Tianhe", "shortName": "Tianhe", "municipalityName": "Wuhan", "location": {"lat": 30.7838, "lon": 114.208}, "countryCode": "CN"}, "averageDailyFlights": 0.29, "operators": [{"name": "China Southern Airlines", "iata": "CZ", "icao": "CSN"}]}, {"destination": {"icao": "KPDK", "iata": "PDK", "name": "Atlanta DeKalb Peachtree", "shortName": "DeKalb Peachtree", "municipalityName": "Atlanta", "location": {"lat": 33.8756, "lon": -84.302}, "countryCode": "US"}, "averageDailyFlights": 0.14, "operators": [{"name": "NetJets Aviation", "iata": "1I", "icao": "EJA"}]}, {"destination": {"icao": "KBLI", "iata": "BLI", "name": "Bellingham ", "shortName": "Bellingham", "municipalityName": "Bellingham", "location": {"lat": 48.7928, "lon": -122.538}, "countryCode": "US"}, "averageDailyFlights": 0.14, "operators": [{"name": "NetJets Aviation", "iata": "1I", "icao": "EJA"}]}, {"destination": {"icao": "KBTF", "iata": "BTF", "name": "Bountiful Skypark", "shortName": "Skypark", "municipalityName": "Bountiful", "location": {"lat": 40.8694, "lon": -111.927}, "countryCode": "US"}, "averageDailyFlights": 0.14, "operators": [{"name": "LXJ"}]}, {"destination": {"icao": "KMDW", "iata": "MDW", "name": "Chicago Midway", "shortName": "Midway", "municipalityName": "Chicago", "location": {"lat": 41.786, "lon": -87.7524}, "countryCode": "US"}, "averageDailyFlights": 0.14, "operators": [{"name": "NetJets Aviation", "iata": "1I", "icao": "EJA"}]}, {"destination": {"icao": "RJCC", "iata": "CTS", "name": "Chitose / Tomakomai New Chitose", "shortName": "New Chitose", "municipalityName": "Chitose / Tomakomai", "location": {"lat": 42.7752, "lon": 141.692}, "countryCode": "JP"}, "averageDailyFlights": 0.14, "operators": [{"name": "TWY"}]}, {"destination": {"icao": "KCCR", "iata": "CCR", "name": "Concord Buchanan Field", "shortName": "Buchanan Field", "municipalityName": "Concord", "location": {"lat": 37.9897, "lon": -122.057}, "countryCode": "US"}, "averageDailyFlights": 0.14, "operators": [{"name": "TIV"}]}, {"destination": {"icao": "KADS", "iata": "ADS", "name": "Dallas Addison", "shortName": "Addison", "municipalityName": "Dallas", "location": {"lat": 32.9686, "lon": -96.8364}, "countryCode": "US"}, "averageDailyFlights": 0.14, "operators": [{"name": "NetJets Aviation", "iata": "1I", "icao": "EJA"}]}, {"destination": {"icao": "KDSM", "iata": "DSM", "name": "Des Moines ", "shortName": "Des Moines", "municipalityName": "Des Moines", "location": {"lat": 41.534, "lon": -93.6631}, "countryCode": "US"}, "averageDailyFlights": 0.14, "operators": [{"name": "NetJets Aviation", "iata": "1I", "icao": "EJA"}]}, {"destination": {"icao": "KHDN", "iata": "HDN", "name": "Hayden Yampa Valley", "shortName": "Yampa Valley", "municipalityName": "Hayden", "location": {"lat": 40.4812, "lon": -107.218}, "countryCode": "US"}, "averageDailyFlights": 0.14, "operators": [{"name": "United Airlines", "iata": "UA", "icao": "UAL"}]}, {"destination": {"icao": "KHOU", "iata": "HOU", "name": "Houston William P Hobby", "shortName": "William P Hobby", "municipalityName": "Houston", "location": {"lat": 29.6454, "lon": -95.2789}, "countryCode": "US"}, "averageDailyFlights": 0.14, "operators": [{"name": "PRD"}]}, {"destination": {"icao": "MMZH", "iata": "ZIH", "name": "Ixtapa Zihuatanejo", "shortName": "Zihuatanejo", "municipalityName": "Ixtapa", "location": {"lat": 17.6016, "lon": -101.461}, "countryCode": "MX"}, "averageDailyFlights": 0.14, "operators": [{"name": "Alaska Airlines", "iata": "AS", "icao": "ASA"}]}, {"destination": {"icao": "KLSE", "iata": "LSE", "name": "La Crosse Municipal", "shortName": "Municipal", "municipalityName": "La Crosse", "location": {"lat": 43.879, "lon": -91.2567}, "countryCode": "US"}, "averageDailyFlights": 0.14, "operators": [{"name": "VJA"}]}, {"destination": {"icao": "KLNK", "iata": "LNK", "name": "Lincoln ", "shortName": "Lincoln", "municipalityName": "Lincoln", "location": {"lat": 40.851, "lon": -96.7592}, "countryCode": "US"}, "averageDailyFlights": 0.14, "operators": [{"name": "NetJets Aviation", "iata": "1I", "icao": "EJA"}]}, {"destination": {"icao": "KLVK", "iata": "LVK", "name": "Livermore Municipal", "shortName": "Municipal", "municipalityName": "Livermore", "location": {"lat": 37.6934, "lon": -121.82}, "countryCode": "US"}, "averageDailyFlights": 0.14, "operators": [{"name": "JAS"}]}, {"destination": {"icao": "MMLT", "iata": "LTO", "name": "Loreto ", "shortName": "Loreto", "municipalityName": "Loreto", "location": {"lat": 25.9892, "lon": -111.348}, "countryCode": "MX"}, "averageDailyFlights": 0.14, "operators": [{"name": "Alaska Airlines", "iata": "AS", "icao": "ASA"}]}, {"destination": {"icao": "MMMZ", "iata": "MZT", "name": "Mazatl\u00e1n General Rafael Buelna", "shortName": "General Rafael Buelna", "municipalityName": "Mazatl\u00e1n", "location": {"lat": 23.1614, "lon": -106.266}, "countryCode": "MX"}, "averageDailyFlights": 0.14, "operators": [{"name": "Alaska Airlines", "iata": "AS", "icao": "ASA"}]}, {"destination": {"icao": "KMEM", "iata": "MEM", "name": "Memphis ", "shortName": "Memphis", "municipalityName": "Memphis", "location": {"lat": 35.0424, "lon": -89.9767}, "countryCode": "US"}, "averageDailyFlights": 0.14, "operators": [{"name": "Delta Air Lines", "iata": "DL", "icao": "DAL"}]}, {"destination": {"icao": "KBFM", "iata": "BFM", "name": "Mobile Downtown", "shortName": "Downtown", "municipalityName": "Mobile", "location": {"lat": 30.6268, "lon": -88.0681}, "countryCode": "US"}, "averageDailyFlights": 0.14, "operators": [{"name": "LXJ"}]}, {"destination": {"icao": "KMTJ", "iata": "MTJ", "name": "Montrose Regional", "shortName": "Regional", "municipalityName": "Montrose", "location": {"lat": 38.5098, "lon": -107.894}, "countryCode": "US"}, "averageDailyFlights": 0.14, "operators": [{"name": "United Airlines", "iata": "UA", "icao": "UAL"}]}, {"destination": {"icao": "KAPC", "iata": "APC", "name": "Napa County", "shortName": "County", "municipalityName": "Napa", "location": {"lat": 38.2132, "lon": -122.281}, "countryCode": "US"}, "averageDailyFlights": 0.14, "operators": [{"name": "JRE"}]}, {"destination": {"icao": "KPRC", "iata": "PRC", "name": "Prescott Ernest A. Love Field", "shortName": "Ernest A. Love Field", "municipalityName": "Prescott", "location": {"lat": 34.6545, "lon": -112.42}, "countryCode": "US"}, "averageDailyFlights": 0.14, "operators": [{"name": "TIV"}]}, {"destination": {"icao": "KSLN", "iata": "SLN", "name": "Salina Municipal", "shortName": "Municipal", "municipalityName": "Salina", "location": {"lat": 38.791, "lon": -97.6522}, "countryCode": "US"}, "averageDailyFlights": 0.14, "operators": [{"name": "NetJets Aviation", "iata": "1I", "icao": "EJA"}]}, {"destination": {"icao": "KSMO", "iata": "SMO", "name": "Santa Monica Municipal", "shortName": "Municipal", "municipalityName": "Santa Monica", "location": {"lat": 34.0158, "lon": -118.451}, "countryCode": "US"}, "averageDailyFlights": 0.14, "operators": [{"name": "NetJets Aviation", "iata": "1I", "icao": "EJA"}]}, {"destination": {"icao": "KSDL", "iata": "SCF", "name": "Scottsdale ", "shortName": "Scottsdale", "municipalityName": "Scottsdale", "location": {"lat": 33.6229, "lon": -111.911}, "countryCode": "US"}, "averageDailyFlights": 0.14, "operators": [{"name": "ASP"}]}, {"destination": {"icao": "KSTP", "iata": "STP", "name": "St Paul Downtown Holman Field", "shortName": "Downtown Holman Field", "municipalityName": "St Paul", "location": {"lat": 44.9345, "lon": -93.06}, "countryCode": "US"}, "averageDailyFlights": 0.14, "operators": [{"name": "National Airlines", "iata": "N8", "icao": "NCR"}]}, {"destination": {"icao": "KTEX", "iata": "TEX", "name": "Telluride Regional", "shortName": "Regional", "municipalityName": "Telluride", "location": {"lat": 37.9538, "lon": -107.908}, "countryCode": "US"}, "averageDailyFlights": 0.14, "operators": [{"name": "LXJ"}]}, {"destination": {"icao": "KTWF", "iata": "TWF", "name": "Twin Falls Joslin Field Magic Valley Regional", "shortName": "Joslin Field Magic Valley Regional", "municipalityName": "Twin Falls", "location": {"lat": 42.4818, "lon": -114.488}, "countryCode": "US"}, "averageDailyFlights": 0.14, "operators": [{"name": "NetJets Aviation", "iata": "1I", "icao": "EJA"}]}, {"destination": {"icao": "KIAB", "iata": "IAB", "name": "Wichita Mc Connell Air Force Base", "shortName": "Mc Connell Air Force Base", "municipalityName": "Wichita", "location": {"lat": 37.6219, "lon": -97.2682}, "countryCode": "US"}, "averageDailyFlights": 0.14, "operators": [{"name": "United Airlines", "iata": "UA", "icao": "UAL"}]}]}