{"routes": [{"destination": {"icao": "LEMD", "iata": "MAD", "name": "Madrid Adolfo Su\u00e1rez \u2013Barajas", "shortName": "Adolfo Su\u00e1rez \u2013Barajas", "municipalityName": "Madrid", "location": {"lat": 40.4936, "lon": -3.56676}, "countryCode": "ES"}, "averageDailyFlights": 4.71, "operators": [{"name": "Ryanair", "iata": "FR", "icao": "RYR"}, {"name": "Iberia", "iata": "IB", "icao": "IBE"}, {"name": "Air Europa", "iata": "UX", "icao": "AEA"}, {"name": "Vueling", "iata": "VY", "icao": "VLG"}]}, {"destination": {"icao": "LEBL", "iata": "BCN", "name": "Barcelona ", "shortName": "Barcelona", "municipalityName": "Barcelona", "location": {"lat": 41.2971, "lon": 2.078459}, "countryCode": "ES"}, "averageDailyFlights": 3.0, "operators": [{"name": "Vueling", "iata": "VY", "icao": "VLG"}, {"name": "Ryanair", "iata": "FR", "icao": "RYR"}]}, {"destination": {"icao": "LEBB", "iata": "BIO", "name": "Bilbao ", "shortName": "Bilbao", "municipalityName": "Bilbao", "location": {"lat": 43.3011, "lon": -2.910609}, "countryCode": "ES"}, "averageDailyFlights": 2.57, "operators": [{"name": "Iberia", "iata": "IB", "icao": "IBE"}, {"name": "Vueling", "iata": "VY", "icao": "VLG"}]}, {"destination": {"icao": "LEZL", "iata": "SVQ", "name": "Seville Sevilla", "shortName": "Sevilla", "municipalityName": "Seville", "location": {"lat": 37.418, "lon": -5.893109}, "countryCode": "ES"}, "averageDailyFlights": 1.57, "operators": [{"name": "Vueling", "iata": "VY", "icao": "VLG"}, {"name": "Ryanair", "iata": "FR", "icao": "RYR"}]}, {"destination": {"icao": "LEMG", "iata": "AGP", "name": "M\u00e1laga ", "shortName": "M\u00e1laga", "municipalityName": "M\u00e1laga", "location": {"lat": 36.6749, "lon": -4.49911}, "countryCode": "ES"}, "averageDailyFlights": 1.43, "operators": [{"name": "Ryanair", "iata": "FR", "icao": "RYR"}, {"name": "Vueling", "iata": "VY", "icao": "VLG"}, {"name": "Evelop Airlines", "iata": "E9", "icao": "EVE"}]}, {"destination": {"icao": "LEPA", "iata": "PMI", "name": "Palma De Mallorca ", "shortName": "Palma De Mallorca", "municipalityName": "Palma De Mallorca", "location": {"lat": 39.5517, "lon": 2.73881}, "countryCode": "ES"}, "averageDailyFlights": 1.43, "operators": [{"name": "Ryanair", "iata": "FR", "icao": "RYR"}, {"name": "Vueling", "iata": "VY", "icao": "VLG"}, {"name": "Iberia", "iata": "IB", "icao": "IBE"}]}, {"destination": {"icao": "GCTS", "iata": "TFS", "name": "Tenerife Island Tenerife South", "shortName": "Tenerife South", "municipalityName": "Tenerife Island", "location": {"lat": 28.0445, "lon": -16.5725}, "countryCode": "ES"}, "averageDailyFlights": 1.14, "operators": [{"name": "Ryanair", "iata": "FR", "icao": "RYR"}]}, {"destination": {"icao": "LEVC", "iata": "VLC", "name": "Valencia ", "shortName": "Valencia", "municipalityName": "Valencia", "location": {"lat": 39.4893, "lon": -0.481624}, "countryCode": "ES"}, "averageDailyFlights": 1.14, "operators": [{"name": "Ryanair", "iata": "FR", "icao": "RYR"}]}, {"destination": {"icao": "GCRR", "iata": "ACE", "name": "Lanzarote Island Lanzarote", "shortName": "Lanzarote", "municipalityName": "Lanzarote Island", "location": {"lat": 28.9455, "lon": -13.605199}, "countryCode": "ES"}, "averageDailyFlights": 1.0, "operators": [{"name": "Vueling", "iata": "VY", "icao": "VLG"}, {"name": "Ryanair", "iata": "FR", "icao": "RYR"}]}, {"destination": {"icao": "GCXO", "iata": "TFN", "name": "Tenerife Island Tenerife Norte", "shortName": "Tenerife Norte", "municipalityName": "Tenerife Island", "location": {"lat": 28.4827, "lon": -16.3415}, "countryCode": "ES"}, "averageDailyFlights": 1.0, "operators": [{"name": "Vueling", "iata": "VY", "icao": "VLG"}]}, {"destination": {"icao": "LEAL", "iata": "ALC", "name": "Alicante ", "shortName": "Alicante", "municipalityName": "Alicante", "location": {"lat": 38.2822, "lon": -0.558156}, "countryCode": "ES"}, "averageDailyFlights": 0.86, "operators": [{"name": "Ryanair", "iata": "FR", "icao": "RYR"}, {"name": "Vueling", "iata": "VY", "icao": "VLG"}, {"name": "AlbaStar", "iata": "AP", "icao": "LAV"}]}, {"destination": {"icao": "EGSS", "iata": "STN", "name": "London Stansted", "shortName": "Stansted", "municipalityName": "London", "location": {"lat": 51.885, "lon": 0.234999}, "countryCode": "GB"}, "averageDailyFlights": 0.86, "operators": [{"name": "Ryanair", "iata": "FR", "icao": "RYR"}]}, {"destination": {"icao": "GCLP", "iata": "LPA", "name": "Gran Canaria Island Gran Canaria", "shortName": "Gran Canaria", "municipalityName": "Gran Canaria Island", "location": {"lat": 27.9319, "lon": -15.386599}, "countryCode": "ES"}, "averageDailyFlights": 0.71, "operators": [{"name": "Ryanair", "iata": "FR", "icao": "RYR"}, {"name": "Vueling", "iata": "VY", "icao": "VLG"}]}, {"destination": {"icao": "EHAM", "iata": "AMS", "name": "Amsterdam Schiphol", "shortName": "Schiphol", "municipalityName": "Amsterdam", "location": {"lat": 52.3086, "lon": 4.763889}, "countryCode": "NL"}, "averageDailyFlights": 0.57, "operators": [{"name": "Vueling", "iata": "VY", "icao": "VLG"}, {"name": "Iberia", "iata": "IB", "icao": "IBE"}]}, {"destination": {"icao": "GCFV", "iata": "FUE", "name": "Fuerteventura Island Fuerteventura", "shortName": "Fuerteventura", "municipalityName": "Fuerteventura Island", "location": {"lat": 28.4527, "lon": -13.8638}, "countryCode": "ES"}, "averageDailyFlights": 0.57, "operators": [{"name": "Ryanair", "iata": "FR", "icao": "RYR"}, {"name": "Vueling", "iata": "VY", "icao": "VLG"}]}, {"destination": {"icao": "LSGG", "iata": "GVA", "name": "Geneva Cointrin", "shortName": "Cointrin", "municipalityName": "Geneva", "location": {"lat": 46.2381, "lon": 6.10895}, "countryCode": "CH"}, "averageDailyFlights": 0.57, "operators": [{"name": "easyJet", "iata": "U2", "icao": "EZY"}]}, {"destination": {"icao": "EGKK", "iata": "LGW", "name": "London Gatwick", "shortName": "Gatwick", "municipalityName": "London", "location": {"lat": 51.1481, "lon": -0.190277}, "countryCode": "GB"}, "averageDailyFlights": 0.57, "operators": [{"name": "Vueling", "iata": "VY", "icao": "VLG"}]}, {"destination": {"icao": "LFSB", "iata": "BSL", "name": "B\u00e2le/Mulhouse Euro Basel-Mulhouse-Freiburg", "shortName": "Euro Basel-Mulhouse-Freiburg", "municipalityName": "B\u00e2le/Mulhouse", "location": {"lat": 47.5896, "lon": 7.52991}, "countryCode": "FR"}, "averageDailyFlights": 0.29, "operators": [{"name": "easyJet", "iata": "U2", "icao": "EZY"}]}, {"destination": {"icao": "LIME", "iata": "BGY", "name": "Bergamo Orio al Serio", "shortName": "Orio al Serio", "municipalityName": "Bergamo", "location": {"lat": 45.6739, "lon": 9.70417}, "countryCode": "IT"}, "averageDailyFlights": 0.29, "operators": [{"name": "Ryanair", "iata": "FR", "icao": "RYR"}]}, {"destination": {"icao": "LEZG", "iata": "ZAZ", "name": "Zaragoza Air Base", "shortName": "Air Base", "municipalityName": "Zaragoza", "location": {"lat": 41.6662, "lon": -1.04155}, "countryCode": "ES"}, "averageDailyFlights": 0.29, "operators": [{"name": "Ryanair", "iata": "FR", "icao": "RYR"}]}, {"destination": {"icao": "LEAM", "iata": "LEI", "name": "Almer\u00eda ", "shortName": "Almer\u00eda", "municipalityName": "Almer\u00eda", "location": {"lat": 36.8439, "lon": -2.3701}, "countryCode": "ES"}, "averageDailyFlights": 0.14, "operators": [{"name": "AlbaStar", "iata": "AP", "icao": "LAV"}]}, {"destination": {"icao": "LECO", "iata": "LCG", "name": "Culleredo A Coru\u00f1a", "shortName": "A Coru\u00f1a", "municipalityName": "Culleredo", "location": {"lat": 43.3021, "lon": -8.37726}, "countryCode": "ES"}, "averageDailyFlights": 0.14, "operators": [{"name": "Vueling", "iata": "VY", "icao": "VLG"}]}, {"destination": {"icao": "LFPG", "iata": "CDG", "name": "Paris Charles de Gaulle", "shortName": "Charles de Gaulle", "municipalityName": "Paris", "location": {"lat": 49.0128, "lon": 2.549999}, "countryCode": "FR"}, "averageDailyFlights": 0.14, "operators": [{"name": "Vueling", "iata": "VY", "icao": "VLG"}]}]}