{"routes": [{"destination": {"icao": "MBGT", "iata": "GDT", "name": "Cockburn Town JAGS McCartney", "shortName": "JAGS McCartney", "municipalityName": "Cockburn Town", "location": {"lat": 21.444498, "lon": -71.1423}, "countryCode": "TC"}, "averageDailyFlights": 4.46, "operators": [{"name": "interCaribbean Airways", "iata": "JY", "icao": "IWY"}, {"name": "Caicos Express Airways", "iata": "9Q", "icao": "CXE"}]}, {"destination": {"icao": "KMIA", "iata": "MIA", "name": "Miami ", "shortName": "Miami", "municipalityName": "Miami", "location": {"lat": 25.7932, "lon": -80.2906}, "countryCode": "US"}, "averageDailyFlights": 3.29, "operators": [{"name": "NJE"}, {"name": "IBC Airways", "iata": "II", "icao": "CSQ"}, {"name": "KII"}, {"name": "LXJ"}, {"name": "SCW"}, {"name": "VJA"}, {"name": "American Airlines", "iata": "AA", "icao": "AAL"}]}, {"destination": {"icao": "MYNN", "iata": "NAS", "name": "Nassau Lynden Pindling", "shortName": "Lynden Pindling", "municipalityName": "Nassau", "location": {"lat": 25.039, "lon": -77.4662}, "countryCode": "BS"}, "averageDailyFlights": 2.71, "operators": [{"name": "REE"}, {"name": "JRE"}, {"name": "interCaribbean Airways", "iata": "JY", "icao": "IWY"}, {"name": "Bahamasair", "iata": "UP", "icao": "BHS"}, {"name": "British Airways", "iata": "BA", "icao": "BAW"}, {"name": "ASP"}]}, {"destination": {"icao": "KJFK", "iata": "JFK", "name": "New York John F Kennedy", "shortName": "John F Kennedy", "municipalityName": "New York", "location": {"lat": 40.6398, "lon": -73.7789}, "countryCode": "US"}, "averageDailyFlights": 2.29, "operators": [{"name": "JetBlue Airways", "iata": "B6", "icao": "JBU"}, {"name": "Delta Air Lines", "iata": "DL", "icao": "DAL"}]}, {"destination": {"icao": "KCLT", "iata": "CLT", "name": "Charlotte Douglas", "shortName": "Douglas", "municipalityName": "Charlotte", "location": {"lat": 35.214, "lon": -80.9431}, "countryCode": "US"}, "averageDailyFlights": 2.14, "operators": [{"name": "American Airlines", "iata": "AA", "icao": "AAL"}]}, {"destination": {"icao": "MTCH", "iata": "CAP", "name": "Cap Haitien ", "shortName": "Cap Haitien", "municipalityName": "Cap Haitien", "location": {"lat": 19.733, "lon": -72.1947}, "countryCode": "HT"}, "averageDailyFlights": 1.71, "operators": [{"name": "Caicos Express Airways", "iata": "9Q", "icao": "CXE"}, {"name": "interCaribbean Airways", "iata": "JY", "icao": "IWY"}]}, {"destination": {"icao": "MKJP", "iata": "KIN", "name": "Kingston Norman Manley", "shortName": "Norman Manley", "municipalityName": "Kingston", "location": {"lat": 17.9357, "lon": -76.7875}, "countryCode": "JM"}, "averageDailyFlights": 1.71, "operators": [{"name": "Papillon Airways", "iata": "HI"}, {"name": "interCaribbean Airways", "iata": "JY", "icao": "IWY"}, {"name": "Caicos Express Airways", "iata": "9Q", "icao": "CXE"}]}, {"destination": {"icao": "CYYZ", "iata": "YYZ", "name": "Toronto Pearson", "shortName": "Pearson", "municipalityName": "Toronto", "location": {"lat": 43.6772, "lon": -79.6306}, "countryCode": "CA"}, "averageDailyFlights": 1.71, "operators": [{"name": "Air Canada", "iata": "AC", "icao": "ACA"}, {"name": "TOR"}, {"name": "WestJet", "iata": "WS", "icao": "WJA"}]}, {"destination": {"icao": "KATL", "iata": "ATL", "name": "Atlanta Hartsfield Jackson", "shortName": "Hartsfield Jackson", "municipalityName": "Atlanta", "location": {"lat": 33.6367, "lon": -84.4281}, "countryCode": "US"}, "averageDailyFlights": 1.29, "operators": [{"name": "Delta Air Lines", "iata": "DL", "icao": "DAL"}]}, {"destination": {"icao": "MDSD", "iata": "SDQ", "name": "Santo Domingo City Las Am\u00e9ricas", "shortName": "Las Am\u00e9ricas", "municipalityName": "Santo Domingo City", "location": {"lat": 18.4297, "lon": -69.6689}, "countryCode": "DO"}, "averageDailyFlights": 1.29, "operators": [{"name": "interCaribbean Airways", "iata": "JY", "icao": "IWY"}]}, {"destination": {"icao": "KFLL", "iata": "FLL", "name": "Fort Lauderdale Hollywood", "shortName": "Hollywood", "municipalityName": "Fort Lauderdale", "location": {"lat": 26.0726, "lon": -80.1527}, "countryCode": "US"}, "averageDailyFlights": 1.14, "operators": [{"name": "SYB"}, {"name": "Southwest Airlines", "iata": "WN", "icao": "SWA"}, {"name": "Silver Airways", "iata": "3M", "icao": "SIL"}]}, {"destination": {"icao": "KEWR", "iata": "EWR", "name": "Newark Liberty", "shortName": "Liberty", "municipalityName": "Newark", "location": {"lat": 40.6925, "lon": -74.1687}, "countryCode": "US"}, "averageDailyFlights": 1.14, "operators": [{"name": "United Airlines", "iata": "UA", "icao": "UAL"}]}, {"destination": {"icao": "MDST", "iata": "STI", "name": "Santiago Cibao", "shortName": "Cibao", "municipalityName": "Santiago", "location": {"lat": 19.4061, "lon": -70.6047}, "countryCode": "DO"}, "averageDailyFlights": 1.14, "operators": [{"name": "Caicos Express Airways", "iata": "9Q", "icao": "CXE"}, {"name": "interCaribbean Airways", "iata": "JY", "icao": "IWY"}]}, {"destination": {"icao": "KIAD", "iata": "IAD", "name": "District of Columbia Washington Dulles", "shortName": "Washington Dulles", "municipalityName": "District of Columbia", "location": {"lat": 38.9445, "lon": -77.4558}, "countryCode": "US"}, "averageDailyFlights": 0.86, "operators": [{"name": "United Airlines", "iata": "UA", "icao": "UAL"}]}, {"destination": {"icao": "KBOS", "iata": "BOS", "name": "Boston General Edward Lawrence Logan", "shortName": "General Edward Lawrence Logan", "municipalityName": "Boston", "location": {"lat": 42.3643, "lon": -71.0052}, "countryCode": "US"}, "averageDailyFlights": 0.57, "operators": [{"name": "JetBlue Airways", "iata": "B6", "icao": "JBU"}, {"name": "American Airlines", "iata": "AA", "icao": "AAL"}]}, {"destination": {"icao": "MUHA", "iata": "HAV", "name": "Havana Jos\u00e9 Mart\u00ed", "shortName": "Jos\u00e9 Mart\u00ed", "municipalityName": "Havana", "location": {"lat": 22.9892, "lon": -82.4091}, "countryCode": "CU"}, "averageDailyFlights": 0.57, "operators": [{"name": "interCaribbean Airways", "iata": "JY", "icao": "IWY"}]}, {"destination": {"icao": "KORD", "iata": "ORD", "name": "Chicago O'Hare", "shortName": "O'Hare", "municipalityName": "Chicago", "location": {"lat": 41.9786, "lon": -87.9048}, "countryCode": "US"}, "averageDailyFlights": 0.43, "operators": [{"name": "United Airlines", "iata": "UA", "icao": "UAL"}, {"name": "American Airlines", "iata": "AA", "icao": "AAL"}]}, {"destination": {"icao": "KFXE", "iata": "FXE", "name": "Fort Lauderdale Executive", "shortName": "Executive", "municipalityName": "Fort Lauderdale", "location": {"lat": 26.197298, "lon": -80.1707}, "countryCode": "US"}, "averageDailyFlights": 0.43, "operators": [{"name": "JRE"}, {"name": "TCA", "iata": "N6", "icao": "TZS"}]}, {"destination": {"icao": "MWCR", "iata": "GCM", "name": "Georgetown Owen Roberts", "shortName": "Owen Roberts", "municipalityName": "Georgetown", "location": {"lat": 19.2928, "lon": -81.3577}, "countryCode": "KY"}, "averageDailyFlights": 0.43, "operators": [{"name": "Papillon Airways", "iata": "HI"}, {"name": "FRV"}]}, {"destination": {"icao": "EGLL", "iata": "LHR", "name": "London Heathrow", "shortName": "Heathrow", "municipalityName": "London", "location": {"lat": 51.4706, "lon": -0.461941}, "countryCode": "GB"}, "averageDailyFlights": 0.43, "operators": [{"name": "Virgin Atlantic", "iata": "VS", "icao": "VIR"}]}, {"destination": {"icao": "MKJS", "iata": "MBJ", "name": "Montego Bay Sangster", "shortName": "Sangster", "municipalityName": "Montego Bay", "location": {"lat": 18.5037, "lon": -77.9134}, "countryCode": "JM"}, "averageDailyFlights": 0.43, "operators": [{"name": "Virgin Atlantic", "iata": "VS", "icao": "VIR"}]}, {"destination": {"icao": "MTPP", "iata": "PAP", "name": "Port-au-Prince Toussaint Louverture", "shortName": "Toussaint Louverture", "municipalityName": "Port-au-Prince", "location": {"lat": 18.58, "lon": -72.2925}, "countryCode": "HT"}, "averageDailyFlights": 0.43, "operators": [{"name": "interCaribbean Airways", "iata": "JY", "icao": "IWY"}]}, {"destination": {"icao": "TJSJ", "iata": "SJU", "name": "San Juan Luis Munoz Marin", "shortName": "Luis Munoz Marin", "municipalityName": "San Juan", "location": {"lat": 18.4394, "lon": -66.0018}, "countryCode": "PR"}, "averageDailyFlights": 0.43, "operators": [{"name": "TMB"}, {"name": "TCA", "iata": "N6", "icao": "TZS"}]}, {"destination": {"icao": "TAPA", "iata": "ANU", "name": "St. George V.C. Bird", "shortName": "V.C. Bird", "municipalityName": "St. George", "location": {"lat": 17.1367, "lon": -61.7927}, "countryCode": "AG"}, "averageDailyFlights": 0.43, "operators": [{"name": "interCaribbean Airways", "iata": "JY", "icao": "IWY"}]}, {"destination": {"icao": "KPBI", "iata": "PBI", "name": "West Palm Beach Palm Beach", "shortName": "Palm Beach", "municipalityName": "West Palm Beach", "location": {"lat": 26.6832, "lon": -80.0956}, "countryCode": "US"}, "averageDailyFlights": 0.43, "operators": [{"name": "LXJ"}, {"name": "LAK"}, {"name": "FTH"}]}, {"destination": {"icao": "KMSP", "iata": "MSP", "name": "Minneapolis Wold-Chamberlain", "shortName": "Wold-Chamberlain", "municipalityName": "Minneapolis", "location": {"lat": 44.882, "lon": -93.2218}, "countryCode": "US"}, "averageDailyFlights": 0.29, "operators": [{"name": "Delta Air Lines", "iata": "DL", "icao": "DAL"}, {"name": "Sun Country Airlines", "iata": "SY", "icao": "SCX"}]}, {"destination": {"icao": "CYUL", "iata": "YUL", "name": "Montreal Trudeau", "shortName": "Trudeau", "municipalityName": "Montreal", "location": {"lat": 45.4706, "lon": -73.7408}, "countryCode": "CA"}, "averageDailyFlights": 0.29, "operators": [{"name": "Air Canada", "iata": "AC", "icao": "ACA"}]}, {"destination": {"icao": "KAPF", "iata": "APF", "name": "Naples Municipal", "shortName": "Municipal", "municipalityName": "Naples", "location": {"lat": 26.1526, "lon": -81.7753}, "countryCode": "US"}, "averageDailyFlights": 0.29, "operators": [{"name": "JRE"}, {"name": "N5A"}]}, {"destination": {"icao": "KPNS", "iata": "PNS", "name": "Pensacola Regional", "shortName": "Regional", "municipalityName": "Pensacola", "location": {"lat": 30.4734, "lon": -87.1866}, "countryCode": "US"}, "averageDailyFlights": 0.29, "operators": [{"name": "JRE"}]}, {"destination": {"icao": "KPHL", "iata": "PHL", "name": "Philadelphia ", "shortName": "Philadelphia", "municipalityName": "Philadelphia", "location": {"lat": 39.8719, "lon": -75.2411}, "countryCode": "US"}, "averageDailyFlights": 0.29, "operators": [{"name": "TWY"}, {"name": "American Airlines", "iata": "AA", "icao": "AAL"}]}, {"destination": {"icao": "KTEB", "iata": "TEB", "name": "Teterboro ", "shortName": "Teterboro", "municipalityName": "Teterboro", "location": {"lat": 40.8501, "lon": -74.0608}, "countryCode": "US"}, "averageDailyFlights": 0.29, "operators": [{"name": "VJA"}]}, {"destination": {"icao": "KHPN", "iata": "HPN", "name": "White Plains Westchester County", "shortName": "Westchester County", "municipalityName": "White Plains", "location": {"lat": 41.067, "lon": -73.7076}, "countryCode": "US"}, "averageDailyFlights": 0.29, "operators": [{"name": "KOW"}, {"name": "FJO"}]}, {"destination": {"icao": "KILM", "iata": "ILM", "name": "Wilmington ", "shortName": "Wilmington", "municipalityName": "Wilmington", "location": {"lat": 34.2706, "lon": -77.9026}, "countryCode": "US"}, "averageDailyFlights": 0.29, "operators": [{"name": "TWY"}, {"name": "LXJ"}]}, {"destination": {"icao": "KCVG", "iata": "CVG", "name": "Cincinnati Northern Kentucky", "shortName": "Northern Kentucky", "municipalityName": "Cincinnati", "location": {"lat": 39.0488, "lon": -84.6678}, "countryCode": "US"}, "averageDailyFlights": 0.14, "operators": [{"name": "RNI"}]}, {"destination": {"icao": "KDFW", "iata": "DFW", "name": "Dallas-Fort Worth ", "shortName": "Dallas-Fort Worth", "municipalityName": "Dallas-Fort Worth", "location": {"lat": 32.8968, "lon": -97.038}, "countryCode": "US"}, "averageDailyFlights": 0.14, "operators": [{"name": "American Airlines", "iata": "AA", "icao": "AAL"}]}, {"destination": {"icao": "KFRG", "iata": "FRG", "name": "Farmingdale Republic", "shortName": "Republic", "municipalityName": "Farmingdale", "location": {"lat": 40.7288, "lon": -73.4134}, "countryCode": "US"}, "averageDailyFlights": 0.14, "operators": [{"name": "SDU"}]}, {"destination": {"icao": "KRSW", "iata": "RSW", "name": "Fort Myers Southwest Florida", "shortName": "Southwest Florida", "municipalityName": "Fort Myers", "location": {"lat": 26.5362, "lon": -81.7552}, "countryCode": "US"}, "averageDailyFlights": 0.14, "operators": [{"name": "ASP"}]}, {"destination": {"icao": "KAFW", "iata": "AFW", "name": "Fort Worth Alliance", "shortName": "Alliance", "municipalityName": "Fort Worth", "location": {"lat": 32.9876, "lon": -97.3188}, "countryCode": "US"}, "averageDailyFlights": 0.14, "operators": [{"name": "EJM"}]}, {"destination": {"icao": "KFPR", "iata": "FPR", "name": "Ft. Pierce St Lucie County", "shortName": "St Lucie County", "municipalityName": "Ft. Pierce", "location": {"lat": 27.4951, "lon": -80.3683}, "countryCode": "US"}, "averageDailyFlights": 0.14, "operators": [{"name": "Vuela El Salvador", "iata": "N3", "icao": "VOS"}]}, {"destination": {"icao": "KHOU", "iata": "HOU", "name": "Houston William P Hobby", "shortName": "William P Hobby", "municipalityName": "Houston", "location": {"lat": 29.6454, "lon": -95.2789}, "countryCode": "US"}, "averageDailyFlights": 0.14, "operators": [{"name": "CWG"}]}, {"destination": {"icao": "KMKC", "iata": "MKC", "name": "Kansas City Charles B. Wheeler Downtown", "shortName": "Charles B. Wheeler Downtown", "municipalityName": "Kansas City", "location": {"lat": 39.1232, "lon": -94.5928}, "countryCode": "US"}, "averageDailyFlights": 0.14, "operators": [{"name": "FJO"}]}, {"destination": {"icao": "KMCO", "iata": "MCO", "name": "Orlando ", "shortName": "Orlando", "municipalityName": "Orlando", "location": {"lat": 28.4294, "lon": -81.309}, "countryCode": "US"}, "averageDailyFlights": 0.14, "operators": [{"name": "LXJ"}]}, {"destination": {"icao": "CYOW", "iata": "YOW", "name": "Ottawa Macdonald-Cartier", "shortName": "Macdonald-Cartier", "municipalityName": "Ottawa", "location": {"lat": 45.3225, "lon": -75.6692}, "countryCode": "CA"}, "averageDailyFlights": 0.14, "operators": [{"name": "HRT"}]}, {"destination": {"icao": "TNCM", "iata": "SXM", "name": "Saint Martin Princess Juliana", "shortName": "Princess Juliana", "municipalityName": "Saint Martin", "location": {"lat": 18.041, "lon": -63.1089}, "countryCode": "SX"}, "averageDailyFlights": 0.14, "operators": [{"name": "FJO"}]}, {"destination": {"icao": "KTPA", "iata": "TPA", "name": "Tampa ", "shortName": "Tampa", "municipalityName": "Tampa", "location": {"lat": 27.9755, "lon": -82.5332}, "countryCode": "US"}, "averageDailyFlights": 0.14, "operators": [{"name": "LXJ"}]}, {"destination": {"icao": "KTTN", "iata": "TTN", "name": "Trenton Mercer", "shortName": "Mercer", "municipalityName": "Trenton", "location": {"lat": 40.2767, "lon": -74.8135}, "countryCode": "US"}, "averageDailyFlights": 0.14, "operators": [{"name": "VJA"}]}, {"destination": {"name": "Boskobel"}, "averageDailyFlights": 0.14, "operators": [{"name": "interCaribbean Airways", "iata": "JY", "icao": "IWY"}]}, {"destination": {"name": "Yuzhnyy Kaykos"}, "averageDailyFlights": 0.14, "operators": [{"name": "interCaribbean Airways", "iata": "JY", "icao": "IWY"}]}]}