{"routes": [{"destination": {"icao": "MTPP", "iata": "PAP", "name": "Port-au-Prince Toussaint Louverture", "shortName": "Toussaint Louverture", "municipalityName": "Port-au-Prince", "location": {"lat": 18.58, "lon": -72.2925}, "countryCode": "HT"}, "averageDailyFlights": 2.86, "operators": [{"name": "Sunrise Airways", "iata": "S6", "icao": "KSZ"}, {"name": "Euroairlines", "iata": "Q4", "icao": "ELE"}]}, {"destination": {"icao": "TNCA", "iata": "AUA", "name": "Oranjestad Queen Beatrix", "shortName": "Queen Beatrix", "municipalityName": "Oranjestad", "location": {"lat": 12.501399, "lon": -70.0152}, "countryCode": "AW"}, "averageDailyFlights": 0.57, "operators": [{"name": "Euroairlines", "iata": "Q4", "icao": "ELE"}]}, {"destination": {"icao": "TNCM", "iata": "SXM", "name": "Saint Martin Princess Juliana", "shortName": "Princess Juliana", "municipalityName": "Saint Martin", "location": {"lat": 18.041, "lon": -63.1089}, "countryCode": "SX"}, "averageDailyFlights": 0.43, "operators": [{"name": "Euroairlines", "iata": "Q4", "icao": "ELE"}]}, {"destination": {"icao": "TNCC", "iata": "CUR", "name": "Willemstad Hato", "shortName": "Hato", "municipalityName": "Willemstad", "location": {"lat": 12.188899, "lon": -68.9598}, "countryCode": "CW"}, "averageDailyFlights": 0.43, "operators": [{"name": "Euroairlines", "iata": "Q4", "icao": "ELE"}]}, {"destination": {"name": "Havana"}, "averageDailyFlights": 0.43, "operators": [{"name": "Euroairlines", "iata": "Q4", "icao": "ELE"}]}, {"destination": {"icao": "SKCG", "iata": "CTG", "name": "Cartagena de Indias Rafael Nu\u00f1ez", "shortName": "Rafael Nu\u00f1ez", "municipalityName": "Cartagena de Indias", "location": {"lat": 10.4424, "lon": -75.513}, "countryCode": "CO"}, "averageDailyFlights": 0.29, "operators": [{"name": "Euroairlines", "iata": "Q4", "icao": "ELE"}]}, {"destination": {"icao": "MUCU", "iata": "SCU", "name": "Santiago Antonio Maceo", "shortName": "Antonio Maceo", "municipalityName": "Santiago", "location": {"lat": 19.9698, "lon": -75.8354}, "countryCode": "CU"}, "averageDailyFlights": 0.29, "operators": [{"name": "Euroairlines", "iata": "Q4", "icao": "ELE"}]}, {"destination": {"icao": "MBPV", "iata": "PLS", "name": "Providenciales Island Providenciales", "shortName": "Providenciales", "municipalityName": "Providenciales Island", "location": {"lat": 21.7736, "lon": -72.2659}, "countryCode": "TC"}, "averageDailyFlights": 0.14, "operators": [{"name": "Papillon Airways", "iata": "HI"}]}, {"destination": {"icao": "KPIE", "iata": "PIE", "name": "St Petersburg-Clearwater St Petersburg Clearwater", "shortName": "St Petersburg Clearwater", "municipalityName": "St Petersburg-Clearwater", "location": {"lat": 27.9102, "lon": -82.6874}, "countryCode": "US"}, "averageDailyFlights": 0.14, "operators": [{"name": "ELZ"}]}]}