{"routes": [{"destination": {"icao": "OERK", "iata": "RUH", "name": "Riyadh King Khaled", "shortName": "King Khaled", "municipalityName": "Riyadh", "location": {"lat": 24.9576, "lon": 46.6988}, "countryCode": "SA"}, "averageDailyFlights": 63.57, "operators": [{"name": "flyadeal", "iata": "F3", "icao": "FAD"}, {"name": "flynas", "iata": "XY", "icao": "KNE"}, {"name": "Saudi Arabian Airlines", "iata": "SV", "icao": "SVA"}]}, {"destination": {"icao": "HECA", "iata": "CAI", "name": "Cairo ", "shortName": "Cairo", "municipalityName": "Cairo", "location": {"lat": 30.1219, "lon": 31.4056}, "countryCode": "EG"}, "averageDailyFlights": 30.95, "operators": [{"name": "EgyptAir", "iata": "MS", "icao": "MSR"}, {"name": "Saudi Arabian Airlines", "iata": "SV", "icao": "SVA"}, {"name": "Air Cairo", "iata": "SM", "icao": "MSC"}, {"name": "FlyEgypt", "iata": "FT", "icao": "FEG"}, {"name": "Air Arabia Egypt", "iata": "E5", "icao": "RBG"}, {"name": "flyadeal", "iata": "F3", "icao": "FAD"}, {"name": "Nile Air", "iata": "NP", "icao": "NIA"}, {"name": "Nesma Airlines", "iata": "NE", "icao": "NMA"}, {"name": "flynas", "iata": "XY", "icao": "KNE"}]}, {"destination": {"icao": "OEDF", "iata": "DMM", "name": "Ad Dammam King Fahd", "shortName": "King Fahd", "municipalityName": "Ad Dammam", "location": {"lat": 26.4712, "lon": 49.7979}, "countryCode": "SA"}, "averageDailyFlights": 23.01, "operators": [{"name": "Saudi Arabian Airlines", "iata": "SV", "icao": "SVA"}, {"name": "flynas", "iata": "XY", "icao": "KNE"}, {"name": "flyadeal", "iata": "F3", "icao": "FAD"}, {"name": "Turkish Airlines", "iata": "TK", "icao": "THY"}]}, {"destination": {"icao": "OMDB", "iata": "DXB", "name": "Dubai ", "shortName": "Dubai", "municipalityName": "Dubai", "location": {"lat": 25.252798, "lon": 55.3644}, "countryCode": "AE"}, "averageDailyFlights": 18.86, "operators": [{"name": "Saudi Arabian Airlines", "iata": "SV", "icao": "SVA"}, {"name": "flydubai", "iata": "FZ", "icao": "FDB"}, {"name": "Emirates", "iata": "EK", "icao": "UAE"}, {"name": "flynas", "iata": "XY", "icao": "KNE"}]}, {"destination": {"icao": "OEAB", "iata": "AHB", "name": "Abha Regional", "shortName": "Regional", "municipalityName": "Abha", "location": {"lat": 18.2404, "lon": 42.6566}, "countryCode": "SA"}, "averageDailyFlights": 15.71, "operators": [{"name": "Saudi Arabian Airlines", "iata": "SV", "icao": "SVA"}, {"name": "flyadeal", "iata": "F3", "icao": "FAD"}, {"name": "flynas", "iata": "XY", "icao": "KNE"}]}, {"destination": {"icao": "OKBK", "iata": "KWI", "name": "Kuwait City Kuwait", "shortName": "Kuwait", "municipalityName": "Kuwait City", "location": {"lat": 29.2266, "lon": 47.9689}, "countryCode": "KW"}, "averageDailyFlights": 13.29, "operators": [{"name": "Kuwait Airways", "iata": "KU", "icao": "KAC"}, {"name": "Jazeera Airways", "iata": "J9", "icao": "JZR"}, {"name": "Saudi Arabian Airlines", "iata": "SV", "icao": "SVA"}]}, {"destination": {"icao": "OEGN", "iata": "GIZ", "name": "Jazan Jizan Regional", "shortName": "Jizan Regional", "municipalityName": "Jazan", "location": {"lat": 16.9011, "lon": 42.5858}, "countryCode": "SA"}, "averageDailyFlights": 11.43, "operators": [{"name": "Saudi Arabian Airlines", "iata": "SV", "icao": "SVA"}, {"name": "flynas", "iata": "XY", "icao": "KNE"}, {"name": "flyadeal", "iata": "F3", "icao": "FAD"}]}, {"destination": {"icao": "OTHH", "iata": "DOH", "name": "Doha Hamad", "shortName": "Hamad", "municipalityName": "Doha", "location": {"lat": 25.273056, "lon": 51.608055}, "countryCode": "QA"}, "averageDailyFlights": 8.71, "operators": [{"name": "Saudi Arabian Airlines", "iata": "SV", "icao": "SVA"}, {"name": "Qatar Airways", "iata": "QR", "icao": "QTR"}, {"name": "flynas", "iata": "XY", "icao": "KNE"}]}, {"destination": {"icao": "OJAI", "iata": "AMM", "name": "Amman Queen Alia", "shortName": "Queen Alia", "municipalityName": "Amman", "location": {"lat": 31.7226, "lon": 35.9932}, "countryCode": "JO"}, "averageDailyFlights": 7.71, "operators": [{"name": "Saudi Arabian Airlines", "iata": "SV", "icao": "SVA"}, {"name": "Royal Jordanian", "iata": "RJ", "icao": "RJA"}, {"name": "flynas", "iata": "XY", "icao": "KNE"}, {"name": "Jordan Aviation Airlines", "iata": "R5", "icao": "JAV"}]}, {"destination": {"icao": "WMKK", "iata": "KUL", "name": "Kuala Lumpur ", "shortName": "Kuala Lumpur", "municipalityName": "Kuala Lumpur", "location": {"lat": 2.745579, "lon": 101.71}, "countryCode": "MY"}, "averageDailyFlights": 7.29, "operators": [{"name": "Malaysia Airlines", "iata": "MH", "icao": "MAS"}, {"name": "Saudi Arabian Airlines", "iata": "SV", "icao": "SVA"}, {"name": "AirAsia X", "iata": "D7", "icao": "XAX"}, {"name": "Malindo Air", "iata": "OD", "icao": "MXD"}]}, {"destination": {"icao": "HEBA", "iata": "HBE", "name": "Alexandria Borg El Arab", "shortName": "Borg El Arab", "municipalityName": "Alexandria", "location": {"lat": 30.9177, "lon": 29.6964}, "countryCode": "EG"}, "averageDailyFlights": 6.14, "operators": [{"name": "Saudi Arabian Airlines", "iata": "SV", "icao": "SVA"}, {"name": "Air Arabia Egypt", "iata": "E5", "icao": "RBG"}, {"name": "Air Cairo", "iata": "SM", "icao": "MSC"}, {"name": "EgyptAir", "iata": "MS", "icao": "MSR"}]}, {"destination": {"icao": "WIII", "iata": "CGK", "name": "Jakarta Soekarno-Hatta", "shortName": "Soekarno-Hatta", "municipalityName": "Jakarta", "location": {"lat": -6.125569, "lon": 106.656}, "countryCode": "ID"}, "averageDailyFlights": 6.14, "operators": [{"name": "Saudi Arabian Airlines", "iata": "SV", "icao": "SVA"}, {"name": "Lion Air", "iata": "JT", "icao": "LNI"}, {"name": "Garuda Indonesia", "iata": "GA", "icao": "GIA"}]}, {"destination": {"icao": "OEMA", "iata": "MED", "name": "Medina Prince Mohammad Bin Abdulaziz", "shortName": "Prince Mohammad Bin Abdulaziz", "municipalityName": "Medina", "location": {"lat": 24.5534, "lon": 39.7051}, "countryCode": "SA"}, "averageDailyFlights": 5.71, "operators": [{"name": "Saudi Arabian Airlines", "iata": "SV", "icao": "SVA"}]}, {"destination": {"icao": "OOMS", "iata": "MCT", "name": "Muscat ", "shortName": "Muscat", "municipalityName": "Muscat", "location": {"lat": 23.5933, "lon": 58.2844}, "countryCode": "OM"}, "averageDailyFlights": 5.71, "operators": [{"name": "Oman Air", "iata": "WY", "icao": "OMA"}, {"name": "SalamAir", "iata": "OV", "icao": "OMS"}]}, {"destination": {"icao": "OMSJ", "iata": "SHJ", "name": "Sharjah ", "shortName": "Sharjah", "municipalityName": "Sharjah", "location": {"lat": 25.3286, "lon": 55.5172}, "countryCode": "AE"}, "averageDailyFlights": 5.71, "operators": [{"name": "Air Arabia", "iata": "G9", "icao": "ABY"}]}, {"destination": {"icao": "OPKC", "iata": "KHI", "name": "Karanchi Jinnah", "shortName": "Jinnah", "municipalityName": "Karanchi", "location": {"lat": 24.9065, "lon": 67.1608}, "countryCode": "PK"}, "averageDailyFlights": 5.57, "operators": [{"name": "Pakistan International Airlines", "iata": "PK", "icao": "PIA"}, {"name": "Saudi Arabian Airlines", "iata": "SV", "icao": "SVA"}, {"name": "Serene Air", "iata": "ER", "icao": "SEP"}, {"name": "Airblue", "iata": "PA", "icao": "ABQ"}, {"name": "Air Sial", "iata": "PF"}, {"name": "flynas", "iata": "XY", "icao": "KNE"}]}, {"destination": {"icao": "OBBI", "iata": "BAH", "name": "Manama Bahrain", "shortName": "Bahrain", "municipalityName": "Manama", "location": {"lat": 26.2708, "lon": 50.6336}, "countryCode": "BH"}, "averageDailyFlights": 5.57, "operators": [{"name": "Gulf Air", "iata": "GF", "icao": "GFA"}, {"name": "flynas", "iata": "XY", "icao": "KNE"}, {"name": "Saudi Arabian Airlines", "iata": "SV", "icao": "SVA"}]}, {"destination": {"icao": "OPLA", "iata": "LHE", "name": "Lahore Alama Iqbal", "shortName": "Alama Iqbal", "municipalityName": "Lahore", "location": {"lat": 31.5216, "lon": 74.4036}, "countryCode": "PK"}, "averageDailyFlights": 5.43, "operators": [{"name": "Saudi Arabian Airlines", "iata": "SV", "icao": "SVA"}, {"name": "Airblue", "iata": "PA", "icao": "ABQ"}, {"name": "Air Sial", "iata": "PF"}, {"name": "Pakistan International Airlines", "iata": "PK", "icao": "PIA"}, {"name": "Serene Air", "iata": "ER", "icao": "SEP"}]}, {"destination": {"icao": "VABB", "iata": "BOM", "name": "Mumbai Chhatrapati Shivaji", "shortName": "Chhatrapati Shivaji", "municipalityName": "Mumbai", "location": {"lat": 19.0887, "lon": 72.8679}, "countryCode": "IN"}, "averageDailyFlights": 5.29, "operators": [{"name": "Saudi Arabian Airlines", "iata": "SV", "icao": "SVA"}, {"name": "flynas", "iata": "XY", "icao": "KNE"}, {"name": "IndiGo", "iata": "6E", "icao": "IGO"}, {"name": "Vistara", "iata": "UK", "icao": "VTI"}, {"name": "Air India", "iata": "AI", "icao": "AIC"}, {"name": "SpiceJet", "iata": "SG", "icao": "SEJ"}]}, {"destination": {"icao": "OPIS", "iata": "ISB", "name": "Islamabad ", "shortName": "Islamabad", "municipalityName": "Islamabad", "location": {"lat": 33.549, "lon": 72.82566}, "countryCode": "PK"}, "averageDailyFlights": 4.71, "operators": [{"name": "Saudi Arabian Airlines", "iata": "SV", "icao": "SVA"}, {"name": "Airblue", "iata": "PA", "icao": "ABQ"}, {"name": "Air Sial", "iata": "PF"}, {"name": "Pakistan International Airlines", "iata": "PK", "icao": "PIA"}, {"name": "Serene Air", "iata": "ER", "icao": "SEP"}]}, {"destination": {"icao": "OMAA", "iata": "AUH", "name": "Abu Dhabi Island and Internal Islands City Abu Dhabi", "shortName": "Abu Dhabi", "municipalityName": "Abu Dhabi Island and Internal Islands City", "location": {"lat": 24.433, "lon": 54.6511}, "countryCode": "AE"}, "averageDailyFlights": 4.43, "operators": [{"name": "Etihad Airways", "iata": "EY", "icao": "ETD"}, {"name": "Saudi Arabian Airlines", "iata": "SV", "icao": "SVA"}]}, {"destination": {"icao": "LTFJ", "iata": "SAW", "name": "Istanbul Sabiha G\u00f6k\u00e7en", "shortName": "Sabiha G\u00f6k\u00e7en", "municipalityName": "Istanbul", "location": {"lat": 40.8986, "lon": 29.3092}, "countryCode": "TR"}, "averageDailyFlights": 4.41, "operators": [{"name": "Pegasus", "iata": "PC", "icao": "PGT"}, {"name": "flynas", "iata": "XY", "icao": "KNE"}, {"name": "Turkish Airlines", "iata": "TK", "icao": "THY"}, {"name": "Saudi Arabian Airlines", "iata": "SV", "icao": "SVA"}, {"name": "flyadeal", "iata": "F3", "icao": "FAD"}]}, {"destination": {"icao": "VIDP", "iata": "DEL", "name": "New Delhi Indira Gandhi", "shortName": "Indira Gandhi", "municipalityName": "New Delhi", "location": {"lat": 28.5665, "lon": 77.1031}, "countryCode": "IN"}, "averageDailyFlights": 4.14, "operators": [{"name": "Saudi Arabian Airlines", "iata": "SV", "icao": "SVA"}, {"name": "IndiGo", "iata": "6E", "icao": "IGO"}, {"name": "SpiceJet", "iata": "SG", "icao": "SEJ"}, {"name": "Air India", "iata": "AI", "icao": "AIC"}]}, {"destination": {"icao": "UTTT", "iata": "TAS", "localCode": "\u0422\u0410\u0421", "name": "Tashkent ", "shortName": "Tashkent", "municipalityName": "Tashkent", "location": {"lat": 41.2579, "lon": 69.2812}, "countryCode": "UZ"}, "averageDailyFlights": 3.71, "operators": [{"name": "Taban Airlines", "iata": "HH", "icao": "TBN"}, {"name": "flynas", "iata": "XY", "icao": "KNE"}, {"name": "Uzbekistan Airways", "iata": "HY", "icao": "UZB"}]}, {"destination": {"icao": "VOCL", "iata": "CCJ", "name": "Calicut ", "shortName": "Calicut", "municipalityName": "Calicut", "location": {"lat": 11.136799, "lon": 75.9553}, "countryCode": "IN"}, "averageDailyFlights": 3.43, "operators": [{"name": "Air India Express", "iata": "IX", "icao": "AXB"}, {"name": "IndiGo", "iata": "6E", "icao": "IGO"}, {"name": "SpiceJet", "iata": "SG", "icao": "SEJ"}]}, {"destination": {"icao": "GMMN", "iata": "CMN", "name": "Casablanca Mohammed V", "shortName": "Mohammed V", "municipalityName": "Casablanca", "location": {"lat": 33.3675, "lon": -7.58997}, "countryCode": "MA"}, "averageDailyFlights": 3.43, "operators": [{"name": "Saudi Arabian Airlines", "iata": "SV", "icao": "SVA"}, {"name": "Royal Air Maroc", "iata": "AT", "icao": "RAM"}, {"name": "flynas", "iata": "XY", "icao": "KNE"}]}, {"destination": {"icao": "DAAG", "iata": "ALG", "name": "Algiers Houari Boumediene", "shortName": "Houari Boumediene", "municipalityName": "Algiers", "location": {"lat": 36.691, "lon": 3.215409}, "countryCode": "DZ"}, "averageDailyFlights": 3.14, "operators": [{"name": "Saudi Arabian Airlines", "iata": "SV", "icao": "SVA"}, {"name": "flynas", "iata": "XY", "icao": "KNE"}, {"name": "Air Algerie", "iata": "AH", "icao": "DAH"}]}, {"destination": {"icao": "VOHS", "iata": "HYD", "name": "Hyderabad Rajiv Gandhi", "shortName": "Rajiv Gandhi", "municipalityName": "Hyderabad", "location": {"lat": 17.231318, "lon": 78.429855}, "countryCode": "IN"}, "averageDailyFlights": 3.14, "operators": [{"name": "Saudi Arabian Airlines", "iata": "SV", "icao": "SVA"}, {"name": "Air India", "iata": "AI", "icao": "AIC"}, {"name": "IndiGo", "iata": "6E", "icao": "IGO"}]}, {"destination": {"icao": "OPMT", "iata": "MUX", "name": "Multan ", "shortName": "Multan", "municipalityName": "Multan", "location": {"lat": 30.2032, "lon": 71.4191}, "countryCode": "PK"}, "averageDailyFlights": 3.0, "operators": [{"name": "Airblue", "iata": "PA", "icao": "ABQ"}, {"name": "Air Sial", "iata": "PF"}, {"name": "Pakistan International Airlines", "iata": "PK", "icao": "PIA"}, {"name": "Saudi Arabian Airlines", "iata": "SV", "icao": "SVA"}]}, {"destination": {"icao": "DTTA", "iata": "TUN", "name": "Tunis Carthage", "shortName": "Carthage", "municipalityName": "Tunis", "location": {"lat": 36.851, "lon": 10.227199}, "countryCode": "TN"}, "averageDailyFlights": 2.71, "operators": [{"name": "Tunisair", "iata": "TU", "icao": "TAR"}, {"name": "Saudi Arabian Airlines", "iata": "SV", "icao": "SVA"}, {"name": "Nouvelair Tunisie", "iata": "BJ", "icao": "LBT"}]}, {"destination": {"icao": "HEMK", "iata": "HMB", "name": "Sohag ", "shortName": "Sohag", "municipalityName": "Sohag", "location": {"lat": 26.342777, "lon": 31.742777}, "countryCode": "EG"}, "averageDailyFlights": 2.43, "operators": [{"name": "Air Cairo", "iata": "SM", "icao": "MSC"}, {"name": "flynas", "iata": "XY", "icao": "KNE"}, {"name": "Nesma Airlines", "iata": "NE", "icao": "NMA"}]}, {"destination": {"icao": "HAAB", "iata": "ADD", "name": "Addis Ababa Bole", "shortName": "Bole", "municipalityName": "Addis Ababa", "location": {"lat": 8.97789, "lon": 38.7993}, "countryCode": "ET"}, "averageDailyFlights": 2.29, "operators": [{"name": "Ethiopian Airlines", "iata": "ET", "icao": "ETH"}, {"name": "Saudi Arabian Airlines", "iata": "SV", "icao": "SVA"}, {"name": "flynas", "iata": "XY", "icao": "KNE"}]}, {"destination": {"icao": "HSPN", "iata": "PZU", "name": "Port Sudan New", "shortName": "New", "municipalityName": "Port Sudan", "location": {"lat": 19.4336, "lon": 37.2341}, "countryCode": "SD"}, "averageDailyFlights": 2.29, "operators": [{"name": "Tarco Aviation", "iata": "3T", "icao": "TRQ"}]}, {"destination": {"icao": "LTAC", "iata": "ESB", "name": "Ankara Esenbo\u011fa", "shortName": "Esenbo\u011fa", "municipalityName": "Ankara", "location": {"lat": 40.1281, "lon": 32.9951}, "countryCode": "TR"}, "averageDailyFlights": 2.01, "operators": [{"name": "Saudi Arabian Airlines", "iata": "SV", "icao": "SVA"}, {"name": "Turkish Airlines", "iata": "TK", "icao": "THY"}, {"name": "Pegasus", "iata": "PC", "icao": "PGT"}, {"name": "flynas", "iata": "XY", "icao": "KNE"}]}, {"destination": {"icao": "WARR", "iata": "SUB", "name": "Surabaya Juanda", "shortName": "Juanda", "municipalityName": "Surabaya", "location": {"lat": -7.379829, "lon": 112.787}, "countryCode": "ID"}, "averageDailyFlights": 2.0, "operators": [{"name": "Lion Air", "iata": "JT", "icao": "LNI"}]}, {"destination": {"icao": "VTBS", "iata": "BKK", "name": "Bangkok Suvarnabhumi", "shortName": "Suvarnabhumi", "municipalityName": "Bangkok", "location": {"lat": 13.681099, "lon": 100.747}, "countryCode": "TH"}, "averageDailyFlights": 1.71, "operators": [{"name": "Saudi Arabian Airlines", "iata": "SV", "icao": "SVA"}, {"name": "Thai Airways International", "iata": "TG", "icao": "THA"}]}, {"destination": {"icao": "LIMC", "iata": "MXP", "name": "Milan Malpensa", "shortName": "Malpensa", "municipalityName": "Milan", "location": {"lat": 45.6306, "lon": 8.72811}, "countryCode": "IT"}, "averageDailyFlights": 1.71, "operators": [{"name": "Wizz Air Malta", "iata": "W4", "icao": "WMT"}, {"name": "Saudi Arabian Airlines", "iata": "SV", "icao": "SVA"}]}, {"destination": {"icao": "HEAT", "iata": "ATZ", "name": "Assiut ", "shortName": "Assiut", "municipalityName": "Assiut", "location": {"lat": 27.0465, "lon": 31.012}, "countryCode": "EG"}, "averageDailyFlights": 1.57, "operators": [{"name": "Air Cairo", "iata": "SM", "icao": "MSC"}]}, {"destination": {"icao": "OLBA", "iata": "BEY", "name": "Beirut Rafic Hariri", "shortName": "Rafic Hariri", "municipalityName": "Beirut", "location": {"lat": 33.8209, "lon": 35.4884}, "countryCode": "LB"}, "averageDailyFlights": 1.57, "operators": [{"name": "Middle East Airlines", "iata": "ME", "icao": "MEA"}]}, {"destination": {"icao": "HELX", "iata": "LXR", "name": "Luxor ", "shortName": "Luxor", "municipalityName": "Luxor", "location": {"lat": 25.671, "lon": 32.7066}, "countryCode": "EG"}, "averageDailyFlights": 1.57, "operators": [{"name": "Nesma Airlines", "iata": "NE", "icao": "NMA"}, {"name": "Air Cairo", "iata": "SM", "icao": "MSC"}, {"name": "Nile Air", "iata": "NP", "icao": "NIA"}, {"name": "Saudi Arabian Airlines", "iata": "SV", "icao": "SVA"}]}, {"destination": {"icao": "OPPS", "iata": "PEW", "name": "Peshawar ", "shortName": "Peshawar", "municipalityName": "Peshawar", "location": {"lat": 33.9939, "lon": 71.5146}, "countryCode": "PK"}, "averageDailyFlights": 1.57, "operators": [{"name": "Saudi Arabian Airlines", "iata": "SV", "icao": "SVA"}, {"name": "Pakistan International Airlines", "iata": "PK", "icao": "PIA"}, {"name": "Serene Air", "iata": "ER", "icao": "SEP"}]}, {"destination": {"icao": "VAAH", "iata": "AMD", "name": "Ahmedabad Sardar Vallabhbhai Patel", "shortName": "Sardar Vallabhbhai Patel", "municipalityName": "Ahmedabad", "location": {"lat": 23.0772, "lon": 72.6347}, "countryCode": "IN"}, "averageDailyFlights": 1.29, "operators": [{"name": "IndiGo", "iata": "6E", "icao": "IGO"}, {"name": "SpiceJet", "iata": "SG", "icao": "SEJ"}]}, {"destination": {"icao": "UTFN", "iata": "NMA", "localCode": "\u041d\u041c\u0413", "name": "Namangan ", "shortName": "Namangan", "municipalityName": "Namangan", "location": {"lat": 40.9846, "lon": 71.5567}, "countryCode": "UZ"}, "averageDailyFlights": 1.29, "operators": [{"name": "flynas", "iata": "XY", "icao": "KNE"}, {"name": "Taban Airlines", "iata": "HH", "icao": "TBN"}]}, {"destination": {"icao": "LIRF", "iata": "FCO", "name": "Rome Leonardo da Vinci\u2013Fiumicino", "shortName": "Leonardo da Vinci\u2013Fiumicino", "municipalityName": "Rome", "location": {"lat": 41.8045, "lon": 12.2508}, "countryCode": "IT"}, "averageDailyFlights": 1.29, "operators": [{"name": "Wizz Air Malta", "iata": "W4", "icao": "WMT"}, {"name": "Saudi Arabian Airlines", "iata": "SV", "icao": "SVA"}]}, {"destination": {"icao": "OESK", "iata": "AJF", "name": "Al-Jawf Domestic", "shortName": "Domestic", "municipalityName": "Al-Jawf", "location": {"lat": 29.7851, "lon": 40.1}, "countryCode": "SA"}, "averageDailyFlights": 1.14, "operators": [{"name": "Saudi Arabian Airlines", "iata": "SV", "icao": "SVA"}]}, {"destination": {"icao": "UAAA", "iata": "ALA", "localCode": "\u0410\u041b\u0410", "name": "Almaty ", "shortName": "Almaty", "municipalityName": "Almaty", "location": {"lat": 43.3521, "lon": 77.0405}, "countryCode": "KZ"}, "averageDailyFlights": 1.14, "operators": [{"name": "Air Astana", "iata": "KC", "icao": "KZR"}, {"name": "SCAT Airlines", "iata": "DV", "icao": "VSV"}, {"name": "flynas", "iata": "XY", "icao": "KNE"}]}, {"destination": {"icao": "UBBB", "iata": "GYD", "localCode": "\u0411\u0410\u041a", "name": "Baku Heydar Aliyev", "shortName": "Heydar Aliyev", "municipalityName": "Baku", "location": {"lat": 40.4675, "lon": 50.0467}, "countryCode": "AZ"}, "averageDailyFlights": 1.14, "operators": [{"name": "AZAL Azerbaijan Airlines", "iata": "J2", "icao": "AHY"}, {"name": "flynas", "iata": "XY", "icao": "KNE"}]}, {"destination": {"icao": "DABC", "iata": "CZL", "name": "Constantine Mohamed Boudiaf", "shortName": "Mohamed Boudiaf", "municipalityName": "Constantine", "location": {"lat": 36.276, "lon": 6.620389}, "countryCode": "DZ"}, "averageDailyFlights": 1.14, "operators": [{"name": "Air Algerie", "iata": "AH", "icao": "DAH"}, {"name": "flynas", "iata": "XY", "icao": "KNE"}, {"name": "Saudi Arabian Airlines", "iata": "SV", "icao": "SVA"}]}, {"destination": {"icao": "RPLL", "iata": "MNL", "name": "Manila Ninoy Aquino", "shortName": "Ninoy Aquino", "municipalityName": "Manila", "location": {"lat": 14.5086, "lon": 121.02}, "countryCode": "PH"}, "averageDailyFlights": 1.14, "operators": [{"name": "Saudi Arabian Airlines", "iata": "SV", "icao": "SVA"}]}, {"destination": {"icao": "LFPG", "iata": "CDG", "name": "Paris Charles de Gaulle", "shortName": "Charles de Gaulle", "municipalityName": "Paris", "location": {"lat": 49.0128, "lon": 2.549999}, "countryCode": "FR"}, "averageDailyFlights": 1.14, "operators": [{"name": "Saudi Arabian Airlines", "iata": "SV", "icao": "SVA"}]}, {"destination": {"name": "Neom Bay Airport"}, "averageDailyFlights": 1.14, "operators": [{"name": "Saudi Arabian Airlines", "iata": "SV", "icao": "SVA"}]}, {"destination": {"icao": "WSSS", "iata": "SIN", "name": "Singapore Changi", "shortName": "Changi", "municipalityName": "Singapore", "location": {"lat": 1.35019, "lon": 103.994}, "countryCode": "SG"}, "averageDailyFlights": 1.04, "operators": [{"name": "Saudi Arabian Airlines", "iata": "SV", "icao": "SVA"}, {"name": "Scoot", "iata": "TR", "icao": "TGW"}]}, {"destination": {"icao": "OEAO", "iata": "ULH", "name": "Al Ula Majeed Bin Abdulaziz", "shortName": "Majeed Bin Abdulaziz", "municipalityName": "Al Ula", "location": {"lat": 26.48, "lon": 38.128887}, "countryCode": "SA"}, "averageDailyFlights": 1.0, "operators": [{"name": "Saudi Arabian Airlines", "iata": "SV", "icao": "SVA"}]}, {"destination": {"icao": "OAKB", "iata": "KBL", "name": "Kabul ", "shortName": "Kabul", "municipalityName": "Kabul", "location": {"lat": 34.5659, "lon": 69.2123}, "countryCode": "AF"}, "averageDailyFlights": 1.0, "operators": [{"name": "Kam Air", "iata": "RQ", "icao": "KMF"}, {"name": "Ariana Afghan Airlines", "iata": "FG", "icao": "AFG"}]}, {"destination": {"icao": "OIIE", "iata": "IKA", "name": "Tehran Imam Khomeini", "shortName": "Imam Khomeini", "municipalityName": "Tehran", "location": {"lat": 35.4161, "lon": 51.1522}, "countryCode": "IR"}, "averageDailyFlights": 1.0, "operators": [{"name": "Iran Air", "iata": "IR", "icao": "IRA"}]}, {"destination": {"icao": "WAAA", "iata": "UPG", "name": "Ujung Pandang-Celebes Island Hasanuddin", "shortName": "Hasanuddin", "municipalityName": "Ujung Pandang-Celebes Island", "location": {"lat": -5.061629, "lon": 119.554}, "countryCode": "ID"}, "averageDailyFlights": 1.0, "operators": [{"name": "Lion Air", "iata": "JT", "icao": "LNI"}]}, {"destination": {"icao": "LOWW", "iata": "VIE", "name": "Vienna Schwechat", "shortName": "Schwechat", "municipalityName": "Vienna", "location": {"lat": 48.1103, "lon": 16.5697}, "countryCode": "AT"}, "averageDailyFlights": 1.0, "operators": [{"name": "Wizz Air Malta", "iata": "W4", "icao": "WMT"}, {"name": "Saudi Arabian Airlines", "iata": "SV", "icao": "SVA"}]}, {"destination": {"icao": "DNKN", "iata": "KAN", "name": "Kano Mallam Aminu", "shortName": "Mallam Aminu", "municipalityName": "Kano", "location": {"lat": 12.047599, "lon": 8.52462}, "countryCode": "NG"}, "averageDailyFlights": 0.86, "operators": [{"name": "Air Peace", "iata": "P4", "icao": "APK"}, {"name": "Saudi Arabian Airlines", "iata": "SV", "icao": "SVA"}]}, {"destination": {"icao": "VOCI", "iata": "COK", "name": "Kochi Cochin", "shortName": "Cochin", "municipalityName": "Kochi", "location": {"lat": 10.152, "lon": 76.4019}, "countryCode": "IN"}, "averageDailyFlights": 0.86, "operators": [{"name": "Saudi Arabian Airlines", "iata": "SV", "icao": "SVA"}]}, {"destination": {"icao": "UCFO", "iata": "OSS", "localCode": "\u041e\u0428\u0428", "name": "Osh ", "shortName": "Osh", "municipalityName": "Osh", "location": {"lat": 40.609, "lon": 72.7933}, "countryCode": "KG"}, "averageDailyFlights": 0.86, "operators": [{"name": "flynas", "iata": "XY", "icao": "KNE"}]}, {"destination": {"icao": "VGHS", "iata": "DAC", "name": "Dhaka Hazrat Shahjalal", "shortName": "Hazrat Shahjalal", "municipalityName": "Dhaka", "location": {"lat": 23.843348, "lon": 90.39778}, "countryCode": "BD"}, "averageDailyFlights": 0.74, "operators": [{"name": "Biman Bangladesh Airlines", "iata": "BG", "icao": "BBC"}, {"name": "Saudi Arabian Airlines", "iata": "SV", "icao": "SVA"}]}, {"destination": {"icao": "OEPA", "iata": "AQI", "name": "Al Qaysumah Qaisumah Domestic", "shortName": "Qaisumah Domestic", "municipalityName": "Al Qaysumah", "location": {"lat": 28.3352, "lon": 46.1251}, "countryCode": "SA"}, "averageDailyFlights": 0.71, "operators": [{"name": "Saudi Arabian Airlines", "iata": "SV", "icao": "SVA"}]}, {"destination": {"icao": "VOBL", "iata": "BLR", "name": "Bangalore Bengaluru", "shortName": "Bengaluru", "municipalityName": "Bangalore", "location": {"lat": 13.197899, "lon": 77.7063}, "countryCode": "IN"}, "averageDailyFlights": 0.71, "operators": [{"name": "Saudi Arabian Airlines", "iata": "SV", "icao": "SVA"}]}, {"destination": {"icao": "LTBR", "iata": "YEI", "name": "Bursa Yeni\u015fehir", "shortName": "Yeni\u015fehir", "municipalityName": "Bursa", "location": {"lat": 40.2552, "lon": 29.5626}, "countryCode": "TR"}, "averageDailyFlights": 0.71, "operators": [{"name": "Turkish Airlines", "iata": "TK", "icao": "THY"}]}, {"destination": {"icao": "HTDA", "iata": "DAR", "name": "Dar es Salaam Julius Nyerere", "shortName": "Julius Nyerere", "municipalityName": "Dar es Salaam", "location": {"lat": -6.878109, "lon": 39.2026}, "countryCode": "TZ"}, "averageDailyFlights": 0.71, "operators": [{"name": "Saudi Arabian Airlines", "iata": "SV", "icao": "SVA"}]}, {"destination": {"icao": "EGCC", "iata": "MAN", "name": "Manchester ", "shortName": "Manchester", "municipalityName": "Manchester", "location": {"lat": 53.3537, "lon": -2.27495}, "countryCode": "GB"}, "averageDailyFlights": 0.71, "operators": [{"name": "Saudi Arabian Airlines", "iata": "SV", "icao": "SVA"}]}, {"destination": {"icao": "DAOO", "iata": "ORN", "name": "Oran Es Senia", "shortName": "Es Senia", "municipalityName": "Oran", "location": {"lat": 35.6239, "lon": -0.621182}, "countryCode": "DZ"}, "averageDailyFlights": 0.71, "operators": [{"name": "Saudi Arabian Airlines", "iata": "SV", "icao": "SVA"}, {"name": "Air Algerie", "iata": "AH", "icao": "DAH"}]}, {"destination": {"icao": "EHAM", "iata": "AMS", "name": "Amsterdam Schiphol", "shortName": "Schiphol", "municipalityName": "Amsterdam", "location": {"lat": 52.3086, "lon": 4.763889}, "countryCode": "NL"}, "averageDailyFlights": 0.57, "operators": [{"name": "Saudi Arabian Airlines", "iata": "SV", "icao": "SVA"}]}, {"destination": {"icao": "OERR", "iata": "RAE", "name": "Arar Domestic", "shortName": "Domestic", "municipalityName": "Arar", "location": {"lat": 30.9066, "lon": 41.1382}, "countryCode": "SA"}, "averageDailyFlights": 0.57, "operators": [{"name": "Saudi Arabian Airlines", "iata": "SV", "icao": "SVA"}]}, {"destination": {"icao": "VGEG", "iata": "CGP", "name": "Chittagong Shah Amanat", "shortName": "Shah Amanat", "municipalityName": "Chittagong", "location": {"lat": 22.2496, "lon": 91.8133}, "countryCode": "BD"}, "averageDailyFlights": 0.57, "operators": [{"name": "Biman Bangladesh Airlines", "iata": "BG", "icao": "BBC"}]}, {"destination": {"icao": "KIAD", "iata": "IAD", "name": "District of Columbia Washington Dulles", "shortName": "Washington Dulles", "municipalityName": "District of Columbia", "location": {"lat": 38.9445, "lon": -77.4558}, "countryCode": "US"}, "averageDailyFlights": 0.57, "operators": [{"name": "Saudi Arabian Airlines", "iata": "SV", "icao": "SVA"}]}, {"destination": {"icao": "LSGG", "iata": "GVA", "name": "Geneva Cointrin", "shortName": "Cointrin", "municipalityName": "Geneva", "location": {"lat": 46.2381, "lon": 6.10895}, "countryCode": "CH"}, "averageDailyFlights": 0.57, "operators": [{"name": "Saudi Arabian Airlines", "iata": "SV", "icao": "SVA"}]}, {"destination": {"icao": "VILK", "iata": "LKO", "name": "Lucknow Chaudhary Charan Singh", "shortName": "Chaudhary Charan Singh", "municipalityName": "Lucknow", "location": {"lat": 26.7606, "lon": 80.8893}, "countryCode": "IN"}, "averageDailyFlights": 0.57, "operators": [{"name": "Saudi Arabian Airlines", "iata": "SV", "icao": "SVA"}]}, {"destination": {"icao": "LEMD", "iata": "MAD", "name": "Madrid Adolfo Su\u00e1rez \u2013Barajas", "shortName": "Adolfo Su\u00e1rez \u2013Barajas", "municipalityName": "Madrid", "location": {"lat": 40.4936, "lon": -3.56676}, "countryCode": "ES"}, "averageDailyFlights": 0.57, "operators": [{"name": "Saudi Arabian Airlines", "iata": "SV", "icao": "SVA"}]}, {"destination": {"icao": "LFML", "iata": "MRS", "name": "Marseille Provence", "shortName": "Provence", "municipalityName": "Marseille", "location": {"lat": 43.43927, "lon": 5.221424}, "countryCode": "FR"}, "averageDailyFlights": 0.57, "operators": [{"name": "flynas", "iata": "XY", "icao": "KNE"}]}, {"destination": {"icao": "FIMP", "iata": "MRU", "name": "Port Louis Sir Seewoosagur Ramgoolam", "shortName": "Sir Seewoosagur Ramgoolam", "municipalityName": "Port Louis", "location": {"lat": -20.4302, "lon": 57.6836}, "countryCode": "MU"}, "averageDailyFlights": 0.57, "operators": [{"name": "Saudi Arabian Airlines", "iata": "SV", "icao": "SVA"}]}, {"destination": {"icao": "HESH", "iata": "SSH", "name": "Sharm el Sheikh ", "shortName": "Sharm el Sheikh", "municipalityName": "Sharm el Sheikh", "location": {"lat": 27.9773, "lon": 34.395}, "countryCode": "EG"}, "averageDailyFlights": 0.57, "operators": [{"name": "Saudi Arabian Airlines", "iata": "SV", "icao": "SVA"}]}, {"destination": {"icao": "HHAS", "iata": "ASM", "name": "Asmara ", "shortName": "Asmara", "municipalityName": "Asmara", "location": {"lat": 15.291899, "lon": 38.9107}, "countryCode": "ER"}, "averageDailyFlights": 0.43, "operators": [{"name": "flynas", "iata": "XY", "icao": "KNE"}]}, {"destination": {"icao": "EGBB", "iata": "BHX", "name": "Birmingham ", "shortName": "Birmingham", "municipalityName": "Birmingham", "location": {"lat": 52.4539, "lon": -1.748029}, "countryCode": "GB"}, "averageDailyFlights": 0.43, "operators": [{"name": "Saudi Arabian Airlines", "iata": "SV", "icao": "SVA"}]}, {"destination": {"icao": "UCFM", "iata": "FRU", "localCode": "\u0411\u0418\u0428", "name": "Bishkek Manas", "shortName": "Manas", "municipalityName": "Bishkek", "location": {"lat": 43.0613, "lon": 74.4776}, "countryCode": "KG"}, "averageDailyFlights": 0.43, "operators": [{"name": "flynas", "iata": "XY", "icao": "KNE"}]}, {"destination": {"icao": "EBBR", "iata": "BRU", "name": "Brussels ", "shortName": "Brussels", "municipalityName": "Brussels", "location": {"lat": 50.9014, "lon": 4.484439}, "countryCode": "BE"}, "averageDailyFlights": 0.43, "operators": [{"name": "flynas", "iata": "XY", "icao": "KNE"}]}, {"destination": {"icao": "VCBI", "iata": "CMB", "name": "Colombo Bandaranaike", "shortName": "Bandaranaike", "municipalityName": "Colombo", "location": {"lat": 7.180759, "lon": 79.8841}, "countryCode": "LK"}, "averageDailyFlights": 0.43, "operators": [{"name": "SriLankan Airlines", "iata": "UL", "icao": "ALK"}]}, {"destination": {"icao": "UTDD", "iata": "DYU", "localCode": "\u0414\u0428\u0411", "name": "Dushanbe ", "shortName": "Dushanbe", "municipalityName": "Dushanbe", "location": {"lat": 38.5433, "lon": 68.825}, "countryCode": "TJ"}, "averageDailyFlights": 0.43, "operators": [{"name": "Somon Air", "iata": "SZ", "icao": "SMR"}]}, {"destination": {"icao": "EDDF", "iata": "FRA", "name": "Frankfurt-am-Main ", "shortName": "Frankfurt-am-Main", "municipalityName": "Frankfurt-am-Main", "location": {"lat": 50.0264, "lon": 8.543129}, "countryCode": "DE"}, "averageDailyFlights": 0.43, "operators": [{"name": "Saudi Arabian Airlines", "iata": "SV", "icao": "SVA"}]}, {"destination": {"icao": "ZGGG", "iata": "CAN", "name": "Guangzhou Baiyun", "shortName": "Baiyun", "municipalityName": "Guangzhou", "location": {"lat": 23.3924, "lon": 113.299}, "countryCode": "CN"}, "averageDailyFlights": 0.43, "operators": [{"name": "Saudi Arabian Airlines", "iata": "SV", "icao": "SVA"}]}, {"destination": {"icao": "KLAX", "iata": "LAX", "name": "Los Angeles ", "shortName": "Los Angeles", "municipalityName": "Los Angeles", "location": {"lat": 33.9425, "lon": -118.408}, "countryCode": "US"}, "averageDailyFlights": 0.43, "operators": [{"name": "Saudi Arabian Airlines", "iata": "SV", "icao": "SVA"}]}, {"destination": {"icao": "EDDM", "iata": "MUC", "name": "Munich ", "shortName": "Munich", "municipalityName": "Munich", "location": {"lat": 48.3538, "lon": 11.7861}, "countryCode": "DE"}, "averageDailyFlights": 0.43, "operators": [{"name": "Saudi Arabian Airlines", "iata": "SV", "icao": "SVA"}]}, {"destination": {"icao": "KJFK", "iata": "JFK", "name": "New York John F Kennedy", "shortName": "John F Kennedy", "municipalityName": "New York", "location": {"lat": 40.6398, "lon": -73.7789}, "countryCode": "US"}, "averageDailyFlights": 0.43, "operators": [{"name": "Saudi Arabian Airlines", "iata": "SV", "icao": "SVA"}]}, {"destination": {"icao": "UTSS", "iata": "SKD", "localCode": "\u0421\u041a\u0414", "name": "Samarkand ", "shortName": "Samarkand", "municipalityName": "Samarkand", "location": {"lat": 39.7005, "lon": 66.9838}, "countryCode": "UZ"}, "averageDailyFlights": 0.43, "operators": [{"name": "Taban Airlines", "iata": "HH", "icao": "TBN"}]}, {"destination": {"icao": "CYYZ", "iata": "YYZ", "name": "Toronto Pearson", "shortName": "Pearson", "municipalityName": "Toronto", "location": {"lat": 43.6772, "lon": -79.6306}, "countryCode": "CA"}, "averageDailyFlights": 0.43, "operators": [{"name": "Saudi Arabian Airlines", "iata": "SV", "icao": "SVA"}]}, {"destination": {"name": "London"}, "averageDailyFlights": 0.43, "operators": [{"name": "Saudi Arabian Airlines", "iata": "SV", "icao": "SVA"}]}, {"destination": {"icao": "ORER", "iata": "EBL", "name": "Arbil Erbil", "shortName": "Erbil", "municipalityName": "Arbil", "location": {"lat": 36.2376, "lon": 43.9632}, "countryCode": "IQ"}, "averageDailyFlights": 0.29, "operators": [{"name": "flynas", "iata": "XY", "icao": "KNE"}]}, {"destination": {"icao": "HESN", "iata": "ASW", "name": "Aswan ", "shortName": "Aswan", "municipalityName": "Aswan", "location": {"lat": 23.9644, "lon": 32.82}, "countryCode": "EG"}, "averageDailyFlights": 0.29, "operators": [{"name": "Air Cairo", "iata": "SM", "icao": "MSC"}]}, {"destination": {"icao": "LGAV", "iata": "ATH", "name": "Athens Eleftherios Venizelos", "shortName": "Eleftherios Venizelos", "municipalityName": "Athens", "location": {"lat": 37.9364, "lon": 23.944498}, "countryCode": "GR"}, "averageDailyFlights": 0.29, "operators": [{"name": "Aegean Airlines", "iata": "A3", "icao": "AEE"}]}, {"destination": {"icao": "ORBI", "iata": "BGW", "name": "Baghdad ", "shortName": "Baghdad", "municipalityName": "Baghdad", "location": {"lat": 33.2625, "lon": 44.2346}, "countryCode": "IQ"}, "averageDailyFlights": 0.29, "operators": [{"name": "flynas", "iata": "XY", "icao": "KNE"}]}, {"destination": {"icao": "WBSB", "iata": "BWN", "name": "Bandar Seri Begawan Brunei", "shortName": "Brunei", "municipalityName": "Bandar Seri Begawan", "location": {"lat": 4.9442, "lon": 114.928}, "countryCode": "BN"}, "averageDailyFlights": 0.29, "operators": [{"name": "Royal Brunei Airlines", "iata": "BI", "icao": "RBA"}]}, {"destination": {"icao": "LEBL", "iata": "BCN", "name": "Barcelona ", "shortName": "Barcelona", "municipalityName": "Barcelona", "location": {"lat": 41.2971, "lon": 2.078459}, "countryCode": "ES"}, "averageDailyFlights": 0.29, "operators": [{"name": "Saudi Arabian Airlines", "iata": "SV", "icao": "SVA"}]}, {"destination": {"icao": "ZBAD", "iata": "PKX", "name": "Beijing Daxing", "shortName": "Daxing", "municipalityName": "Beijing", "location": {"lat": 39.509167, "lon": 116.41055}, "countryCode": "CN"}, "averageDailyFlights": 0.29, "operators": [{"name": "Saudi Arabian Airlines", "iata": "SV", "icao": "SVA"}]}, {"destination": {"icao": "LROP", "iata": "OTP", "name": "Bucharest Henri Coand\u0103", "shortName": "Henri Coand\u0103", "municipalityName": "Bucharest", "location": {"lat": 44.5722, "lon": 26.1022}, "countryCode": "RO"}, "averageDailyFlights": 0.29, "operators": [{"name": "Wizz Air Malta", "iata": "W4", "icao": "WMT"}]}, {"destination": {"icao": "LHBP", "iata": "BUD", "name": "Budapest Ferenc Liszt", "shortName": "Ferenc Liszt", "municipalityName": "Budapest", "location": {"lat": 47.4369, "lon": 19.255598}, "countryCode": "HU"}, "averageDailyFlights": 0.29, "operators": [{"name": "Wizz Air", "iata": "W6", "icao": "WZZ"}]}, {"destination": {"icao": "GOBD", "iata": "DSS", "name": "Dakar Blaise Diagne", "shortName": "Blaise Diagne", "municipalityName": "Dakar", "location": {"lat": 14.671111, "lon": -17.066944}, "countryCode": "SN"}, "averageDailyFlights": 0.29, "operators": [{"name": "Air Senegal", "iata": "HC", "icao": "SZN"}]}, {"destination": {"icao": "OEDW", "iata": "DWD", "name": "Dawadmi Domestic", "shortName": "Domestic", "municipalityName": "Dawadmi", "location": {"lat": 24.5, "lon": 44.4}, "countryCode": "SA"}, "averageDailyFlights": 0.29, "operators": [{"name": "Saudi Arabian Airlines", "iata": "SV", "icao": "SVA"}]}, {"destination": {"icao": "UTFF", "iata": "FEG", "localCode": "\u0424\u0413\u041d", "name": "Fergana ", "shortName": "Fergana", "municipalityName": "Fergana", "location": {"lat": 40.3588, "lon": 71.745}, "countryCode": "UZ"}, "averageDailyFlights": 0.29, "operators": [{"name": "Taban Airlines", "iata": "HH", "icao": "TBN"}]}, {"destination": {"icao": "LTAJ", "iata": "GZT", "name": "Gaziantep ", "shortName": "Gaziantep", "municipalityName": "Gaziantep", "location": {"lat": 36.9472, "lon": 37.4787}, "countryCode": "TR"}, "averageDailyFlights": 0.29, "operators": [{"name": "Saudi Arabian Airlines", "iata": "SV", "icao": "SVA"}, {"name": "Turkish Airlines", "iata": "TK", "icao": "THY"}]}, {"destination": {"icao": "HCMH", "iata": "HGA", "name": "Hargeisa Egal", "shortName": "Egal", "municipalityName": "Hargeisa", "location": {"lat": 9.51817, "lon": 44.0888}, "countryCode": "SO"}, "averageDailyFlights": 0.29, "operators": [{"name": "Daallo Airlines", "iata": "D3", "icao": "DAO"}]}, {"destination": {"icao": "LTBJ", "iata": "ADB", "name": "\u0130zmir Adnan Menderes", "shortName": "Adnan Menderes", "municipalityName": "\u0130zmir", "location": {"lat": 38.2924, "lon": 27.157}, "countryCode": "TR"}, "averageDailyFlights": 0.29, "operators": [{"name": "Turkish Airlines", "iata": "TK", "icao": "THY"}]}, {"destination": {"icao": "UTDL", "iata": "LBD", "localCode": "\u0425\u0414\u0422", "name": "Khudzhand ", "shortName": "Khudzhand", "municipalityName": "Khudzhand", "location": {"lat": 40.2154, "lon": 69.6947}, "countryCode": "TJ"}, "averageDailyFlights": 0.29, "operators": [{"name": "Somon Air", "iata": "SZ", "icao": "SMR"}]}, {"destination": {"icao": "OIMM", "iata": "MHD", "name": "Mashhad ", "shortName": "Mashhad", "municipalityName": "Mashhad", "location": {"lat": 36.2352, "lon": 59.641}, "countryCode": "IR"}, "averageDailyFlights": 0.29, "operators": [{"name": "Iran Air", "iata": "IR", "icao": "IRA"}]}, {"destination": {"icao": "OERF", "iata": "RAH", "name": "Rafha Domestic", "shortName": "Domestic", "municipalityName": "Rafha", "location": {"lat": 29.626398, "lon": 43.4906}, "countryCode": "SA"}, "averageDailyFlights": 0.29, "operators": [{"name": "Saudi Arabian Airlines", "iata": "SV", "icao": "SVA"}]}, {"destination": {"icao": "OMRK", "iata": "RKT", "name": "Ras Al Khaimah ", "shortName": "Ras Al Khaimah", "municipalityName": "Ras Al Khaimah", "location": {"lat": 25.6135, "lon": 55.9388}, "countryCode": "AE"}, "averageDailyFlights": 0.29, "operators": [{"name": "Air Arabia", "iata": "G9", "icao": "ABY"}]}, {"destination": {"icao": "WARS", "iata": "SRG", "name": "Semarang-Java Island Achmad Yani", "shortName": "Achmad Yani", "municipalityName": "Semarang-Java Island", "location": {"lat": -6.97273, "lon": 110.375}, "countryCode": "ID"}, "averageDailyFlights": 0.29, "operators": [{"name": "Lion Air", "iata": "JT", "icao": "LNI"}]}, {"destination": {"icao": "LIPZ", "iata": "VCE", "name": "Venice Marco Polo", "shortName": "Marco Polo", "municipalityName": "Venice", "location": {"lat": 45.5053, "lon": 12.3519}, "countryCode": "IT"}, "averageDailyFlights": 0.29, "operators": [{"name": "Wizz Air Malta", "iata": "W4", "icao": "WMT"}]}, {"destination": {"name": "Giresun"}, "averageDailyFlights": 0.29, "operators": [{"name": "Turkish Airlines", "iata": "TK", "icao": "THY"}]}, {"destination": {"name": "Kandagar"}, "averageDailyFlights": 0.29, "operators": [{"name": "Ariana Afghan Airlines", "iata": "FG", "icao": "AFG"}]}, {"destination": {"name": "Kannur International Airport"}, "averageDailyFlights": 0.29, "operators": [{"name": "Air India Express", "iata": "IX", "icao": "AXB"}]}, {"destination": {"name": "Ouargla"}, "averageDailyFlights": 0.29, "operators": [{"name": "Air Algerie", "iata": "AH", "icao": "DAH"}]}, {"destination": {"name": "Rio-Sidra"}, "averageDailyFlights": 0.29, "operators": [{"name": "Saudi Arabian Airlines", "iata": "SV", "icao": "SVA"}]}, {"destination": {"icao": "OIAW", "iata": "AWZ", "name": "Ahwaz ", "shortName": "Ahwaz", "municipalityName": "Ahwaz", "location": {"lat": 31.3374, "lon": 48.762}, "countryCode": "IR"}, "averageDailyFlights": 0.14, "operators": [{"name": "Iran Air", "iata": "IR", "icao": "IRA"}]}, {"destination": {"icao": "LTAI", "iata": "AYT", "name": "Antalya ", "shortName": "Antalya", "municipalityName": "Antalya", "location": {"lat": 36.8987, "lon": 30.8005}, "countryCode": "TR"}, "averageDailyFlights": 0.14, "operators": [{"name": "Turkish Airlines", "iata": "TK", "icao": "THY"}]}, {"destination": {"icao": "OIKB", "iata": "BND", "name": "Bandar Abbas ", "shortName": "Bandar Abbas", "municipalityName": "Bandar Abbas", "location": {"lat": 27.2183, "lon": 56.3778}, "countryCode": "IR"}, "averageDailyFlights": 0.14, "operators": [{"name": "Iran Air", "iata": "IR", "icao": "IRA"}]}, {"destination": {"icao": "DAUO", "iata": "ELU", "name": "Guemar ", "shortName": "Guemar", "municipalityName": "Guemar", "location": {"lat": 33.5114, "lon": 6.77679}, "countryCode": "DZ"}, "averageDailyFlights": 0.14, "operators": [{"name": "Air Algerie", "iata": "AH", "icao": "DAH"}]}, {"destination": {"icao": "OIFM", "iata": "IFN", "name": "Isfahan Esfahan Shahid Beheshti", "shortName": "Esfahan Shahid Beheshti", "municipalityName": "Isfahan", "location": {"lat": 32.7508, "lon": 51.8613}, "countryCode": "IR"}, "averageDailyFlights": 0.14, "operators": [{"name": "Iran Air", "iata": "IR", "icao": "IRA"}]}, {"destination": {"icao": "FAOR", "iata": "JNB", "name": "Jo'anna OR Tambo", "shortName": "OR Tambo", "municipalityName": "Jo'anna", "location": {"lat": -26.1392, "lon": 28.246}, "countryCode": "ZA"}, "averageDailyFlights": 0.14, "operators": [{"name": "Saudi Arabian Airlines", "iata": "SV", "icao": "SVA"}]}, {"destination": {"icao": "LTAL", "iata": "KFS", "name": "Kastamonu ", "shortName": "Kastamonu", "municipalityName": "Kastamonu", "location": {"lat": 41.3142, "lon": 33.7958}, "countryCode": "TR"}, "averageDailyFlights": 0.14, "operators": [{"name": "Turkish Airlines", "iata": "TK", "icao": "THY"}]}, {"destination": {"icao": "OIKK", "iata": "KER", "name": "Kerman ", "shortName": "Kerman", "municipalityName": "Kerman", "location": {"lat": 30.2744, "lon": 56.9511}, "countryCode": "IR"}, "averageDailyFlights": 0.14, "operators": [{"name": "Iran Air", "iata": "IR", "icao": "IRA"}]}, {"destination": {"icao": "LTBZ", "iata": "KZR", "name": "K\u00fctahya Zafer", "shortName": "Zafer", "municipalityName": "K\u00fctahya", "location": {"lat": 39.1122, "lon": 30.13004}, "countryCode": "TR"}, "averageDailyFlights": 0.14, "operators": [{"name": "Turkish Airlines", "iata": "TK", "icao": "THY"}]}, {"destination": {"icao": "URML", "iata": "MCX", "localCode": "\u041c\u0425\u041b", "name": "Makhachkala Uytash", "shortName": "Uytash", "municipalityName": "Makhachkala", "location": {"lat": 42.8168, "lon": 47.6523}, "countryCode": "RU"}, "averageDailyFlights": 0.14, "operators": [{"name": "Jazeera Airways", "iata": "J9", "icao": "JZR"}]}, {"destination": {"icao": "HCMM", "iata": "MGQ", "name": "Mogadishu Aden Adde", "shortName": "Aden Adde", "municipalityName": "Mogadishu", "location": {"lat": 2.01444, "lon": 45.3047}, "countryCode": "SO"}, "averageDailyFlights": 0.14, "operators": [{"name": "Daallo Airlines", "iata": "D3", "icao": "DAO"}]}, {"destination": {"icao": "WIPP", "iata": "PLM", "name": "Palembang-Sumatra Island Sultan Mahmud Badaruddin Ii", "shortName": "Sultan Mahmud Badaruddin Ii", "municipalityName": "Palembang-Sumatra Island", "location": {"lat": -2.89825, "lon": 104.7}, "countryCode": "ID"}, "averageDailyFlights": 0.14, "operators": [{"name": "Lion Air", "iata": "JT", "icao": "LNI"}]}, {"destination": {"icao": "OINZ", "iata": "SRY", "name": "Sari Dasht-e Naz", "shortName": "Dasht-e Naz", "municipalityName": "Sari", "location": {"lat": 36.6358, "lon": 53.1936}, "countryCode": "IR"}, "averageDailyFlights": 0.14, "operators": [{"name": "Iran Air", "iata": "IR", "icao": "IRA"}]}, {"destination": {"icao": "RKSI", "iata": "ICN", "name": "Seoul Incheon", "shortName": "Incheon", "municipalityName": "Seoul", "location": {"lat": 37.4691, "lon": 126.451}, "countryCode": "KR"}, "averageDailyFlights": 0.14, "operators": [{"name": "Saudi Arabian Airlines", "iata": "SV", "icao": "SVA"}]}, {"destination": {"icao": "OPST", "iata": "SKT", "name": "Sialkot ", "shortName": "Sialkot", "municipalityName": "Sialkot", "location": {"lat": 32.535557, "lon": 74.36389}, "countryCode": "PK"}, "averageDailyFlights": 0.14, "operators": [{"name": "Pakistan International Airlines", "iata": "PK", "icao": "PIA"}]}, {"destination": {"icao": "WARQ", "iata": "SOC", "name": "Sukarata(Solo)-Java Island Adi Sumarmo Wiryokusumo", "shortName": "Adi Sumarmo Wiryokusumo", "municipalityName": "Sukarata(Solo)-Java Island", "location": {"lat": -7.516089, "lon": 110.757}, "countryCode": "ID"}, "averageDailyFlights": 0.14, "operators": [{"name": "Lion Air", "iata": "JT", "icao": "LNI"}]}, {"destination": {"icao": "VGSY", "iata": "ZYL", "name": "Sylhet Osmany", "shortName": "Osmany", "municipalityName": "Sylhet", "location": {"lat": 24.9632, "lon": 91.8668}, "countryCode": "BD"}, "averageDailyFlights": 0.14, "operators": [{"name": "Biman Bangladesh Airlines", "iata": "BG", "icao": "BBC"}]}, {"destination": {"icao": "OIYY", "iata": "AZD", "name": "Yazd Shahid Sadooghi", "shortName": "Shahid Sadooghi", "municipalityName": "Yazd", "location": {"lat": 31.9049, "lon": 54.2765}, "countryCode": "IR"}, "averageDailyFlights": 0.14, "operators": [{"name": "Iran Air", "iata": "IR", "icao": "IRA"}]}, {"destination": {"icao": "OIZH", "iata": "ZAH", "name": "Zahedan ", "shortName": "Zahedan", "municipalityName": "Zahedan", "location": {"lat": 29.4757, "lon": 60.9062}, "countryCode": "IR"}, "averageDailyFlights": 0.14, "operators": [{"name": "Iran Air", "iata": "IR", "icao": "IRA"}]}, {"destination": {"name": "Elyazyg"}, "averageDailyFlights": 0.14, "operators": [{"name": "Turkish Airlines", "iata": "TK", "icao": "THY"}]}, {"destination": {"name": "King Fakhd"}, "averageDailyFlights": 0.14, "operators": [{"name": "flyadeal", "iata": "F3", "icao": "FAD"}]}, {"destination": {"name": "Lagos"}, "averageDailyFlights": 0.14, "operators": [{"name": "Air Peace", "iata": "P4", "icao": "APK"}]}, {"destination": {"name": "Monastir"}, "averageDailyFlights": 0.14, "operators": [{"name": "Nouvelair Tunisie", "iata": "BJ", "icao": "LBT"}]}, {"destination": {"name": "Nairobi"}, "averageDailyFlights": 0.14, "operators": [{"name": "Saudi Arabian Airlines", "iata": "SV", "icao": "SVA"}]}, {"destination": {"name": "Shymkent"}, "averageDailyFlights": 0.14, "operators": [{"name": "SCAT Airlines", "iata": "DV", "icao": "VSV"}]}]}