{"routes": [{"destination": {"name": "Manila"}, "averageDailyFlights": 7.14, "operators": [{"name": "Philippine Airlines", "iata": "PR", "icao": "PAL"}, {"name": "Cebgo", "iata": "DG", "icao": "SRQ"}, {"name": "Cebu Pacific Air", "iata": "5J", "icao": "CEB"}, {"name": "Philippines AirAsia", "iata": "Z2", "icao": "APG"}]}, {"destination": {"icao": "RPVM", "iata": "CEB", "name": "Lapu-Lapu City Mactan Cebu", "shortName": "Mactan Cebu", "municipalityName": "Lapu-Lapu City", "location": {"lat": 10.307499, "lon": 123.979}, "countryCode": "PH"}, "averageDailyFlights": 6.0, "operators": [{"name": "Cebu Pacific Air", "iata": "5J", "icao": "CEB"}, {"name": "Philippines AirAsia", "iata": "Z2", "icao": "APG"}, {"name": "Philippine Airlines", "iata": "PR", "icao": "PAL"}, {"name": "Cebgo", "iata": "DG", "icao": "SRQ"}]}, {"destination": {"icao": "RPLC", "iata": "CRK", "name": "Angeles City Clark", "shortName": "Clark", "municipalityName": "Angeles City", "location": {"lat": 15.185999, "lon": 120.56}, "countryCode": "PH"}, "averageDailyFlights": 2.57, "operators": [{"name": "Philippines AirAsia", "iata": "Z2", "icao": "APG"}, {"name": "Cebu Pacific Air", "iata": "5J", "icao": "CEB"}, {"name": "Philippine Airlines", "iata": "PR", "icao": "PAL"}]}, {"destination": {"name": "El-Nido"}, "averageDailyFlights": 1.14, "operators": [{"name": "AirSWIFT", "iata": "T6", "icao": "ATX"}]}, {"destination": {"icao": "ZSNJ", "iata": "NKG", "name": "Nanjing Lukou", "shortName": "Lukou", "municipalityName": "Nanjing", "location": {"lat": 31.742, "lon": 118.862}, "countryCode": "CN"}, "averageDailyFlights": 0.57, "operators": [{"name": "Royal Air Charter", "iata": "RW", "icao": "RYL"}]}, {"destination": {"icao": "ZSPD", "iata": "PVG", "name": "Shanghai Pudong", "shortName": "Pudong", "municipalityName": "Shanghai", "location": {"lat": 31.1434, "lon": 121.805}, "countryCode": "CN"}, "averageDailyFlights": 0.57, "operators": [{"name": "Royal Air Charter", "iata": "RW", "icao": "RYL"}]}, {"destination": {"icao": "RCTP", "iata": "TPE", "name": "Taipei Taiwan Taoyuan", "shortName": "Taiwan Taoyuan", "municipalityName": "Taipei", "location": {"lat": 25.0777, "lon": 121.233}, "countryCode": "TW"}, "averageDailyFlights": 0.43, "operators": [{"name": "Royal Air Charter", "iata": "RW", "icao": "RYL"}]}]}