{"routes": [{"destination": {"icao": "SABE", "iata": "AEP", "name": "Buenos Aires Jorge Newbery Airpark", "shortName": "Jorge Newbery Airpark", "municipalityName": "Buenos Aires", "location": {"lat": -34.5592, "lon": -58.4156}, "countryCode": "AR"}, "averageDailyFlights": 5.29, "operators": [{"name": "Aerolineas Argentinas", "iata": "AR", "icao": "ARG"}, {"name": "F.B. Lineas Aereas SA"}]}, {"destination": {"icao": "SAZN", "iata": "NQN", "name": "Neuqu\u00e9n Presidente Peron", "shortName": "Presidente Peron", "municipalityName": "Neuqu\u00e9n", "location": {"lat": -38.949, "lon": -68.1557}, "countryCode": "AR"}, "averageDailyFlights": 0.86, "operators": [{"name": "Aerolineas Argentinas", "iata": "AR", "icao": "ARG"}]}, {"destination": {"icao": "SAWG", "iata": "RGL", "name": "R\u00edo Gallegos Piloto Civil N. Fern\u00e1ndez", "shortName": "Piloto Civil N. Fern\u00e1ndez", "municipalityName": "R\u00edo Gallegos", "location": {"lat": -51.6089, "lon": -69.3126}, "countryCode": "AR"}, "averageDailyFlights": 0.57, "operators": [{"name": "Aerolineas Argentinas", "iata": "AR", "icao": "ARG"}]}, {"destination": {"icao": "SAVT", "iata": "REL", "name": "Rawson Almirante Marco Andres Zar", "shortName": "Almirante Marco Andres Zar", "municipalityName": "Rawson", "location": {"lat": -43.2105, "lon": -65.2703}, "countryCode": "AR"}, "averageDailyFlights": 0.43, "operators": [{"name": "Aerolineas Argentinas", "iata": "AR", "icao": "ARG"}]}, {"destination": {"icao": "SACO", "iata": "COR", "name": "C\u00f3rdoba Ingeniero Ambrosio Taravella", "shortName": "Ingeniero Ambrosio Taravella", "municipalityName": "C\u00f3rdoba", "location": {"lat": -31.3236, "lon": -64.208}, "countryCode": "AR"}, "averageDailyFlights": 0.29, "operators": [{"name": "Aerolineas Argentinas", "iata": "AR", "icao": "ARG"}]}]}