{"routes": [{"destination": {"icao": "MPTO", "iata": "PTY", "name": "Tocumen ", "shortName": "Tocumen", "municipalityName": "Tocumen", "location": {"lat": 9.071359, "lon": -79.3835}, "countryCode": "PA"}, "averageDailyFlights": 4.86, "operators": [{"name": "Copa Airlines", "iata": "CM", "icao": "CMP"}, {"name": "LASER Airlines", "iata": "QL", "icao": "LER"}]}, {"destination": {"icao": "SVMG", "iata": "PMV", "name": "Isla Margarita Del Caribe Santiago Mari\u00f1o", "shortName": "Del Caribe Santiago Mari\u00f1o", "municipalityName": "Isla Margarita", "location": {"lat": 10.912603, "lon": -63.9666}, "countryCode": "VE"}, "averageDailyFlights": 3.86, "operators": [{"name": "Conviasa", "iata": "V0", "icao": "VCV"}, {"name": "LASER Airlines", "iata": "QL", "icao": "LER"}, {"name": "Avior", "iata": "9V", "icao": "ROI"}]}, {"destination": {"icao": "SVRS", "iata": "LRV", "name": "Gran Roque Island Los Roques", "shortName": "Los Roques", "municipalityName": "Gran Roque Island", "location": {"lat": 11.949999, "lon": -66.67}, "countryCode": "VE"}, "averageDailyFlights": 3.43, "operators": [{"name": "Conviasa", "iata": "V0", "icao": "VCV"}]}, {"destination": {"icao": "SVBC", "iata": "BLA", "name": "Barcelona General Jose Antonio Anzoategui", "shortName": "General Jose Antonio Anzoategui", "municipalityName": "Barcelona", "location": {"lat": 10.107099, "lon": -64.6892}, "countryCode": "VE"}, "averageDailyFlights": 3.0, "operators": [{"name": "LASER Airlines", "iata": "QL", "icao": "LER"}, {"name": "Avior", "iata": "9V", "icao": "ROI"}]}, {"destination": {"icao": "SKBO", "iata": "BOG", "name": "Bogot\u00e1 El Dorado", "shortName": "El Dorado", "municipalityName": "Bogot\u00e1", "location": {"lat": 4.70159, "lon": -74.1469}, "countryCode": "CO"}, "averageDailyFlights": 3.0, "operators": [{"name": "LASER Airlines", "iata": "QL", "icao": "LER"}, {"name": "LATAM", "iata": "LA", "icao": "LAN"}, {"name": "Copa Airlines Colombia", "iata": "P5", "icao": "RPB"}, {"name": "Avianca", "iata": "AV", "icao": "AVA"}]}, {"destination": {"icao": "SVMC", "iata": "MAR", "name": "Maracaibo La Chinita", "shortName": "La Chinita", "municipalityName": "Maracaibo", "location": {"lat": 10.558208, "lon": -71.72786}, "countryCode": "VE"}, "averageDailyFlights": 3.0, "operators": [{"name": "LASER Airlines", "iata": "QL", "icao": "LER"}, {"name": "Avior", "iata": "9V", "icao": "ROI"}, {"name": "Conviasa", "iata": "V0", "icao": "VCV"}, {"name": "Rutaca Airlines", "iata": "5R", "icao": "RUC"}]}, {"destination": {"icao": "MDSD", "iata": "SDQ", "name": "Santo Domingo City Las Am\u00e9ricas", "shortName": "Las Am\u00e9ricas", "municipalityName": "Santo Domingo City", "location": {"lat": 18.4297, "lon": -69.6689}, "countryCode": "DO"}, "averageDailyFlights": 2.93, "operators": [{"name": "Sky High Aviation", "iata": "DO", "icao": "SHH"}, {"name": "LASER Airlines", "iata": "QL", "icao": "LER"}, {"name": "Avior", "iata": "9V", "icao": "ROI"}, {"name": "Rutaca Airlines", "iata": "5R", "icao": "RUC"}, {"name": "Conviasa", "iata": "V0", "icao": "VCV"}]}, {"destination": {"icao": "SVPR", "iata": "PZO", "name": "Puerto Ordaz-Ciudad Guayana General Manuel Carlos Piar", "shortName": "General Manuel Carlos Piar", "municipalityName": "Puerto Ordaz-Ciudad Guayana", "location": {"lat": 8.28853, "lon": -62.7604}, "countryCode": "VE"}, "averageDailyFlights": 2.86, "operators": [{"name": "LASER Airlines", "iata": "QL", "icao": "LER"}, {"name": "Rutaca Airlines", "iata": "5R", "icao": "RUC"}, {"name": "Avior", "iata": "9V", "icao": "ROI"}, {"name": "Conviasa", "iata": "V0", "icao": "VCV"}]}, {"destination": {"icao": "LEMD", "iata": "MAD", "name": "Madrid Adolfo Su\u00e1rez \u2013Barajas", "shortName": "Adolfo Su\u00e1rez \u2013Barajas", "municipalityName": "Madrid", "location": {"lat": 40.4936, "lon": -3.56676}, "countryCode": "ES"}, "averageDailyFlights": 2.14, "operators": [{"name": "Iberia", "iata": "IB", "icao": "IBE"}, {"name": "Plus Ultra", "iata": "PU", "icao": "PUE"}, {"name": "Air Europa", "iata": "UX", "icao": "AEA"}]}, {"destination": {"icao": "SVVG", "iata": "VIG", "name": "El Vig\u00eda Juan Pablo P\u00e9rez Alfonso", "shortName": "Juan Pablo P\u00e9rez Alfonso", "municipalityName": "El Vig\u00eda", "location": {"lat": 8.624138, "lon": -71.67267}, "countryCode": "VE"}, "averageDailyFlights": 1.57, "operators": [{"name": "Conviasa", "iata": "V0", "icao": "VCV"}, {"name": "LASER Airlines", "iata": "QL", "icao": "LER"}]}, {"destination": {"icao": "SPJC", "iata": "LIM", "name": "Lima Jorge Ch\u00e1vez", "shortName": "Jorge Ch\u00e1vez", "municipalityName": "Lima", "location": {"lat": -12.0219, "lon": -77.1143}, "countryCode": "PE"}, "averageDailyFlights": 1.14, "operators": [{"name": "LATAM", "iata": "LA", "icao": "LAN"}]}, {"destination": {"icao": "SVBM", "iata": "BRM", "name": "Barquisimeto ", "shortName": "Barquisimeto", "municipalityName": "Barquisimeto", "location": {"lat": 10.042746, "lon": -69.35862}, "countryCode": "VE"}, "averageDailyFlights": 1.0, "operators": [{"name": "Avior", "iata": "9V", "icao": "ROI"}, {"name": "LASER Airlines", "iata": "QL", "icao": "LER"}, {"name": "Conviasa", "iata": "V0", "icao": "VCV"}]}, {"destination": {"icao": "MUHA", "iata": "HAV", "name": "Havana Jos\u00e9 Mart\u00ed", "shortName": "Jos\u00e9 Mart\u00ed", "municipalityName": "Havana", "location": {"lat": 22.9892, "lon": -82.4091}, "countryCode": "CU"}, "averageDailyFlights": 0.86, "operators": [{"name": "Cubana de Aviacion", "iata": "CU", "icao": "CUB"}, {"name": "Conviasa", "iata": "V0", "icao": "VCV"}]}, {"destination": {"icao": "MROC", "iata": "SJO", "name": "San Jos\u00e9 Juan Santamaria", "shortName": "Juan Santamaria", "municipalityName": "San Jos\u00e9", "location": {"lat": 9.99386, "lon": -84.2088}, "countryCode": "CR"}, "averageDailyFlights": 0.86, "operators": [{"name": "Avianca", "iata": "AV", "icao": "AVA"}, {"name": "Conviasa", "iata": "V0", "icao": "VCV"}, {"name": "Rutaca Airlines", "iata": "5R", "icao": "RUC"}]}, {"destination": {"icao": "MMUN", "iata": "CUN", "name": "Canc\u00fan ", "shortName": "Canc\u00fan", "municipalityName": "Canc\u00fan", "location": {"lat": 21.0365, "lon": -86.8771}, "countryCode": "MX"}, "averageDailyFlights": 0.57, "operators": [{"name": "Conviasa", "iata": "V0", "icao": "VCV"}]}, {"destination": {"icao": "SKRG", "iata": "MDE", "name": "Rionegro Jose Maria C\u00f3rdova", "shortName": "Jose Maria C\u00f3rdova", "municipalityName": "Rionegro", "location": {"lat": 6.16454, "lon": -75.4231}, "countryCode": "CO"}, "averageDailyFlights": 0.57, "operators": [{"name": "Copa Airlines Colombia", "iata": "P5", "icao": "RPB"}]}, {"destination": {"icao": "TBPB", "iata": "BGI", "name": "Bridgetown Sir Grantley Adams", "shortName": "Sir Grantley Adams", "municipalityName": "Bridgetown", "location": {"lat": 13.0746, "lon": -59.4925}, "countryCode": "BB"}, "averageDailyFlights": 0.43, "operators": [{"name": "Conviasa", "iata": "V0", "icao": "VCV"}]}, {"destination": {"icao": "LPPT", "iata": "LIS", "name": "Lisbon Portela", "shortName": "Portela", "municipalityName": "Lisbon", "location": {"lat": 38.7813, "lon": -9.135919}, "countryCode": "PT"}, "averageDailyFlights": 0.43, "operators": [{"name": "TAP Air Portugal", "iata": "TP", "icao": "TAP"}]}, {"destination": {"icao": "TTPP", "iata": "POS", "name": "Port of Spain Piarco", "shortName": "Piarco", "municipalityName": "Port of Spain", "location": {"lat": 10.595399, "lon": -61.3372}, "countryCode": "TT"}, "averageDailyFlights": 0.43, "operators": [{"name": "Caribbean Airlines", "iata": "BW", "icao": "BWA"}]}, {"destination": {"icao": "TNCC", "iata": "CUR", "name": "Willemstad Hato", "shortName": "Hato", "municipalityName": "Willemstad", "location": {"lat": 12.188899, "lon": -68.9598}, "countryCode": "CW"}, "averageDailyFlights": 0.43, "operators": [{"name": "Avior", "iata": "9V", "icao": "ROI"}]}, {"destination": {"name": "Las-Pedras"}, "averageDailyFlights": 0.43, "operators": [{"name": "Avior", "iata": "9V", "icao": "ROI"}]}, {"destination": {"icao": "SLVR", "iata": "VVI", "name": "Santa Cruz de la Sierra Viru Viru", "shortName": "Viru Viru", "municipalityName": "Santa Cruz de la Sierra", "location": {"lat": -17.6448, "lon": -63.1354}, "countryCode": "BO"}, "averageDailyFlights": 0.29, "operators": [{"name": "Conviasa", "iata": "V0", "icao": "VCV"}]}, {"destination": {"name": "Istanbul"}, "averageDailyFlights": 0.29, "operators": [{"name": "Turkish Airlines", "iata": "TK", "icao": "THY"}]}, {"destination": {"icao": "UUWW", "iata": "VKO", "localCode": "\u0412\u041d\u041a", "name": "Moscow Vnukovo", "shortName": "Vnukovo", "municipalityName": "Moscow", "location": {"lat": 55.5915, "lon": 37.2615}, "countryCode": "RU"}, "averageDailyFlights": 0.14, "operators": [{"name": "Conviasa", "iata": "V0", "icao": "VCV"}]}, {"destination": {"icao": "SEQM", "iata": "UIO", "name": "Quito Mariscal Sucre", "shortName": "Mariscal Sucre", "municipalityName": "Quito", "location": {"lat": -0.129166, "lon": -78.3575}, "countryCode": "EC"}, "averageDailyFlights": 0.14, "operators": [{"name": "Euroairlines", "iata": "Q4", "icao": "ELE"}]}, {"destination": {"icao": "GCXO", "iata": "TFN", "name": "Tenerife Island Tenerife Norte", "shortName": "Tenerife Norte", "municipalityName": "Tenerife Island", "location": {"lat": 28.4827, "lon": -16.3415}, "countryCode": "ES"}, "averageDailyFlights": 0.14, "operators": [{"name": "Plus Ultra", "iata": "PU", "icao": "PUE"}]}, {"destination": {"name": "Barinas"}, "averageDailyFlights": 0.14, "operators": [{"name": "Conviasa", "iata": "V0", "icao": "VCV"}]}, {"destination": {"name": "Puerto Ayacucho"}, "averageDailyFlights": 0.14, "operators": [{"name": "Avior", "iata": "9V", "icao": "ROI"}]}, {"destination": {"name": "Santa-Lyuchiya"}, "averageDailyFlights": 0.14, "operators": [{"name": "Conviasa", "iata": "V0", "icao": "VCV"}]}]}