{"routes": [{"destination": {"icao": "UUEE", "iata": "SVO", "localCode": "\u0428\u0420\u041c", "name": "Moscow Sheremetyevo", "shortName": "Sheremetyevo", "municipalityName": "Moscow", "location": {"lat": 55.9726, "lon": 37.4146}, "countryCode": "RU"}, "averageDailyFlights": 2.71, "operators": [{"name": "Aeroflot", "iata": "SU", "icao": "AFL"}, {"name": "Pobeda", "iata": "DP", "icao": "PBD"}]}, {"destination": {"icao": "ULLI", "iata": "LED", "localCode": "\u041f\u041b\u041a", "name": "Saint-Petersburg Pulkovo", "shortName": "Pulkovo", "municipalityName": "Saint-Petersburg", "location": {"lat": 59.8003, "lon": 30.2625}, "countryCode": "RU"}, "averageDailyFlights": 1.71, "operators": [{"name": "Rossiya Airlines", "iata": "FV", "icao": "SDM"}, {"name": "Nordwind Airlines", "iata": "N4", "icao": "NWS"}]}, {"destination": {"icao": "UUDD", "iata": "DME", "localCode": "\u0414\u041c\u0414", "name": "Moscow Domodedovo", "shortName": "Domodedovo", "municipalityName": "Moscow", "location": {"lat": 55.4088, "lon": 37.9063}, "countryCode": "RU"}, "averageDailyFlights": 0.71, "operators": [{"name": "Ural Airlines", "iata": "U6", "icao": "SVR"}]}, {"destination": {"icao": "USRR", "iata": "SGC", "localCode": "\u0421\u0423\u0420", "name": "Surgut ", "shortName": "Surgut", "municipalityName": "Surgut", "location": {"lat": 61.3437, "lon": 73.4018}, "countryCode": "RU"}, "averageDailyFlights": 0.71, "operators": [{"name": "UTAir", "iata": "UT", "icao": "UTA"}]}, {"destination": {"icao": "USSS", "iata": "SVX", "localCode": "\u041a\u041b\u0426", "name": "Ekaterinburg Koltsovo", "shortName": "Koltsovo", "municipalityName": "Ekaterinburg", "location": {"lat": 56.7431, "lon": 60.8027}, "countryCode": "RU"}, "averageDailyFlights": 0.43, "operators": [{"name": "Red Wings", "iata": "WZ", "icao": "RWZ"}]}, {"destination": {"icao": "USMU", "iata": "NUX", "localCode": "\u041d\u0423\u0420", "name": "Novyy Urengoy Novy Urengoy", "shortName": "Novy Urengoy", "municipalityName": "Novyy Urengoy", "location": {"lat": 66.0694, "lon": 76.5203}, "countryCode": "RU"}, "averageDailyFlights": 0.43, "operators": [{"name": "Yamal Airlines", "iata": "YC", "icao": "LLM"}]}, {"destination": {"icao": "USDD", "iata": "SLY", "localCode": "\u0421\u0425\u0414", "name": "Salekhard ", "shortName": "Salekhard", "municipalityName": "Salekhard", "location": {"lat": 66.5908, "lon": 66.611}, "countryCode": "RU"}, "averageDailyFlights": 0.43, "operators": [{"name": "Yamal Airlines", "iata": "YC", "icao": "LLM"}]}, {"destination": {"icao": "URSS", "iata": "AER", "localCode": "\u0421\u041e\u0427", "name": "Sochi ", "shortName": "Sochi", "municipalityName": "Sochi", "location": {"lat": 43.4499, "lon": 39.9566}, "countryCode": "RU"}, "averageDailyFlights": 0.43, "operators": [{"name": "Pegas Fly", "iata": "EO", "icao": "KAR"}, {"name": "Nordwind Airlines", "iata": "N4", "icao": "NWS"}]}, {"destination": {"icao": "UNTT", "iata": "TOF", "localCode": "\u0422\u0421\u041a", "name": "Tomsk Bogashevo", "shortName": "Bogashevo", "municipalityName": "Tomsk", "location": {"lat": 56.3803, "lon": 85.2083}, "countryCode": "RU"}, "averageDailyFlights": 0.43, "operators": [{"name": "UTAir", "iata": "UT", "icao": "UTA"}]}, {"destination": {"name": "Astana"}, "averageDailyFlights": 0.43, "operators": [{"name": "Qazaq Air", "iata": "IQ", "icao": "QAZ"}]}, {"destination": {"icao": "USHH", "iata": "HMA", "localCode": "\u0425\u0410\u0421", "name": "Khanty-Mansiysk Khanty Mansiysk", "shortName": "Khanty Mansiysk", "municipalityName": "Khanty-Mansiysk", "location": {"lat": 61.0285, "lon": 69.0861}, "countryCode": "RU"}, "averageDailyFlights": 0.29, "operators": [{"name": "UTAir", "iata": "UT", "icao": "UTA"}]}, {"destination": {"icao": "USNN", "iata": "NJC", "localCode": "\u041d\u0416\u0412", "name": "Nizhnevartovsk ", "shortName": "Nizhnevartovsk", "municipalityName": "Nizhnevartovsk", "location": {"lat": 60.9493, "lon": 76.4836}, "countryCode": "RU"}, "averageDailyFlights": 0.29, "operators": [{"name": "UTAir", "iata": "UT", "icao": "UTA"}]}, {"destination": {"icao": "VTSP", "iata": "HKT", "name": "Phuket ", "shortName": "Phuket", "municipalityName": "Phuket", "location": {"lat": 8.1132, "lon": 98.3169}, "countryCode": "TH"}, "averageDailyFlights": 0.29, "operators": [{"name": "AZUR Air", "iata": "ZF", "icao": "KTK"}]}, {"destination": {"name": "Bovanenkovo"}, "averageDailyFlights": 0.29, "operators": [{"name": "Yamal Airlines", "iata": "YC", "icao": "LLM"}]}, {"destination": {"name": "Kazan"}, "averageDailyFlights": 0.29, "operators": [{"name": "UVT Aero", "iata": "RT", "icao": "UVT"}]}, {"destination": {"name": "Mineralnyye Vody"}, "averageDailyFlights": 0.29, "operators": [{"name": "Azimuth Airlines", "iata": "A4", "icao": "AZO"}]}, {"destination": {"icao": "UERR", "iata": "MJZ", "localCode": "\u041c\u0418\u0420", "name": "Mirny ", "shortName": "Mirny", "municipalityName": "Mirny", "location": {"lat": 62.5347, "lon": 114.039}, "countryCode": "RU"}, "averageDailyFlights": 0.14, "operators": [{"name": "NordStar Airlines", "iata": "Y7", "icao": "TYA"}]}, {"destination": {"icao": "USMM", "iata": "NYM", "localCode": "\u041d\u0414\u041c", "name": "Nadym ", "shortName": "Nadym", "municipalityName": "Nadym", "location": {"lat": 65.4809, "lon": 72.6989}, "countryCode": "RU"}, "averageDailyFlights": 0.14, "operators": [{"name": "Yamal Airlines", "iata": "YC", "icao": "LLM"}]}, {"destination": {"icao": "UTFN", "iata": "NMA", "localCode": "\u041d\u041c\u0413", "name": "Namangan ", "shortName": "Namangan", "municipalityName": "Namangan", "location": {"lat": 40.9846, "lon": 71.5567}, "countryCode": "UZ"}, "averageDailyFlights": 0.14, "operators": [{"name": "Uzbekistan Airways", "iata": "HY", "icao": "UZB"}]}, {"destination": {"icao": "USRO", "iata": "NOJ", "localCode": "\u041d\u041e\u042f", "name": "Noyabrsk ", "shortName": "Noyabrsk", "municipalityName": "Noyabrsk", "location": {"lat": 63.1833, "lon": 75.27}, "countryCode": "RU"}, "averageDailyFlights": 0.14, "operators": [{"name": "Yamal Airlines", "iata": "YC", "icao": "LLM"}]}, {"destination": {"icao": "UTTT", "iata": "TAS", "localCode": "\u0422\u0410\u0421", "name": "Tashkent ", "shortName": "Tashkent", "municipalityName": "Tashkent", "location": {"lat": 41.2579, "lon": 69.2812}, "countryCode": "UZ"}, "averageDailyFlights": 0.14, "operators": [{"name": "Uzbekistan Airways", "iata": "HY", "icao": "UZB"}]}, {"destination": {"name": "Krasnoyarsk"}, "averageDailyFlights": 0.14, "operators": [{"name": "NordStar Airlines", "iata": "Y7", "icao": "TYA"}]}]}