{"routes": [{"destination": {"icao": "VIDP", "iata": "DEL", "name": "New Delhi Indira Gandhi", "shortName": "Indira Gandhi", "municipalityName": "New Delhi", "location": {"lat": 28.5665, "lon": 77.1031}, "countryCode": "IN"}, "averageDailyFlights": 15.29, "operators": [{"name": "IndiGo", "iata": "6E", "icao": "IGO"}, {"name": "Air India Express", "iata": "IX", "icao": "AXB"}, {"name": "Vistara", "iata": "UK", "icao": "VTI"}, {"name": "Air India", "iata": "AI", "icao": "AIC"}, {"name": "SpiceJet", "iata": "SG", "icao": "SEJ"}, {"name": "AirAsia India", "iata": "I5", "icao": "IAD"}]}, {"destination": {"icao": "VECC", "iata": "CCU", "name": "Kolkata Netaji Subhash Chandra Bose", "shortName": "Netaji Subhash Chandra Bose", "municipalityName": "Kolkata", "location": {"lat": 22.6547, "lon": 88.4467}, "countryCode": "IN"}, "averageDailyFlights": 12.14, "operators": [{"name": "IndiGo", "iata": "6E", "icao": "IGO"}, {"name": "Air India", "iata": "AI", "icao": "AIC"}, {"name": "Alliance Air", "iata": "9I", "icao": "LLR"}, {"name": "Starlight Airline", "iata": "QP", "icao": "SLT"}, {"name": "SpiceJet", "iata": "SG", "icao": "SEJ"}]}, {"destination": {"icao": "VOBL", "iata": "BLR", "name": "Bangalore Bengaluru", "shortName": "Bengaluru", "municipalityName": "Bangalore", "location": {"lat": 13.197899, "lon": 77.7063}, "countryCode": "IN"}, "averageDailyFlights": 6.14, "operators": [{"name": "AirAsia India", "iata": "I5", "icao": "IAD"}, {"name": "Starlight Airline", "iata": "QP", "icao": "SLT"}, {"name": "IndiGo", "iata": "6E", "icao": "IGO"}, {"name": "Vistara", "iata": "UK", "icao": "VTI"}]}, {"destination": {"icao": "VEIM", "iata": "IMF", "name": "Imphal ", "shortName": "Imphal", "municipalityName": "Imphal", "location": {"lat": 24.76, "lon": 93.8967}, "countryCode": "IN"}, "averageDailyFlights": 5.57, "operators": [{"name": "Air India Express", "iata": "IX", "icao": "AXB"}, {"name": "IndiGo", "iata": "6E", "icao": "IGO"}, {"name": "Air India", "iata": "AI", "icao": "AIC"}, {"name": "AirAsia India", "iata": "I5", "icao": "IAD"}]}, {"destination": {"icao": "VOMM", "iata": "MAA", "name": "Chennai ", "shortName": "Chennai", "municipalityName": "Chennai", "location": {"lat": 12.990005, "lon": 80.1693}, "countryCode": "IN"}, "averageDailyFlights": 3.43, "operators": [{"name": "IndiGo", "iata": "6E", "icao": "IGO"}, {"name": "AirAsia India", "iata": "I5", "icao": "IAD"}]}, {"destination": {"icao": "VABB", "iata": "BOM", "name": "Mumbai Chhatrapati Shivaji", "shortName": "Chhatrapati Shivaji", "municipalityName": "Mumbai", "location": {"lat": 19.0887, "lon": 72.8679}, "countryCode": "IN"}, "averageDailyFlights": 2.86, "operators": [{"name": "SpiceJet", "iata": "SG", "icao": "SEJ"}, {"name": "Starlight Airline", "iata": "QP", "icao": "SLT"}, {"name": "IndiGo", "iata": "6E", "icao": "IGO"}]}, {"destination": {"icao": "VEAT", "iata": "IXA", "name": "Agartala ", "shortName": "Agartala", "municipalityName": "Agartala", "location": {"lat": 23.887, "lon": 91.2404}, "countryCode": "IN"}, "averageDailyFlights": 2.43, "operators": [{"name": "IndiGo", "iata": "6E", "icao": "IGO"}, {"name": "Starlight Airline", "iata": "QP", "icao": "SLT"}]}, {"destination": {"icao": "VEMN", "iata": "DIB", "name": "Dibrugarh ", "shortName": "Dibrugarh", "municipalityName": "Dibrugarh", "location": {"lat": 27.4839, "lon": 95.0169}, "countryCode": "IN"}, "averageDailyFlights": 2.29, "operators": [{"name": "IndiGo", "iata": "6E", "icao": "IGO"}, {"name": "Vistara", "iata": "UK", "icao": "VTI"}]}, {"destination": {"icao": "VELP", "iata": "AJL", "name": "Aizawl Lengpui", "shortName": "Lengpui", "municipalityName": "Aizawl", "location": {"lat": 23.8406, "lon": 92.6197}, "countryCode": "IN"}, "averageDailyFlights": 1.71, "operators": [{"name": "IndiGo", "iata": "6E", "icao": "IGO"}, {"name": "Alliance Air", "iata": "9I", "icao": "LLR"}]}, {"destination": {"icao": "VEBS", "iata": "BBI", "name": "Bhubaneswar Biju Patnaik", "shortName": "Biju Patnaik", "municipalityName": "Bhubaneswar", "location": {"lat": 20.2444, "lon": 85.8178}, "countryCode": "IN"}, "averageDailyFlights": 1.14, "operators": [{"name": "IndiGo", "iata": "6E", "icao": "IGO"}]}, {"destination": {"icao": "VEMR", "iata": "DMU", "name": "Dimapur ", "shortName": "Dimapur", "municipalityName": "Dimapur", "location": {"lat": 25.8839, "lon": 93.7711}, "countryCode": "IN"}, "averageDailyFlights": 1.14, "operators": [{"name": "Air India", "iata": "AI", "icao": "AIC"}]}, {"destination": {"icao": "VOHS", "iata": "HYD", "name": "Hyderabad Rajiv Gandhi", "shortName": "Rajiv Gandhi", "municipalityName": "Hyderabad", "location": {"lat": 17.231318, "lon": 78.429855}, "countryCode": "IN"}, "averageDailyFlights": 1.14, "operators": [{"name": "IndiGo", "iata": "6E", "icao": "IGO"}]}, {"destination": {"icao": "VIJP", "iata": "JAI", "name": "Jaipur ", "shortName": "Jaipur", "municipalityName": "Jaipur", "location": {"lat": 26.8242, "lon": 75.8122}, "countryCode": "IN"}, "averageDailyFlights": 1.14, "operators": [{"name": "SpiceJet", "iata": "SG", "icao": "SEJ"}]}, {"destination": {"icao": "VEBD", "iata": "IXB", "name": "Siliguri Bagdogra", "shortName": "Bagdogra", "municipalityName": "Siliguri", "location": {"lat": 26.6812, "lon": 88.3286}, "countryCode": "IN"}, "averageDailyFlights": 1.14, "operators": [{"name": "Starlight Airline", "iata": "QP", "icao": "SLT"}, {"name": "SpiceJet", "iata": "SG", "icao": "SEJ"}]}, {"destination": {"icao": "VEPT", "iata": "PAT", "name": "Patna Lok Nayak Jayaprakash", "shortName": "Lok Nayak Jayaprakash", "municipalityName": "Patna", "location": {"lat": 25.5913, "lon": 85.088}, "countryCode": "IN"}, "averageDailyFlights": 1.0, "operators": [{"name": "SpiceJet", "iata": "SG", "icao": "SEJ"}]}, {"destination": {"icao": "VEBI", "iata": "SHL", "name": "Shillong ", "shortName": "Shillong", "municipalityName": "Shillong", "location": {"lat": 25.7036, "lon": 91.9787}, "countryCode": "IN"}, "averageDailyFlights": 1.0, "operators": [{"name": "Alliance Air", "iata": "9I", "icao": "LLR"}]}, {"destination": {"icao": "VILK", "iata": "LKO", "name": "Lucknow Chaudhary Charan Singh", "shortName": "Chaudhary Charan Singh", "municipalityName": "Lucknow", "location": {"lat": 26.7606, "lon": 80.8893}, "countryCode": "IN"}, "averageDailyFlights": 0.71, "operators": [{"name": "IndiGo", "iata": "6E", "icao": "IGO"}]}, {"destination": {"icao": "VEKU", "iata": "IXS", "name": "Silchar ", "shortName": "Silchar", "municipalityName": "Silchar", "location": {"lat": 24.9129, "lon": 92.9787}, "countryCode": "IN"}, "averageDailyFlights": 0.71, "operators": [{"name": "IndiGo", "iata": "6E", "icao": "IGO"}]}, {"destination": {"icao": "VTBD", "iata": "DMK", "name": "Bangkok Don Mueang", "shortName": "Don Mueang", "municipalityName": "Bangkok", "location": {"lat": 13.912599, "lon": 100.607}, "countryCode": "TH"}, "averageDailyFlights": 0.57, "operators": [{"name": "Thai AirAsia", "iata": "FD", "icao": "AIQ"}]}, {"destination": {"icao": "VEJT", "iata": "JRH", "name": "Jorhat ", "shortName": "Jorhat", "municipalityName": "Jorhat", "location": {"lat": 26.7315, "lon": 94.1755}, "countryCode": "IN"}, "averageDailyFlights": 0.57, "operators": [{"name": "IndiGo", "iata": "6E", "icao": "IGO"}]}, {"destination": {"icao": "VEPG", "iata": "IXT", "name": "Pasighat ", "shortName": "Pasighat", "municipalityName": "Pasighat", "location": {"lat": 28.0661, "lon": 95.3356}, "countryCode": "IN"}, "averageDailyFlights": 0.57, "operators": [{"name": "Alliance Air", "iata": "9I", "icao": "LLR"}]}, {"destination": {"icao": "WSSS", "iata": "SIN", "name": "Singapore Changi", "shortName": "Changi", "municipalityName": "Singapore", "location": {"lat": 1.35019, "lon": 103.994}, "countryCode": "SG"}, "averageDailyFlights": 0.43, "operators": [{"name": "Drukair", "iata": "KB", "icao": "DRK"}]}, {"destination": {"icao": "VQPR", "iata": "PBH", "name": "Paro ", "shortName": "Paro", "municipalityName": "Paro", "location": {"lat": 27.4032, "lon": 89.4246}, "countryCode": "BT"}, "averageDailyFlights": 0.29, "operators": [{"name": "Drukair", "iata": "KB", "icao": "DRK"}]}, {"destination": {"name": "Bangalor"}, "averageDailyFlights": 0.29, "operators": [{"name": "AirAsia India", "iata": "I5", "icao": "IAD"}, {"name": "Starlight Airline", "iata": "QP", "icao": "SLT"}]}]}