{"routes": [{"destination": {"icao": "RCTP", "iata": "TPE", "name": "Taipei Taiwan Taoyuan", "shortName": "Taiwan Taoyuan", "municipalityName": "Taipei", "location": {"lat": 25.0777, "lon": 121.233}, "countryCode": "TW"}, "averageDailyFlights": 9.14, "operators": [{"name": "Air Macau", "iata": "NX", "icao": "AMU"}, {"name": "Starlux Airlines", "iata": "JX", "icao": "SJX"}, {"name": "EVA Air", "iata": "BR", "icao": "EVA"}, {"name": "Tigerair Taiwan", "iata": "IT", "icao": "TTW"}]}, {"destination": {"icao": "ZSPD", "iata": "PVG", "name": "Shanghai Pudong", "shortName": "Pudong", "municipalityName": "Shanghai", "location": {"lat": 31.1434, "lon": 121.805}, "countryCode": "CN"}, "averageDailyFlights": 7.57, "operators": [{"name": "Spring Airlines", "iata": "9C", "icao": "CQH"}, {"name": "Shanghai Airlines", "iata": "FM", "icao": "CSH"}, {"name": "Air Macau", "iata": "NX", "icao": "AMU"}, {"name": "China Eastern Airlines", "iata": "MU", "icao": "CES"}, {"name": "Juneyao Airlines", "iata": "HO", "icao": "DKH"}]}, {"destination": {"icao": "VTBD", "iata": "DMK", "name": "Bangkok Don Mueang", "shortName": "Don Mueang", "municipalityName": "Bangkok", "location": {"lat": 13.912599, "lon": 100.607}, "countryCode": "TH"}, "averageDailyFlights": 5.14, "operators": [{"name": "Thai AirAsia", "iata": "FD", "icao": "AIQ"}, {"name": "Air Macau", "iata": "NX", "icao": "AMU"}, {"name": "Thai Lion Air", "iata": "SL", "icao": "TLM"}]}, {"destination": {"icao": "ZBAA", "iata": "PEK", "name": "Beijing Capital", "shortName": "Capital", "municipalityName": "Beijing", "location": {"lat": 40.0801, "lon": 116.585}, "countryCode": "CN"}, "averageDailyFlights": 4.57, "operators": [{"name": "Air Macau", "iata": "NX", "icao": "AMU"}]}, {"destination": {"icao": "RKSI", "iata": "ICN", "name": "Seoul Incheon", "shortName": "Incheon", "municipalityName": "Seoul", "location": {"lat": 37.4691, "lon": 126.451}, "countryCode": "KR"}, "averageDailyFlights": 3.49, "operators": [{"name": "Jin Air", "iata": "LJ", "icao": "JNA"}, {"name": "Air Macau", "iata": "NX", "icao": "AMU"}, {"name": "Jeju Air", "iata": "7C", "icao": "JJA"}]}, {"destination": {"icao": "ZSHC", "iata": "HGH", "name": "Hangzhou Xiaoshan", "shortName": "Xiaoshan", "municipalityName": "Hangzhou", "location": {"lat": 30.2295, "lon": 120.434}, "countryCode": "CN"}, "averageDailyFlights": 3.43, "operators": [{"name": "Air Macau", "iata": "NX", "icao": "AMU"}, {"name": "Xiamen Airlines", "iata": "MF", "icao": "CXA"}]}, {"destination": {"icao": "ZSNJ", "iata": "NKG", "name": "Nanjing Lukou", "shortName": "Lukou", "municipalityName": "Nanjing", "location": {"lat": 31.742, "lon": 118.862}, "countryCode": "CN"}, "averageDailyFlights": 3.43, "operators": [{"name": "China Eastern Airlines", "iata": "MU", "icao": "CES"}, {"name": "Air Macau", "iata": "NX", "icao": "AMU"}, {"name": "Shenzhen Airlines", "iata": "ZH", "icao": "CSZ"}]}, {"destination": {"icao": "RCKH", "iata": "KHH", "name": "Kaohsiung City Kaohsiung", "shortName": "Kaohsiung", "municipalityName": "Kaohsiung City", "location": {"lat": 22.5771, "lon": 120.35}, "countryCode": "TW"}, "averageDailyFlights": 3.0, "operators": [{"name": "Tigerair Taiwan", "iata": "IT", "icao": "TTW"}, {"name": "Air Macau", "iata": "NX", "icao": "AMU"}, {"name": "EVA Air", "iata": "BR", "icao": "EVA"}]}, {"destination": {"icao": "WMKK", "iata": "KUL", "name": "Kuala Lumpur ", "shortName": "Kuala Lumpur", "municipalityName": "Kuala Lumpur", "location": {"lat": 2.745579, "lon": 101.71}, "countryCode": "MY"}, "averageDailyFlights": 2.86, "operators": [{"name": "Air Macau", "iata": "NX", "icao": "AMU"}, {"name": "AirAsia", "iata": "AK", "icao": "AXM"}]}, {"destination": {"icao": "ZSWX", "iata": "WUX", "name": "Wuxi Sunan Shuofang", "shortName": "Sunan Shuofang", "municipalityName": "Wuxi", "location": {"lat": 31.4944, "lon": 120.429}, "countryCode": "CN"}, "averageDailyFlights": 2.29, "operators": [{"name": "Shenzhen Airlines", "iata": "ZH", "icao": "CSZ"}, {"name": "China Eastern Airlines", "iata": "MU", "icao": "CES"}]}, {"destination": {"icao": "ZSAM", "iata": "XMN", "name": "Xiamen Gaoqi", "shortName": "Gaoqi", "municipalityName": "Xiamen", "location": {"lat": 24.544, "lon": 118.128}, "countryCode": "CN"}, "averageDailyFlights": 2.29, "operators": [{"name": "Xiamen Airlines", "iata": "MF", "icao": "CXA"}, {"name": "Air Macau", "iata": "NX", "icao": "AMU"}]}, {"destination": {"icao": "RPLL", "iata": "MNL", "name": "Manila Ninoy Aquino", "shortName": "Ninoy Aquino", "municipalityName": "Manila", "location": {"lat": 14.5086, "lon": 121.02}, "countryCode": "PH"}, "averageDailyFlights": 2.01, "operators": [{"name": "Philippines AirAsia", "iata": "Z2", "icao": "APG"}, {"name": "Cebu Pacific Air", "iata": "5J", "icao": "CEB"}, {"name": "Philippine Airlines", "iata": "PR", "icao": "PAL"}]}, {"destination": {"icao": "VVNB", "iata": "HAN", "name": "Hanoi Noi Bai", "shortName": "Noi Bai", "municipalityName": "Hanoi", "location": {"lat": 21.2212, "lon": 105.807}, "countryCode": "VN"}, "averageDailyFlights": 2.0, "operators": [{"name": "Air Macau", "iata": "NX", "icao": "AMU"}]}, {"destination": {"icao": "WSSS", "iata": "SIN", "name": "Singapore Changi", "shortName": "Changi", "municipalityName": "Singapore", "location": {"lat": 1.35019, "lon": 103.994}, "countryCode": "SG"}, "averageDailyFlights": 1.71, "operators": [{"name": "Air Macau", "iata": "NX", "icao": "AMU"}, {"name": "Scoot", "iata": "TR", "icao": "TGW"}]}, {"destination": {"name": "Chengdu"}, "averageDailyFlights": 1.57, "operators": [{"name": "Air Macau", "iata": "NX", "icao": "AMU"}]}, {"destination": {"icao": "VTBS", "iata": "BKK", "name": "Bangkok Suvarnabhumi", "shortName": "Suvarnabhumi", "municipalityName": "Bangkok", "location": {"lat": 13.681099, "lon": 100.747}, "countryCode": "TH"}, "averageDailyFlights": 1.14, "operators": [{"name": "Thai Vietjet Air", "iata": "VZ", "icao": "TVJ"}]}, {"destination": {"icao": "ZSCG", "iata": "CZX", "name": "Changzhou ", "shortName": "Changzhou", "municipalityName": "Changzhou", "location": {"lat": 31.9197, "lon": 119.779}, "countryCode": "CN"}, "averageDailyFlights": 1.14, "operators": [{"name": "Air Macau", "iata": "NX", "icao": "AMU"}]}, {"destination": {"icao": "VVDN", "iata": "DAD", "name": "Da Nang ", "shortName": "Da Nang", "municipalityName": "Da Nang", "location": {"lat": 16.0439, "lon": 108.199}, "countryCode": "VN"}, "averageDailyFlights": 1.14, "operators": [{"name": "Air Macau", "iata": "NX", "icao": "AMU"}]}, {"destination": {"icao": "ZSNB", "iata": "NGB", "name": "Ningbo Lishe", "shortName": "Lishe", "municipalityName": "Ningbo", "location": {"lat": 29.8267, "lon": 121.462}, "countryCode": "CN"}, "averageDailyFlights": 1.14, "operators": [{"name": "Air Macau", "iata": "NX", "icao": "AMU"}]}, {"destination": {"icao": "ZSQZ", "iata": "JJN", "name": "Quanzhou ", "shortName": "Quanzhou", "municipalityName": "Quanzhou", "location": {"lat": 24.7964, "lon": 118.59}, "countryCode": "CN"}, "averageDailyFlights": 1.14, "operators": [{"name": "Xiamen Airlines", "iata": "MF", "icao": "CXA"}]}, {"destination": {"icao": "RJAA", "iata": "NRT", "name": "Tokyo Narita", "shortName": "Narita", "municipalityName": "Tokyo", "location": {"lat": 35.7647, "lon": 140.386}, "countryCode": "JP"}, "averageDailyFlights": 1.14, "operators": [{"name": "Air Macau", "iata": "NX", "icao": "AMU"}]}, {"destination": {"icao": "ZSFZ", "iata": "FOC", "name": "Fuzhou Changle", "shortName": "Changle", "municipalityName": "Fuzhou", "location": {"lat": 25.9351, "lon": 119.663}, "countryCode": "CN"}, "averageDailyFlights": 1.0, "operators": [{"name": "Xiamen Airlines", "iata": "MF", "icao": "CXA"}, {"name": "Air Macau", "iata": "NX", "icao": "AMU"}]}, {"destination": {"icao": "RJBB", "iata": "KIX", "name": "Osaka Kansai", "shortName": "Kansai", "municipalityName": "Osaka", "location": {"lat": 34.4273, "lon": 135.244}, "countryCode": "JP"}, "averageDailyFlights": 1.0, "operators": [{"name": "Air Macau", "iata": "NX", "icao": "AMU"}]}, {"destination": {"icao": "PTRO", "iata": "ROR", "name": "Babelthuap Island Babelthuap", "shortName": "Babelthuap", "municipalityName": "Babelthuap Island", "location": {"lat": 7.36765, "lon": 134.544}, "countryCode": "PW"}, "averageDailyFlights": 0.71, "operators": [{"name": "Cambodia Airways", "iata": "KR", "icao": "KME"}]}, {"destination": {"icao": "ZBAD", "iata": "PKX", "name": "Beijing Daxing", "shortName": "Daxing", "municipalityName": "Beijing", "location": {"lat": 39.509167, "lon": 116.41055}, "countryCode": "CN"}, "averageDailyFlights": 0.71, "operators": [{"name": "China Eastern Airlines", "iata": "MU", "icao": "CES"}]}, {"destination": {"icao": "ZSOF", "iata": "HFE", "name": "Hefei Luogang", "shortName": "Luogang", "municipalityName": "Hefei", "location": {"lat": 31.78, "lon": 117.298}, "countryCode": "CN"}, "averageDailyFlights": 0.71, "operators": [{"name": "China Eastern Airlines", "iata": "MU", "icao": "CES"}]}, {"destination": {"icao": "ZSNT", "iata": "NTG", "name": "Nantong ", "shortName": "Nantong", "municipalityName": "Nantong", "location": {"lat": 32.0708, "lon": 120.976}, "countryCode": "CN"}, "averageDailyFlights": 0.71, "operators": [{"name": "Air Macau", "iata": "NX", "icao": "AMU"}]}, {"destination": {"icao": "ZSQD", "iata": "TAO", "name": "Qingdao Liuting", "shortName": "Liuting", "municipalityName": "Qingdao", "location": {"lat": 36.2661, "lon": 120.374}, "countryCode": "CN"}, "averageDailyFlights": 0.71, "operators": [{"name": "Air Macau", "iata": "NX", "icao": "AMU"}]}, {"destination": {"icao": "RCMQ", "iata": "RMQ", "name": "Taichung City Taichung Ching Chuang Kang", "shortName": "Taichung Ching Chuang Kang", "municipalityName": "Taichung City", "location": {"lat": 24.2647, "lon": 120.621}, "countryCode": "TW"}, "averageDailyFlights": 0.71, "operators": [{"name": "Tigerair Taiwan", "iata": "IT", "icao": "TTW"}]}, {"destination": {"icao": "ZHHH", "iata": "WUH", "name": "Wuhan Tianhe", "shortName": "Tianhe", "municipalityName": "Wuhan", "location": {"lat": 30.7838, "lon": 114.208}, "countryCode": "CN"}, "averageDailyFlights": 0.71, "operators": [{"name": "Air China", "iata": "CA", "icao": "CCA"}]}, {"destination": {"icao": "RKPK", "iata": "PUS", "name": "Busan-si Gimhae", "shortName": "Gimhae", "municipalityName": "Busan-si", "location": {"lat": 35.1795, "lon": 128.938}, "countryCode": "KR"}, "averageDailyFlights": 0.57, "operators": [{"name": "Air Busan", "iata": "BX", "icao": "ABL"}]}, {"destination": {"icao": "ZJHK", "iata": "HAK", "name": "Haikou Meilan", "shortName": "Meilan", "municipalityName": "Haikou", "location": {"lat": 19.9349, "lon": 110.459}, "countryCode": "CN"}, "averageDailyFlights": 0.57, "operators": [{"name": "Hainan Airlines", "iata": "HU", "icao": "CHH"}]}, {"destination": {"icao": "ZGNN", "iata": "NNG", "name": "Nanning Wuxu", "shortName": "Wuxu", "municipalityName": "Nanning", "location": {"lat": 22.6083, "lon": 108.172}, "countryCode": "CN"}, "averageDailyFlights": 0.57, "operators": [{"name": "Air Macau", "iata": "NX", "icao": "AMU"}]}, {"destination": {"icao": "ZBTJ", "iata": "TSN", "name": "Tianjin Binhai", "shortName": "Binhai", "municipalityName": "Tianjin", "location": {"lat": 39.1244, "lon": 117.346}, "countryCode": "CN"}, "averageDailyFlights": 0.57, "operators": [{"name": "Air Macau", "iata": "NX", "icao": "AMU"}]}, {"destination": {"icao": "ZSWZ", "iata": "WNZ", "name": "Wenzhou Yongqiang", "shortName": "Yongqiang", "municipalityName": "Wenzhou", "location": {"lat": 27.9122, "lon": 120.852}, "countryCode": "CN"}, "averageDailyFlights": 0.57, "operators": [{"name": "Air Macau", "iata": "NX", "icao": "AMU"}]}, {"destination": {"icao": "ZUCK", "iata": "CKG", "name": "Chongqing Jiangbei", "shortName": "Jiangbei", "municipalityName": "Chongqing", "location": {"lat": 29.7192, "lon": 106.642}, "countryCode": "CN"}, "averageDailyFlights": 0.43, "operators": [{"name": "Air Macau", "iata": "NX", "icao": "AMU"}]}, {"destination": {"icao": "RKPC", "iata": "CJU", "name": "Jeju City Jeju", "shortName": "Jeju", "municipalityName": "Jeju City", "location": {"lat": 33.5113, "lon": 126.493}, "countryCode": "KR"}, "averageDailyFlights": 0.43, "operators": [{"name": "Jeju Air", "iata": "7C", "icao": "JJA"}]}, {"destination": {"name": "Xi'an"}, "averageDailyFlights": 0.43, "operators": [{"name": "China Eastern Airlines", "iata": "MU", "icao": "CES"}]}, {"destination": {"icao": "WIII", "iata": "CGK", "name": "Jakarta Soekarno-Hatta", "shortName": "Soekarno-Hatta", "municipalityName": "Jakarta", "location": {"lat": -6.125569, "lon": 106.656}, "countryCode": "ID"}, "averageDailyFlights": 0.29, "operators": [{"name": "Air Macau", "iata": "NX", "icao": "AMU"}]}, {"destination": {"icao": "ZBYN", "iata": "TYN", "name": "Taiyuan Wusu", "shortName": "Wusu", "municipalityName": "Taiyuan", "location": {"lat": 37.7469, "lon": 112.628}, "countryCode": "CN"}, "averageDailyFlights": 0.29, "operators": [{"name": "Air Macau", "iata": "NX", "icao": "AMU"}]}, {"destination": {"name": "Taybey"}, "averageDailyFlights": 0.29, "operators": [{"name": "Air Macau", "iata": "NX", "icao": "AMU"}]}, {"destination": {"icao": "WBKK", "iata": "BKI", "name": "Kota Kinabalu ", "shortName": "Kota Kinabalu", "municipalityName": "Kota Kinabalu", "location": {"lat": 5.93721, "lon": 116.051}, "countryCode": "MY"}, "averageDailyFlights": 0.14, "operators": [{"name": "AirAsia", "iata": "AK", "icao": "AXM"}]}, {"destination": {"name": "Phnom Penh"}, "averageDailyFlights": 0.14, "operators": [{"name": "Cambodia Airways", "iata": "KR", "icao": "KME"}]}]}