{"routes": [{"destination": {"icao": "OMDB", "iata": "DXB", "name": "Dubai ", "shortName": "Dubai", "municipalityName": "Dubai", "location": {"lat": 25.252798, "lon": 55.3644}, "countryCode": "AE"}, "averageDailyFlights": 8.0, "operators": [{"name": "Emirates", "iata": "EK", "icao": "UAE"}, {"name": "flydubai", "iata": "FZ", "icao": "FDB"}]}, {"destination": {"icao": "VCBI", "iata": "CMB", "name": "Colombo Bandaranaike", "shortName": "Bandaranaike", "municipalityName": "Colombo", "location": {"lat": 7.180759, "lon": 79.8841}, "countryCode": "LK"}, "averageDailyFlights": 6.0, "operators": [{"name": "flydubai", "iata": "FZ", "icao": "FDB"}, {"name": "SriLankan Airlines", "iata": "UL", "icao": "ALK"}, {"name": "Emirates", "iata": "EK", "icao": "UAE"}, {"name": "FitsAir", "iata": "8D", "icao": "EXV"}]}, {"destination": {"icao": "OTHH", "iata": "DOH", "name": "Doha Hamad", "shortName": "Hamad", "municipalityName": "Doha", "location": {"lat": 25.273056, "lon": 51.608055}, "countryCode": "QA"}, "averageDailyFlights": 4.57, "operators": [{"name": "Qatar Airways", "iata": "QR", "icao": "QTR"}]}, {"destination": {"icao": "OMAA", "iata": "AUH", "name": "Abu Dhabi Island and Internal Islands City Abu Dhabi", "shortName": "Abu Dhabi", "municipalityName": "Abu Dhabi Island and Internal Islands City", "location": {"lat": 24.433, "lon": 54.6511}, "countryCode": "AE"}, "averageDailyFlights": 3.43, "operators": [{"name": "Etihad Airways", "iata": "EY", "icao": "ETD"}, {"name": "Wizz Air Abu Dhabi", "iata": "5W", "icao": "WAZ"}]}, {"destination": {"icao": "VRMK", "iata": "KDO", "name": "Kadhdhoo ", "shortName": "Kadhdhoo", "municipalityName": "Kadhdhoo", "location": {"lat": 1.859169, "lon": 73.5219}, "countryCode": "MV"}, "averageDailyFlights": 3.43, "operators": [{"name": "Maldivian", "iata": "Q2", "icao": "DQA"}]}, {"destination": {"icao": "VABB", "iata": "BOM", "name": "Mumbai Chhatrapati Shivaji", "shortName": "Chhatrapati Shivaji", "municipalityName": "Mumbai", "location": {"lat": 19.0887, "lon": 72.8679}, "countryCode": "IN"}, "averageDailyFlights": 2.86, "operators": [{"name": "Vistara", "iata": "UK", "icao": "VTI"}, {"name": "IndiGo", "iata": "6E", "icao": "IGO"}, {"name": "Air India", "iata": "AI", "icao": "AIC"}]}, {"destination": {"icao": "VRMH", "iata": "HAQ", "name": "Haa Dhaalu Atoll Hanimaadhoo", "shortName": "Hanimaadhoo", "municipalityName": "Haa Dhaalu Atoll", "location": {"lat": 6.744229, "lon": 73.1705}, "countryCode": "MV"}, "averageDailyFlights": 2.29, "operators": [{"name": "Maldivian", "iata": "Q2", "icao": "DQA"}]}, {"destination": {"icao": "WSSS", "iata": "SIN", "name": "Singapore Changi", "shortName": "Changi", "municipalityName": "Singapore", "location": {"lat": 1.35019, "lon": 103.994}, "countryCode": "SG"}, "averageDailyFlights": 2.29, "operators": [{"name": "Singapore Airlines", "iata": "SQ", "icao": "SIA"}]}, {"destination": {"name": "Kulhudhuffushi Airport"}, "averageDailyFlights": 2.29, "operators": [{"name": "Maldivian", "iata": "Q2", "icao": "DQA"}]}, {"destination": {"name": "Maafaru International Airport"}, "averageDailyFlights": 2.29, "operators": [{"name": "Maldivian", "iata": "Q2", "icao": "DQA"}]}, {"destination": {"icao": "VRMR", "iata": "FVM", "name": "Fuvahmulah Island Fuvahmulah", "shortName": "Fuvahmulah", "municipalityName": "Fuvahmulah Island", "location": {"lat": -0.309722, "lon": 73.435}, "countryCode": "MV"}, "averageDailyFlights": 2.14, "operators": [{"name": "Maldivian", "iata": "Q2", "icao": "DQA"}]}, {"destination": {"icao": "VOBL", "iata": "BLR", "name": "Bangalore Bengaluru", "shortName": "Bengaluru", "municipalityName": "Bangalore", "location": {"lat": 13.197899, "lon": 77.7063}, "countryCode": "IN"}, "averageDailyFlights": 2.0, "operators": [{"name": "Air India", "iata": "AI", "icao": "AIC"}, {"name": "IndiGo", "iata": "6E", "icao": "IGO"}, {"name": "Maldivian", "iata": "Q2", "icao": "DQA"}]}, {"destination": {"icao": "VOCI", "iata": "COK", "name": "Kochi Cochin", "shortName": "Cochin", "municipalityName": "Kochi", "location": {"lat": 10.152, "lon": 76.4019}, "countryCode": "IN"}, "averageDailyFlights": 1.86, "operators": [{"name": "IndiGo", "iata": "6E", "icao": "IGO"}, {"name": "Maldivian", "iata": "Q2", "icao": "DQA"}]}, {"destination": {"icao": "ZSPD", "iata": "PVG", "name": "Shanghai Pudong", "shortName": "Pudong", "municipalityName": "Shanghai", "location": {"lat": 31.1434, "lon": 121.805}, "countryCode": "CN"}, "averageDailyFlights": 1.86, "operators": [{"name": "China Eastern Airlines", "iata": "MU", "icao": "CES"}]}, {"destination": {"icao": "UUEE", "iata": "SVO", "localCode": "\u0428\u0420\u041c", "name": "Moscow Sheremetyevo", "shortName": "Sheremetyevo", "municipalityName": "Moscow", "location": {"lat": 55.9726, "lon": 37.4146}, "countryCode": "RU"}, "averageDailyFlights": 1.71, "operators": [{"name": "Aeroflot", "iata": "SU", "icao": "AFL"}]}, {"destination": {"icao": "WMKK", "iata": "KUL", "name": "Kuala Lumpur ", "shortName": "Kuala Lumpur", "municipalityName": "Kuala Lumpur", "location": {"lat": 2.745579, "lon": 101.71}, "countryCode": "MY"}, "averageDailyFlights": 1.59, "operators": [{"name": "AirAsia", "iata": "AK", "icao": "AXM"}, {"name": "Malindo Air", "iata": "OD", "icao": "MXD"}]}, {"destination": {"icao": "EGLL", "iata": "LHR", "name": "London Heathrow", "shortName": "Heathrow", "municipalityName": "London", "location": {"lat": 51.4706, "lon": -0.461941}, "countryCode": "GB"}, "averageDailyFlights": 1.57, "operators": [{"name": "British Airways", "iata": "BA", "icao": "BAW"}, {"name": "Virgin Atlantic", "iata": "VS", "icao": "VIR"}]}, {"destination": {"icao": "VTBD", "iata": "DMK", "name": "Bangkok Don Mueang", "shortName": "Don Mueang", "municipalityName": "Bangkok", "location": {"lat": 13.912599, "lon": 100.607}, "countryCode": "TH"}, "averageDailyFlights": 1.14, "operators": [{"name": "Thai AirAsia", "iata": "FD", "icao": "AIQ"}]}, {"destination": {"icao": "OBBI", "iata": "BAH", "name": "Manama Bahrain", "shortName": "Bahrain", "municipalityName": "Manama", "location": {"lat": 26.2708, "lon": 50.6336}, "countryCode": "BH"}, "averageDailyFlights": 1.14, "operators": [{"name": "Gulf Air", "iata": "GF", "icao": "GFA"}]}, {"destination": {"icao": "VIDP", "iata": "DEL", "name": "New Delhi Indira Gandhi", "shortName": "Indira Gandhi", "municipalityName": "New Delhi", "location": {"lat": 28.5665, "lon": 77.1031}, "countryCode": "IN"}, "averageDailyFlights": 1.14, "operators": [{"name": "Vistara", "iata": "UK", "icao": "VTI"}]}, {"destination": {"icao": "VGHS", "iata": "DAC", "name": "Dhaka Hazrat Shahjalal", "shortName": "Hazrat Shahjalal", "municipalityName": "Dhaka", "location": {"lat": 23.843348, "lon": 90.39778}, "countryCode": "BD"}, "averageDailyFlights": 1.0, "operators": [{"name": "US-Bangla Airlines", "iata": "BS", "icao": "UBG"}, {"name": "Maldivian", "iata": "Q2", "icao": "DQA"}]}, {"destination": {"icao": "EDDF", "iata": "FRA", "name": "Frankfurt-am-Main ", "shortName": "Frankfurt-am-Main", "municipalityName": "Frankfurt-am-Main", "location": {"lat": 50.0264, "lon": 8.543129}, "countryCode": "DE"}, "averageDailyFlights": 1.0, "operators": [{"name": "Flight Alaska"}, {"name": "Condor", "iata": "DE", "icao": "CFG"}]}, {"destination": {"icao": "VHHH", "iata": "HKG", "name": "Hong Kong Chek Lap Kok", "shortName": "Chek Lap Kok", "municipalityName": "Hong Kong", "location": {"lat": 22.3089, "lon": 113.915}, "countryCode": "HK"}, "averageDailyFlights": 1.0, "operators": [{"name": "Hong Kong Airlines", "iata": "HX", "icao": "CRK"}]}, {"destination": {"icao": "VRMO", "iata": "GKK", "name": "Huvadhu Atoll Kooddoo", "shortName": "Kooddoo", "municipalityName": "Huvadhu Atoll", "location": {"lat": 0.7324, "lon": 73.4336}, "countryCode": "MV"}, "averageDailyFlights": 1.0, "operators": [{"name": "Maldivian", "iata": "Q2", "icao": "DQA"}]}, {"destination": {"icao": "VTBS", "iata": "BKK", "name": "Bangkok Suvarnabhumi", "shortName": "Suvarnabhumi", "municipalityName": "Bangkok", "location": {"lat": 13.681099, "lon": 100.747}, "countryCode": "TH"}, "averageDailyFlights": 0.71, "operators": [{"name": "Bangkok Airways", "iata": "PG", "icao": "BKP"}]}, {"destination": {"icao": "VOTV", "iata": "TRV", "name": "Trivandrum ", "shortName": "Trivandrum", "municipalityName": "Trivandrum", "location": {"lat": 8.482119, "lon": 76.9201}, "countryCode": "IN"}, "averageDailyFlights": 0.71, "operators": [{"name": "Maldivian", "iata": "Q2", "icao": "DQA"}]}, {"destination": {"name": "Maavarulu Airport"}, "averageDailyFlights": 0.71, "operators": [{"name": "Maldivian", "iata": "Q2", "icao": "DQA"}]}, {"destination": {"icao": "LSZH", "iata": "ZRH", "name": "Zurich Kloten", "shortName": "Kloten", "municipalityName": "Zurich", "location": {"lat": 47.4647, "lon": 8.549169}, "countryCode": "CH"}, "averageDailyFlights": 0.66, "operators": [{"name": "Edelweiss Air", "iata": "WK", "icao": "EDW"}, {"name": "ZanAir", "iata": "B4", "icao": "TAN"}]}, {"destination": {"icao": "UAAA", "iata": "ALA", "localCode": "\u0410\u041b\u0410", "name": "Almaty ", "shortName": "Almaty", "municipalityName": "Almaty", "location": {"lat": 43.3521, "lon": 77.0405}, "countryCode": "KZ"}, "averageDailyFlights": 0.57, "operators": [{"name": "Air Astana", "iata": "KC", "icao": "KZR"}]}, {"destination": {"icao": "ZBAD", "iata": "PKX", "name": "Beijing Daxing", "shortName": "Daxing", "municipalityName": "Beijing", "location": {"lat": 39.509167, "lon": 116.41055}, "countryCode": "CN"}, "averageDailyFlights": 0.57, "operators": [{"name": "Beijing Capital Airlines", "iata": "JD", "icao": "CBJ"}]}, {"destination": {"icao": "OOMS", "iata": "MCT", "name": "Muscat ", "shortName": "Muscat", "municipalityName": "Muscat", "location": {"lat": 23.5933, "lon": 58.2844}, "countryCode": "OM"}, "averageDailyFlights": 0.57, "operators": [{"name": "Oman Air", "iata": "WY", "icao": "OMA"}]}, {"destination": {"icao": "LIRF", "iata": "FCO", "name": "Rome Leonardo da Vinci\u2013Fiumicino", "shortName": "Leonardo da Vinci\u2013Fiumicino", "municipalityName": "Rome", "location": {"lat": 41.8045, "lon": 12.2508}, "countryCode": "IT"}, "averageDailyFlights": 0.57, "operators": [{"name": "ITA Airways", "iata": "AZ", "icao": "ITY"}, {"name": "Neos", "iata": "NO", "icao": "NOS"}]}, {"destination": {"icao": "LOWW", "iata": "VIE", "name": "Vienna Schwechat", "shortName": "Schwechat", "municipalityName": "Vienna", "location": {"lat": 48.1103, "lon": 16.5697}, "countryCode": "AT"}, "averageDailyFlights": 0.57, "operators": [{"name": "Austrian", "iata": "OS", "icao": "AUA"}]}, {"destination": {"name": "Chengdu"}, "averageDailyFlights": 0.57, "operators": [{"name": "Sichuan Airlines", "iata": "3U", "icao": "CSC"}]}, {"destination": {"icao": "OERK", "iata": "RUH", "name": "Riyadh King Khaled", "shortName": "King Khaled", "municipalityName": "Riyadh", "location": {"lat": 24.9576, "lon": 46.6988}, "countryCode": "SA"}, "averageDailyFlights": 0.5, "operators": [{"name": "Saudi Arabian Airlines", "iata": "SV", "icao": "SVA"}, {"name": "ZanAir", "iata": "B4", "icao": "TAN"}]}, {"destination": {"icao": "VOHS", "iata": "HYD", "name": "Hyderabad Rajiv Gandhi", "shortName": "Rajiv Gandhi", "municipalityName": "Hyderabad", "location": {"lat": 17.231318, "lon": 78.429855}, "countryCode": "IN"}, "averageDailyFlights": 0.43, "operators": [{"name": "IndiGo", "iata": "6E", "icao": "IGO"}]}, {"destination": {"icao": "UUWW", "iata": "VKO", "localCode": "\u0412\u041d\u041a", "name": "Moscow Vnukovo", "shortName": "Vnukovo", "municipalityName": "Moscow", "location": {"lat": 55.5915, "lon": 37.2615}, "countryCode": "RU"}, "averageDailyFlights": 0.43, "operators": [{"name": "AZUR Air", "iata": "ZF", "icao": "KTK"}]}, {"destination": {"icao": "LIMC", "iata": "MXP", "name": "Milan Malpensa", "shortName": "Malpensa", "municipalityName": "Milan", "location": {"lat": 45.6306, "lon": 8.72811}, "countryCode": "IT"}, "averageDailyFlights": 0.29, "operators": [{"name": "Neos", "iata": "NO", "icao": "NOS"}]}, {"destination": {"name": "Timarafushi"}, "averageDailyFlights": 0.29, "operators": [{"name": "Maldivian", "iata": "Q2", "icao": "DQA"}]}, {"destination": {"icao": "ZSHC", "iata": "HGH", "name": "Hangzhou Xiaoshan", "shortName": "Xiaoshan", "municipalityName": "Hangzhou", "location": {"lat": 30.2295, "lon": 120.434}, "countryCode": "CN"}, "averageDailyFlights": 0.14, "operators": [{"name": "Beijing Capital Airlines", "iata": "JD", "icao": "CBJ"}]}, {"destination": {"name": "Fuvamula"}, "averageDailyFlights": 0.14, "operators": [{"name": "Maldivian", "iata": "Q2", "icao": "DQA"}]}, {"destination": {"name": "Gaafu Alif"}, "averageDailyFlights": 0.14, "operators": [{"name": "Maldivian", "iata": "Q2", "icao": "DQA"}]}, {"destination": {"name": "Ifuru"}, "averageDailyFlights": 0.14, "operators": [{"name": "Maldivian", "iata": "Q2", "icao": "DQA"}]}, {"destination": {"name": "Istanbul"}, "averageDailyFlights": 0.14, "operators": [{"name": "Turkish Airlines", "iata": "TK", "icao": "THY"}]}]}