{"routes": [{"destination": {"icao": "VTBD", "iata": "DMK", "name": "Bangkok Don Mueang", "shortName": "Don Mueang", "municipalityName": "Bangkok", "location": {"lat": 13.912599, "lon": 100.607}, "countryCode": "TH"}, "averageDailyFlights": 24.57, "operators": [{"name": "Thai AirAsia", "iata": "FD", "icao": "AIQ"}, {"name": "Thai Lion Air", "iata": "SL", "icao": "TLM"}, {"name": "Nok Air", "iata": "DD", "icao": "NOK"}]}, {"destination": {"icao": "VTBS", "iata": "BKK", "name": "Bangkok Suvarnabhumi", "shortName": "Suvarnabhumi", "municipalityName": "Bangkok", "location": {"lat": 13.681099, "lon": 100.747}, "countryCode": "TH"}, "averageDailyFlights": 23.0, "operators": [{"name": "Thai Vietjet Air", "iata": "VZ", "icao": "TVJ"}, {"name": "Thai Airways International", "iata": "TG", "icao": "THA"}, {"name": "Bangkok Airways", "iata": "PG", "icao": "BKP"}]}, {"destination": {"icao": "WSSS", "iata": "SIN", "name": "Singapore Changi", "shortName": "Changi", "municipalityName": "Singapore", "location": {"lat": 1.35019, "lon": 103.994}, "countryCode": "SG"}, "averageDailyFlights": 10.48, "operators": [{"name": "Singapore Airlines", "iata": "SQ", "icao": "SIA"}, {"name": "Thai AirAsia", "iata": "FD", "icao": "AIQ"}, {"name": "Jetstar Asia", "iata": "3K", "icao": "JSA"}, {"name": "Scoot", "iata": "TR", "icao": "TGW"}]}, {"destination": {"icao": "WMKK", "iata": "KUL", "name": "Kuala Lumpur ", "shortName": "Kuala Lumpur", "municipalityName": "Kuala Lumpur", "location": {"lat": 2.745579, "lon": 101.71}, "countryCode": "MY"}, "averageDailyFlights": 8.29, "operators": [{"name": "AirAsia", "iata": "AK", "icao": "AXM"}, {"name": "Malaysia Airlines", "iata": "MH", "icao": "MAS"}, {"name": "Malindo Air", "iata": "OD", "icao": "MXD"}]}, {"destination": {"icao": "ZSPD", "iata": "PVG", "name": "Shanghai Pudong", "shortName": "Pudong", "municipalityName": "Shanghai", "location": {"lat": 31.1434, "lon": 121.805}, "countryCode": "CN"}, "averageDailyFlights": 7.14, "operators": [{"name": "Shanghai Airlines", "iata": "FM", "icao": "CSH"}, {"name": "Spring Airlines", "iata": "9C", "icao": "CQH"}, {"name": "Juneyao Airlines", "iata": "HO", "icao": "DKH"}]}, {"destination": {"icao": "VHHH", "iata": "HKG", "name": "Hong Kong Chek Lap Kok", "shortName": "Chek Lap Kok", "municipalityName": "Hong Kong", "location": {"lat": 22.3089, "lon": 113.915}, "countryCode": "HK"}, "averageDailyFlights": 6.43, "operators": [{"name": "Hong Kong Express", "iata": "UO", "icao": "HKE"}, {"name": "Cathay Pacific", "iata": "CX", "icao": "CPA"}, {"name": "Thai AirAsia", "iata": "FD", "icao": "AIQ"}, {"name": "Hong Kong Airlines", "iata": "HX", "icao": "CRK"}]}, {"destination": {"name": "Chengdu"}, "averageDailyFlights": 4.71, "operators": [{"name": "Sichuan Airlines", "iata": "3U", "icao": "CSC"}, {"name": "Air China", "iata": "CA", "icao": "CCA"}, {"name": "Nok Air", "iata": "DD", "icao": "NOK"}, {"name": "China Eastern Airlines", "iata": "MU", "icao": "CES"}]}, {"destination": {"icao": "VTCC", "iata": "CNX", "name": "Chiangmai Chiang Mai", "shortName": "Chiang Mai", "municipalityName": "Chiangmai", "location": {"lat": 18.7668, "lon": 98.9626}, "countryCode": "TH"}, "averageDailyFlights": 4.57, "operators": [{"name": "Thai Vietjet Air", "iata": "VZ", "icao": "TVJ"}, {"name": "Thai AirAsia", "iata": "FD", "icao": "AIQ"}]}, {"destination": {"icao": "ZBAA", "iata": "PEK", "name": "Beijing Capital", "shortName": "Capital", "municipalityName": "Beijing", "location": {"lat": 40.0801, "lon": 116.585}, "countryCode": "CN"}, "averageDailyFlights": 3.43, "operators": [{"name": "Air China", "iata": "CA", "icao": "CCA"}, {"name": "Hainan Airlines", "iata": "HU", "icao": "CHH"}]}, {"destination": {"icao": "OTHH", "iata": "DOH", "name": "Doha Hamad", "shortName": "Hamad", "municipalityName": "Doha", "location": {"lat": 25.273056, "lon": 51.608055}, "countryCode": "QA"}, "averageDailyFlights": 3.43, "operators": [{"name": "Qatar Airways", "iata": "QR", "icao": "QTR"}]}, {"destination": {"icao": "UUEE", "iata": "SVO", "localCode": "\u0428\u0420\u041c", "name": "Moscow Sheremetyevo", "shortName": "Sheremetyevo", "municipalityName": "Moscow", "location": {"lat": 55.9726, "lon": 37.4146}, "countryCode": "RU"}, "averageDailyFlights": 3.14, "operators": [{"name": "Aeroflot", "iata": "SU", "icao": "AFL"}, {"name": "Pegas Fly", "iata": "EO", "icao": "KAR"}]}, {"destination": {"icao": "OMAA", "iata": "AUH", "name": "Abu Dhabi Island and Internal Islands City Abu Dhabi", "shortName": "Abu Dhabi", "municipalityName": "Abu Dhabi Island and Internal Islands City", "location": {"lat": 24.433, "lon": 54.6511}, "countryCode": "AE"}, "averageDailyFlights": 2.29, "operators": [{"name": "Etihad Airways", "iata": "EY", "icao": "ETD"}]}, {"destination": {"icao": "OMDB", "iata": "DXB", "name": "Dubai ", "shortName": "Dubai", "municipalityName": "Dubai", "location": {"lat": 25.252798, "lon": 55.3644}, "countryCode": "AE"}, "averageDailyFlights": 2.29, "operators": [{"name": "Emirates", "iata": "EK", "icao": "UAE"}]}, {"destination": {"icao": "VIDP", "iata": "DEL", "name": "New Delhi Indira Gandhi", "shortName": "Indira Gandhi", "municipalityName": "New Delhi", "location": {"lat": 28.5665, "lon": 77.1031}, "countryCode": "IN"}, "averageDailyFlights": 2.29, "operators": [{"name": "Air India", "iata": "AI", "icao": "AIC"}, {"name": "IndiGo", "iata": "6E", "icao": "IGO"}]}, {"destination": {"icao": "ZGGG", "iata": "CAN", "name": "Guangzhou Baiyun", "shortName": "Baiyun", "municipalityName": "Guangzhou", "location": {"lat": 23.3924, "lon": 113.299}, "countryCode": "CN"}, "averageDailyFlights": 2.14, "operators": [{"name": "China Southern Airlines", "iata": "CZ", "icao": "CSN"}]}, {"destination": {"icao": "VABB", "iata": "BOM", "name": "Mumbai Chhatrapati Shivaji", "shortName": "Chhatrapati Shivaji", "municipalityName": "Mumbai", "location": {"lat": 19.0887, "lon": 72.8679}, "countryCode": "IN"}, "averageDailyFlights": 2.0, "operators": [{"name": "IndiGo", "iata": "6E", "icao": "IGO"}]}, {"destination": {"icao": "OOMS", "iata": "MCT", "name": "Muscat ", "shortName": "Muscat", "municipalityName": "Muscat", "location": {"lat": 23.5933, "lon": 58.2844}, "countryCode": "OM"}, "averageDailyFlights": 1.86, "operators": [{"name": "Oman Air", "iata": "WY", "icao": "OMA"}, {"name": "SalamAir", "iata": "OV", "icao": "OMS"}]}, {"destination": {"icao": "WMKP", "iata": "PEN", "name": "Penang ", "shortName": "Penang", "municipalityName": "Penang", "location": {"lat": 5.29714, "lon": 100.277}, "countryCode": "MY"}, "averageDailyFlights": 1.86, "operators": [{"name": "Qatar Airways", "iata": "QR", "icao": "QTR"}, {"name": "Firefly", "iata": "FY", "icao": "FFM"}]}, {"destination": {"icao": "ZUCK", "iata": "CKG", "name": "Chongqing Jiangbei", "shortName": "Jiangbei", "municipalityName": "Chongqing", "location": {"lat": 29.7192, "lon": 106.642}, "countryCode": "CN"}, "averageDailyFlights": 1.71, "operators": [{"name": "Chongqing Airlines", "iata": "OQ", "icao": "CQN"}, {"name": "Sichuan Airlines", "iata": "3U", "icao": "CSC"}]}, {"destination": {"icao": "ZLXY", "iata": "XIY", "name": "Xianyang Xi'an", "shortName": "Xi'an", "municipalityName": "Xianyang", "location": {"lat": 34.4471, "lon": 108.752}, "countryCode": "CN"}, "averageDailyFlights": 1.71, "operators": [{"name": "China Eastern Airlines", "iata": "MU", "icao": "CES"}, {"name": "Thai Lion Air", "iata": "SL", "icao": "TLM"}]}, {"destination": {"name": "Almaty"}, "averageDailyFlights": 1.29, "operators": [{"name": "Air Astana", "iata": "KC", "icao": "KZR"}]}, {"destination": {"icao": "ZSHC", "iata": "HGH", "name": "Hangzhou Xiaoshan", "shortName": "Xiaoshan", "municipalityName": "Hangzhou", "location": {"lat": 30.2295, "lon": 120.434}, "countryCode": "CN"}, "averageDailyFlights": 1.14, "operators": [{"name": "Air China", "iata": "CA", "icao": "CCA"}]}, {"destination": {"icao": "VVTS", "iata": "SGN", "name": "Ho Chi Minh City Tan Son Nhat", "shortName": "Tan Son Nhat", "municipalityName": "Ho Chi Minh City", "location": {"lat": 10.818799, "lon": 106.652}, "countryCode": "VN"}, "averageDailyFlights": 1.14, "operators": [{"name": "VietJetAir", "iata": "VJ", "icao": "VJC"}]}, {"destination": {"icao": "ZPPP", "iata": "KMG", "name": "Kunming Changshui", "shortName": "Changshui", "municipalityName": "Kunming", "location": {"lat": 25.101944, "lon": 102.92917}, "countryCode": "CN"}, "averageDailyFlights": 1.14, "operators": [{"name": "China Eastern Airlines", "iata": "MU", "icao": "CES"}]}, {"destination": {"icao": "ZSNJ", "iata": "NKG", "name": "Nanjing Lukou", "shortName": "Lukou", "municipalityName": "Nanjing", "location": {"lat": 31.742, "lon": 118.862}, "countryCode": "CN"}, "averageDailyFlights": 1.14, "operators": [{"name": "China Eastern Airlines", "iata": "MU", "icao": "CES"}]}, {"destination": {"icao": "RKSI", "iata": "ICN", "name": "Seoul Incheon", "shortName": "Incheon", "municipalityName": "Seoul", "location": {"lat": 37.4691, "lon": 126.451}, "countryCode": "KR"}, "averageDailyFlights": 1.02, "operators": [{"name": "Jin Air", "iata": "LJ", "icao": "JNA"}]}, {"destination": {"icao": "UNNT", "iata": "OVB", "localCode": "\u0422\u041b\u0427", "name": "Novosibirsk Tolmachevo", "shortName": "Tolmachevo", "municipalityName": "Novosibirsk", "location": {"lat": 55.0126, "lon": 82.6507}, "countryCode": "RU"}, "averageDailyFlights": 1.0, "operators": [{"name": "AZUR Air", "iata": "ZF", "icao": "KTK"}, {"name": "Aeroflot", "iata": "SU", "icao": "AFL"}, {"name": "Pegas Fly", "iata": "EO", "icao": "KAR"}, {"name": "Red Wings", "iata": "WZ", "icao": "RWZ"}]}, {"destination": {"icao": "UIII", "iata": "IKT", "localCode": "\u0418\u041a\u0422", "name": "Irkutsk ", "shortName": "Irkutsk", "municipalityName": "Irkutsk", "location": {"lat": 52.268, "lon": 104.389}, "countryCode": "RU"}, "averageDailyFlights": 0.86, "operators": [{"name": "Aeroflot", "iata": "SU", "icao": "AFL"}, {"name": "Pegas Fly", "iata": "EO", "icao": "KAR"}, {"name": "AZUR Air", "iata": "ZF", "icao": "KTK"}]}, {"destination": {"icao": "UTTT", "iata": "TAS", "localCode": "\u0422\u0410\u0421", "name": "Tashkent ", "shortName": "Tashkent", "municipalityName": "Tashkent", "location": {"lat": 41.2579, "lon": 69.2812}, "countryCode": "UZ"}, "averageDailyFlights": 0.86, "operators": [{"name": "Uzbekistan Airways", "iata": "HY", "icao": "UZB"}, {"name": "Taban Airlines", "iata": "HH", "icao": "TBN"}]}, {"destination": {"icao": "VTCT", "iata": "CEI", "name": "Chiang Rai ", "shortName": "Chiang Rai", "municipalityName": "Chiang Rai", "location": {"lat": 19.9523, "lon": 99.8829}, "countryCode": "TH"}, "averageDailyFlights": 0.71, "operators": [{"name": "Thai Vietjet Air", "iata": "VZ", "icao": "TVJ"}]}, {"destination": {"icao": "VTUK", "iata": "KKC", "name": "Khon Kaen ", "shortName": "Khon Kaen", "municipalityName": "Khon Kaen", "location": {"lat": 16.4666, "lon": 102.784}, "countryCode": "TH"}, "averageDailyFlights": 0.71, "operators": [{"name": "Thai AirAsia", "iata": "FD", "icao": "AIQ"}]}, {"destination": {"icao": "VTUD", "iata": "UTH", "name": "Udon Thani ", "shortName": "Udon Thani", "municipalityName": "Udon Thani", "location": {"lat": 17.3864, "lon": 102.788}, "countryCode": "TH"}, "averageDailyFlights": 0.71, "operators": [{"name": "Thai AirAsia", "iata": "FD", "icao": "AIQ"}]}, {"destination": {"icao": "ZHCC", "iata": "CGO", "name": "Zhengzhou Xinzheng", "shortName": "Xinzheng", "municipalityName": "Zhengzhou", "location": {"lat": 34.5197, "lon": 113.841}, "countryCode": "CN"}, "averageDailyFlights": 0.71, "operators": [{"name": "Thai Vietjet Air", "iata": "VZ", "icao": "TVJ"}]}, {"destination": {"icao": "UNKL", "iata": "KJA", "localCode": "\u041a\u042f\u0410", "name": "Krasnoyarsk Yemelyanovo", "shortName": "Yemelyanovo", "municipalityName": "Krasnoyarsk", "location": {"lat": 56.1729, "lon": 92.4933}, "countryCode": "RU"}, "averageDailyFlights": 0.69, "operators": [{"name": "AZUR Air", "iata": "ZF", "icao": "KTK"}, {"name": "Aeroflot", "iata": "SU", "icao": "AFL"}, {"name": "Pegas Fly", "iata": "EO", "icao": "KAR"}]}, {"destination": {"icao": "USSS", "iata": "SVX", "localCode": "\u041a\u041b\u0426", "name": "Ekaterinburg Koltsovo", "shortName": "Koltsovo", "municipalityName": "Ekaterinburg", "location": {"lat": 56.7431, "lon": 60.8027}, "countryCode": "RU"}, "averageDailyFlights": 0.66, "operators": [{"name": "Red Wings", "iata": "WZ", "icao": "RWZ"}, {"name": "Aeroflot", "iata": "SU", "icao": "AFL"}, {"name": "Pegas Fly", "iata": "EO", "icao": "KAR"}]}, {"destination": {"icao": "ZUGY", "iata": "KWE", "name": "Guiyang Longdongbao", "shortName": "Longdongbao", "municipalityName": "Guiyang", "location": {"lat": 26.5385, "lon": 106.801}, "countryCode": "CN"}, "averageDailyFlights": 0.57, "operators": [{"name": "9 Air Co", "iata": "AQ", "icao": "JYH"}]}, {"destination": {"icao": "EFHK", "iata": "HEL", "name": "Helsinki Vantaa", "shortName": "Vantaa", "municipalityName": "Helsinki", "location": {"lat": 60.3172, "lon": 24.9633}, "countryCode": "FI"}, "averageDailyFlights": 0.57, "operators": [{"name": "Finnair", "iata": "AY", "icao": "FIN"}]}, {"destination": {"icao": "ZLLL", "iata": "LHW", "name": "Lanzhou Zhongchuan", "shortName": "Zhongchuan", "municipalityName": "Lanzhou", "location": {"lat": 36.5152, "lon": 103.62}, "countryCode": "CN"}, "averageDailyFlights": 0.57, "operators": [{"name": "China Eastern Airlines", "iata": "MU", "icao": "CES"}]}, {"destination": {"icao": "OMSJ", "iata": "SHJ", "name": "Sharjah ", "shortName": "Sharjah", "municipalityName": "Sharjah", "location": {"lat": 25.3286, "lon": 55.5172}, "countryCode": "AE"}, "averageDailyFlights": 0.57, "operators": [{"name": "Air Arabia", "iata": "G9", "icao": "ABY"}]}, {"destination": {"icao": "ZBYN", "iata": "TYN", "name": "Taiyuan Wusu", "shortName": "Wusu", "municipalityName": "Taiyuan", "location": {"lat": 37.7469, "lon": 112.628}, "countryCode": "CN"}, "averageDailyFlights": 0.57, "operators": [{"name": "China Eastern Airlines", "iata": "MU", "icao": "CES"}]}, {"destination": {"icao": "UUBW", "iata": "ZIA", "localCode": "\u0416\u0423\u041a", "name": "Moscow Zhukovsky", "shortName": "Zhukovsky", "municipalityName": "Moscow", "location": {"lat": 55.5533, "lon": 38.15}, "countryCode": "RU"}, "averageDailyFlights": 0.45, "operators": [{"name": "Red Wings", "iata": "WZ", "icao": "RWZ"}, {"name": "AZUR Air", "iata": "ZF", "icao": "KTK"}]}, {"destination": {"icao": "ULLI", "iata": "LED", "localCode": "\u041f\u041b\u041a", "name": "Saint-Petersburg Pulkovo", "shortName": "Pulkovo", "municipalityName": "Saint-Petersburg", "location": {"lat": 59.8003, "lon": 30.2625}, "countryCode": "RU"}, "averageDailyFlights": 0.43, "operators": [{"name": "Aeroflot", "iata": "SU", "icao": "AFL"}, {"name": "Red Wings", "iata": "WZ", "icao": "RWZ"}]}, {"destination": {"icao": "LLBG", "iata": "TLV", "name": "Tel Aviv Yafo Ben Gurion", "shortName": "Ben Gurion", "municipalityName": "Tel Aviv Yafo", "location": {"lat": 32.0114, "lon": 34.8867}, "countryCode": "IL"}, "averageDailyFlights": 0.43, "operators": [{"name": "El Al", "iata": "LY", "icao": "ELY"}]}, {"destination": {"icao": "UHWW", "iata": "VVO", "localCode": "\u0412\u0412\u041e", "name": "Vladivostok Knevichi", "shortName": "Knevichi", "municipalityName": "Vladivostok", "location": {"lat": 43.399, "lon": 132.148}, "countryCode": "RU"}, "averageDailyFlights": 0.43, "operators": [{"name": "Aeroflot", "iata": "SU", "icao": "AFL"}, {"name": "AZUR Air", "iata": "ZF", "icao": "KTK"}]}, {"destination": {"name": "Ulaan Baatar"}, "averageDailyFlights": 0.43, "operators": [{"name": "Miat - Mongolian Airlines", "iata": "OM", "icao": "MGL"}]}, {"destination": {"icao": "UHHH", "iata": "KHV", "localCode": "\u0425\u0411\u0420", "name": "Khabarovsk Novy", "shortName": "Novy", "municipalityName": "Khabarovsk", "location": {"lat": 48.528, "lon": 135.188}, "countryCode": "RU"}, "averageDailyFlights": 0.32, "operators": [{"name": "Aeroflot", "iata": "SU", "icao": "AFL"}, {"name": "Pegas Fly", "iata": "EO", "icao": "KAR"}]}, {"destination": {"icao": "LKTB", "iata": "BRQ", "name": "Brno -Tu\u0159any", "shortName": "-Tu\u0159any", "municipalityName": "Brno", "location": {"lat": 49.1513, "lon": 16.6944}, "countryCode": "CZ"}, "averageDailyFlights": 0.29, "operators": [{"name": "Neos", "iata": "NO", "icao": "NOS"}]}, {"destination": {"icao": "UWKD", "iata": "KZN", "name": "Kazan ", "shortName": "Kazan", "municipalityName": "Kazan", "location": {"lat": 55.6062, "lon": 49.2787}, "countryCode": "RU"}, "averageDailyFlights": 0.29, "operators": [{"name": "Red Wings", "iata": "WZ", "icao": "RWZ"}, {"name": "AZUR Air", "iata": "ZF", "icao": "KTK"}]}, {"destination": {"icao": "YMML", "iata": "MEL", "name": "Melbourne City Melbourne", "shortName": "Melbourne", "municipalityName": "Melbourne City", "location": {"lat": -37.6733, "lon": 144.843}, "countryCode": "AU"}, "averageDailyFlights": 0.29, "operators": [{"name": "Jetstar", "iata": "JQ", "icao": "JST"}]}, {"destination": {"icao": "UWWW", "iata": "KUF", "localCode": "\u0421\u041a\u0427", "name": "Samara Kurumoch", "shortName": "Kurumoch", "municipalityName": "Samara", "location": {"lat": 53.5049, "lon": 50.1643}, "countryCode": "RU"}, "averageDailyFlights": 0.29, "operators": [{"name": "AZUR Air", "iata": "ZF", "icao": "KTK"}]}, {"destination": {"icao": "YSSY", "iata": "SYD", "name": "Sydney City Sydney Kingsford Smith", "shortName": "Sydney Kingsford Smith", "municipalityName": "Sydney City", "location": {"lat": -33.9461, "lon": 151.177}, "countryCode": "AU"}, "averageDailyFlights": 0.29, "operators": [{"name": "Jetstar", "iata": "JQ", "icao": "JST"}]}, {"destination": {"icao": "LSZH", "iata": "ZRH", "name": "Zurich Kloten", "shortName": "Kloten", "municipalityName": "Zurich", "location": {"lat": 47.4647, "lon": 8.549169}, "countryCode": "CH"}, "averageDailyFlights": 0.29, "operators": [{"name": "Edelweiss Air", "iata": "WK", "icao": "EDW"}]}, {"destination": {"name": "Istanbul"}, "averageDailyFlights": 0.29, "operators": [{"name": "Turkish Airlines", "iata": "TK", "icao": "THY"}]}, {"destination": {"name": "Ufa"}, "averageDailyFlights": 0.29, "operators": [{"name": "Red Wings", "iata": "WZ", "icao": "RWZ"}, {"name": "AZUR Air", "iata": "ZF", "icao": "KTK"}]}, {"destination": {"name": "Zhukovsky"}, "averageDailyFlights": 0.29, "operators": [{"name": "Red Wings", "iata": "WZ", "icao": "RWZ"}]}, {"destination": {"icao": "UNOO", "iata": "OMS", "localCode": "\u041e\u041c\u0421", "name": "Omsk Central", "shortName": "Central", "municipalityName": "Omsk", "location": {"lat": 54.967, "lon": 73.3105}, "countryCode": "RU"}, "averageDailyFlights": 0.14, "operators": [{"name": "AZUR Air", "iata": "ZF", "icao": "KTK"}]}, {"destination": {"icao": "USPP", "iata": "PEE", "localCode": "\u041f\u0420\u042c", "name": "Perm Bolshoye Savino", "shortName": "Bolshoye Savino", "municipalityName": "Perm", "location": {"lat": 57.9145, "lon": 56.0212}, "countryCode": "RU"}, "averageDailyFlights": 0.14, "operators": [{"name": "AZUR Air", "iata": "ZF", "icao": "KTK"}]}, {"destination": {"icao": "URSS", "iata": "AER", "localCode": "\u0421\u041e\u0427", "name": "Sochi ", "shortName": "Sochi", "municipalityName": "Sochi", "location": {"lat": 43.4499, "lon": 39.9566}, "countryCode": "RU"}, "averageDailyFlights": 0.14, "operators": [{"name": "AZUR Air", "iata": "ZF", "icao": "KTK"}]}, {"destination": {"icao": "OIIE", "iata": "IKA", "name": "Tehran Imam Khomeini", "shortName": "Imam Khomeini", "municipalityName": "Tehran", "location": {"lat": 35.4161, "lon": 51.1522}, "countryCode": "IR"}, "averageDailyFlights": 0.14, "operators": [{"name": "Mahan Air", "iata": "W5", "icao": "IRM"}]}, {"destination": {"icao": "UNTT", "iata": "TOF", "localCode": "\u0422\u0421\u041a", "name": "Tomsk Bogashevo", "shortName": "Bogashevo", "municipalityName": "Tomsk", "location": {"lat": 56.3803, "lon": 85.2083}, "countryCode": "RU"}, "averageDailyFlights": 0.14, "operators": [{"name": "AZUR Air", "iata": "ZF", "icao": "KTK"}]}, {"destination": {"icao": "USTR", "iata": "TJM", "localCode": "\u0420\u0429\u041d", "name": "Tyumen Roshchino", "shortName": "Roshchino", "municipalityName": "Tyumen", "location": {"lat": 57.1896, "lon": 65.3243}, "countryCode": "RU"}, "averageDailyFlights": 0.14, "operators": [{"name": "AZUR Air", "iata": "ZF", "icao": "KTK"}]}]}