{"routes": [{"destination": {"icao": "VVNB", "iata": "HAN", "name": "Hanoi Noi Bai", "shortName": "Noi Bai", "municipalityName": "Hanoi", "location": {"lat": 21.2212, "lon": 105.807}, "countryCode": "VN"}, "averageDailyFlights": 6.71, "operators": [{"name": "VietJetAir", "iata": "VJ", "icao": "VJC"}, {"name": "Vietnam Airlines", "iata": "VN", "icao": "HVN"}]}, {"destination": {"icao": "VVDN", "iata": "DAD", "name": "Da Nang ", "shortName": "Da Nang", "municipalityName": "Da Nang", "location": {"lat": 16.0439, "lon": 108.199}, "countryCode": "VN"}, "averageDailyFlights": 1.71, "operators": [{"name": "VietJetAir", "iata": "VJ", "icao": "VJC"}, {"name": "Vietnam Airlines", "iata": "VN", "icao": "HVN"}]}, {"destination": {"icao": "VVVH", "iata": "VII", "name": "Vinh ", "shortName": "Vinh", "municipalityName": "Vinh", "location": {"lat": 18.7376, "lon": 105.671}, "countryCode": "VN"}, "averageDailyFlights": 1.0, "operators": [{"name": "VietJetAir", "iata": "VJ", "icao": "VJC"}]}, {"destination": {"icao": "VVCS", "iata": "VCS", "name": "Con Ong Co Ong", "shortName": "Co Ong", "municipalityName": "Con Ong", "location": {"lat": 8.731829, "lon": 106.633}, "countryCode": "VN"}, "averageDailyFlights": 0.86, "operators": [{"name": "Vietnam Airlines", "iata": "VN", "icao": "HVN"}]}, {"destination": {"icao": "RKSI", "iata": "ICN", "name": "Seoul Incheon", "shortName": "Incheon", "municipalityName": "Seoul", "location": {"lat": 37.4691, "lon": 126.451}, "countryCode": "KR"}, "averageDailyFlights": 0.57, "operators": [{"name": "VietJetAir", "iata": "VJ", "icao": "VJC"}]}, {"destination": {"icao": "RCTP", "iata": "TPE", "name": "Taipei Taiwan Taoyuan", "shortName": "Taiwan Taoyuan", "municipalityName": "Taipei", "location": {"lat": 25.0777, "lon": 121.233}, "countryCode": "TW"}, "averageDailyFlights": 0.57, "operators": [{"name": "VietJetAir", "iata": "VJ", "icao": "VJC"}]}, {"destination": {"icao": "VVCI", "iata": "HPH", "name": "Haiphong Cat Bi", "shortName": "Cat Bi", "municipalityName": "Haiphong", "location": {"lat": 20.8194, "lon": 106.725}, "countryCode": "VN"}, "averageDailyFlights": 0.43, "operators": [{"name": "VietJetAir", "iata": "VJ", "icao": "VJC"}]}]}