{"routes": [{"destination": {"icao": "WMKK", "iata": "KUL", "name": "Kuala Lumpur ", "shortName": "Kuala Lumpur", "municipalityName": "Kuala Lumpur", "location": {"lat": 2.745579, "lon": 101.71}, "countryCode": "MY"}, "averageDailyFlights": 14.11, "operators": [{"name": "Malaysia Airlines", "iata": "MH", "icao": "MAS"}, {"name": "Malindo Air", "iata": "OD", "icao": "MXD"}, {"name": "AirAsia X", "iata": "D7", "icao": "XAX"}, {"name": "AirAsia", "iata": "AK", "icao": "AXM"}]}, {"destination": {"icao": "WBKW", "iata": "TWU", "name": "Tawau ", "shortName": "Tawau", "municipalityName": "Tawau", "location": {"lat": 4.320159, "lon": 118.128}, "countryCode": "MY"}, "averageDailyFlights": 8.14, "operators": [{"name": "AirAsia", "iata": "AK", "icao": "AXM"}, {"name": "Firefly", "iata": "FY", "icao": "FFM"}]}, {"destination": {"icao": "WBGG", "iata": "KCH", "name": "Kuching ", "shortName": "Kuching", "municipalityName": "Kuching", "location": {"lat": 1.484699, "lon": 110.347}, "countryCode": "MY"}, "averageDailyFlights": 5.57, "operators": [{"name": "AirAsia", "iata": "AK", "icao": "AXM"}, {"name": "Firefly", "iata": "FY", "icao": "FFM"}]}, {"destination": {"icao": "WBKS", "iata": "SDK", "name": "Sandakan ", "shortName": "Sandakan", "municipalityName": "Sandakan", "location": {"lat": 5.900899, "lon": 118.059}, "countryCode": "MY"}, "averageDailyFlights": 5.57, "operators": [{"name": "AirAsia", "iata": "AK", "icao": "AXM"}, {"name": "Firefly", "iata": "FY", "icao": "FFM"}]}, {"destination": {"icao": "WBKD", "iata": "LDU", "name": "Lahad Datu ", "shortName": "Lahad Datu", "municipalityName": "Lahad Datu", "location": {"lat": 5.032249, "lon": 118.324}, "countryCode": "MY"}, "averageDailyFlights": 4.57, "operators": [{"name": "Malaysia Airlines", "iata": "MH", "icao": "MAS"}]}, {"destination": {"icao": "RKSI", "iata": "ICN", "name": "Seoul Incheon", "shortName": "Incheon", "municipalityName": "Seoul", "location": {"lat": 37.4691, "lon": 126.451}, "countryCode": "KR"}, "averageDailyFlights": 4.43, "operators": [{"name": "Asiana Airlines", "iata": "OZ", "icao": "AAR"}, {"name": "Jeju Air", "iata": "7C", "icao": "JJA"}, {"name": "Jin Air", "iata": "LJ", "icao": "JNA"}, {"name": "T'Way Air", "iata": "TW", "icao": "TWB"}]}, {"destination": {"icao": "WBKL", "iata": "LBU", "name": "Labuan ", "shortName": "Labuan", "municipalityName": "Labuan", "location": {"lat": 5.30068, "lon": 115.25}, "countryCode": "MY"}, "averageDailyFlights": 4.29, "operators": [{"name": "Malaysia Airlines", "iata": "MH", "icao": "MAS"}]}, {"destination": {"icao": "WBGR", "iata": "MYY", "name": "Miri ", "shortName": "Miri", "municipalityName": "Miri", "location": {"lat": 4.32201, "lon": 113.987}, "countryCode": "MY"}, "averageDailyFlights": 3.0, "operators": [{"name": "AirAsia", "iata": "AK", "icao": "AXM"}, {"name": "Firefly", "iata": "FY", "icao": "FFM"}]}, {"destination": {"icao": "WMKJ", "iata": "JHB", "name": "Senai ", "shortName": "Senai", "municipalityName": "Senai", "location": {"lat": 1.641309, "lon": 103.67}, "countryCode": "MY"}, "averageDailyFlights": 2.57, "operators": [{"name": "AirAsia", "iata": "AK", "icao": "AXM"}]}, {"destination": {"icao": "WSSS", "iata": "SIN", "name": "Singapore Changi", "shortName": "Changi", "municipalityName": "Singapore", "location": {"lat": 1.35019, "lon": 103.994}, "countryCode": "SG"}, "averageDailyFlights": 2.46, "operators": [{"name": "AirAsia", "iata": "AK", "icao": "AXM"}, {"name": "Scoot", "iata": "TR", "icao": "TGW"}]}, {"destination": {"icao": "WMKP", "iata": "PEN", "name": "Penang ", "shortName": "Penang", "municipalityName": "Penang", "location": {"lat": 5.29714, "lon": 100.277}, "countryCode": "MY"}, "averageDailyFlights": 2.29, "operators": [{"name": "Firefly", "iata": "FY", "icao": "FFM"}]}, {"destination": {"icao": "ZGGG", "iata": "CAN", "name": "Guangzhou Baiyun", "shortName": "Baiyun", "municipalityName": "Guangzhou", "location": {"lat": 23.3924, "lon": 113.299}, "countryCode": "CN"}, "averageDailyFlights": 2.14, "operators": [{"name": "AirAsia", "iata": "AK", "icao": "AXM"}, {"name": "China Southern Airlines", "iata": "CZ", "icao": "CSN"}]}, {"destination": {"icao": "VHHH", "iata": "HKG", "name": "Hong Kong Chek Lap Kok", "shortName": "Chek Lap Kok", "municipalityName": "Hong Kong", "location": {"lat": 22.3089, "lon": 113.915}, "countryCode": "HK"}, "averageDailyFlights": 2.14, "operators": [{"name": "AirAsia", "iata": "AK", "icao": "AXM"}]}, {"destination": {"icao": "ZGSZ", "iata": "SZX", "name": "Shenzhen Bao'an", "shortName": "Bao'an", "municipalityName": "Shenzhen", "location": {"lat": 22.6393, "lon": 113.811}, "countryCode": "CN"}, "averageDailyFlights": 2.14, "operators": [{"name": "AirAsia", "iata": "AK", "icao": "AXM"}]}, {"destination": {"icao": "RCTP", "iata": "TPE", "name": "Taipei Taiwan Taoyuan", "shortName": "Taiwan Taoyuan", "municipalityName": "Taipei", "location": {"lat": 25.0777, "lon": 121.233}, "countryCode": "TW"}, "averageDailyFlights": 1.43, "operators": [{"name": "AirAsia", "iata": "AK", "icao": "AXM"}, {"name": "Malaysia Airlines", "iata": "MH", "icao": "MAS"}]}, {"destination": {"icao": "WBGS", "iata": "SBW", "name": "Sibu ", "shortName": "Sibu", "municipalityName": "Sibu", "location": {"lat": 2.2616, "lon": 111.985}, "countryCode": "MY"}, "averageDailyFlights": 1.29, "operators": [{"name": "AirAsia", "iata": "AK", "icao": "AXM"}]}, {"destination": {"icao": "ZBAD", "iata": "PKX", "name": "Beijing Daxing", "shortName": "Daxing", "municipalityName": "Beijing", "location": {"lat": 39.509167, "lon": 116.41055}, "countryCode": "CN"}, "averageDailyFlights": 1.14, "operators": [{"name": "AirAsia", "iata": "AK", "icao": "AXM"}]}, {"destination": {"icao": "ZSHC", "iata": "HGH", "name": "Hangzhou Xiaoshan", "shortName": "Xiaoshan", "municipalityName": "Hangzhou", "location": {"lat": 30.2295, "lon": 120.434}, "countryCode": "CN"}, "averageDailyFlights": 1.14, "operators": [{"name": "AirAsia", "iata": "AK", "icao": "AXM"}]}, {"destination": {"icao": "RPLL", "iata": "MNL", "name": "Manila Ninoy Aquino", "shortName": "Ninoy Aquino", "municipalityName": "Manila", "location": {"lat": 14.5086, "lon": 121.02}, "countryCode": "PH"}, "averageDailyFlights": 1.14, "operators": [{"name": "Philippines AirAsia", "iata": "Z2", "icao": "APG"}, {"name": "Cebu Pacific Air", "iata": "5J", "icao": "CEB"}]}, {"destination": {"icao": "WBMU", "iata": "MZV", "name": "Mulu ", "shortName": "Mulu", "municipalityName": "Mulu", "location": {"lat": 4.048329, "lon": 114.805}, "countryCode": "MY"}, "averageDailyFlights": 1.14, "operators": [{"name": "Malaysia Airlines", "iata": "MH", "icao": "MAS"}]}, {"destination": {"icao": "ZSPD", "iata": "PVG", "name": "Shanghai Pudong", "shortName": "Pudong", "municipalityName": "Shanghai", "location": {"lat": 31.1434, "lon": 121.805}, "countryCode": "CN"}, "averageDailyFlights": 1.14, "operators": [{"name": "Shanghai Airlines", "iata": "FM", "icao": "CSH"}]}, {"destination": {"icao": "ZHHH", "iata": "WUH", "name": "Wuhan Tianhe", "shortName": "Tianhe", "municipalityName": "Wuhan", "location": {"lat": 30.7838, "lon": 114.208}, "countryCode": "CN"}, "averageDailyFlights": 1.14, "operators": [{"name": "AirAsia", "iata": "AK", "icao": "AXM"}]}, {"destination": {"icao": "WBSB", "iata": "BWN", "name": "Bandar Seri Begawan Brunei", "shortName": "Brunei", "municipalityName": "Bandar Seri Begawan", "location": {"lat": 4.9442, "lon": 114.928}, "countryCode": "BN"}, "averageDailyFlights": 1.0, "operators": [{"name": "Royal Brunei Airlines", "iata": "BI", "icao": "RBA"}]}, {"destination": {"icao": "WBGB", "iata": "BTU", "name": "Bintulu ", "shortName": "Bintulu", "municipalityName": "Bintulu", "location": {"lat": 3.12385, "lon": 113.02}, "countryCode": "MY"}, "averageDailyFlights": 0.86, "operators": [{"name": "AirAsia", "iata": "AK", "icao": "AXM"}]}, {"destination": {"icao": "RKPK", "iata": "PUS", "name": "Busan-si Gimhae", "shortName": "Gimhae", "municipalityName": "Busan-si", "location": {"lat": 35.1795, "lon": 128.938}, "countryCode": "KR"}, "averageDailyFlights": 0.57, "operators": [{"name": "Air Busan", "iata": "BX", "icao": "ABL"}]}, {"destination": {"icao": "WMKC", "iata": "KBR", "name": "Kota Baharu Sultan Ismail Petra", "shortName": "Sultan Ismail Petra", "municipalityName": "Kota Baharu", "location": {"lat": 6.16685, "lon": 102.293}, "countryCode": "MY"}, "averageDailyFlights": 0.43, "operators": [{"name": "AirAsia", "iata": "AK", "icao": "AXM"}]}, {"destination": {"icao": "WBGW", "iata": "LWY", "name": "Lawas ", "shortName": "Lawas", "municipalityName": "Lawas", "location": {"lat": 4.84917, "lon": 115.408}, "countryCode": "MY"}, "averageDailyFlights": 0.43, "operators": [{"name": "Malaysia Airlines", "iata": "MH", "icao": "MAS"}]}, {"destination": {"icao": "WBGJ", "iata": "LMN", "name": "Limbang ", "shortName": "Limbang", "municipalityName": "Limbang", "location": {"lat": 4.8083, "lon": 115.01}, "countryCode": "MY"}, "averageDailyFlights": 0.43, "operators": [{"name": "Malaysia Airlines", "iata": "MH", "icao": "MAS"}]}, {"destination": {"icao": "RJAA", "iata": "NRT", "name": "Tokyo Narita", "shortName": "Narita", "municipalityName": "Tokyo", "location": {"lat": 35.7647, "lon": 140.386}, "countryCode": "JP"}, "averageDailyFlights": 0.29, "operators": [{"name": "Malaysia Airlines", "iata": "MH", "icao": "MAS"}]}, {"destination": {"icao": "WIII", "iata": "CGK", "name": "Jakarta Soekarno-Hatta", "shortName": "Soekarno-Hatta", "municipalityName": "Jakarta", "location": {"lat": -6.125569, "lon": 106.656}, "countryCode": "ID"}, "averageDailyFlights": 0.14, "operators": [{"name": "Indonesia AirAsia", "iata": "QZ", "icao": "AWQ"}]}, {"destination": {"icao": "VMMC", "iata": "MFM", "name": "Taipa Macau", "shortName": "Macau", "municipalityName": "Taipa", "location": {"lat": 22.1496, "lon": 113.592}, "countryCode": "MO"}, "averageDailyFlights": 0.14, "operators": [{"name": "AirAsia", "iata": "AK", "icao": "AXM"}]}]}