{"routes": [{"destination": {"icao": "WADD", "iata": "DPS", "name": "Denpasar-Bali Island Ngurah Rai (Bali)", "shortName": "Ngurah Rai (Bali)", "municipalityName": "Denpasar-Bali Island", "location": {"lat": -8.748169, "lon": 115.167}, "countryCode": "ID"}, "averageDailyFlights": 47.0, "operators": [{"name": "Super Air Jet", "iata": "IU", "icao": "SJV"}, {"name": "Indonesia AirAsia", "iata": "QZ", "icao": "AWQ"}, {"name": "Nam Air", "iata": "IN", "icao": "LKN"}, {"name": "Citilink", "iata": "QG", "icao": "CTV"}, {"name": "Garuda Indonesia", "iata": "GA", "icao": "GIA"}, {"name": "TransNusa", "iata": "8B", "icao": "TNU"}]}, {"destination": {"icao": "WAAA", "iata": "UPG", "name": "Ujung Pandang-Celebes Island Hasanuddin", "shortName": "Hasanuddin", "municipalityName": "Ujung Pandang-Celebes Island", "location": {"lat": -5.061629, "lon": 119.554}, "countryCode": "ID"}, "averageDailyFlights": 37.29, "operators": [{"name": "Batik Air", "iata": "ID", "icao": "BTK"}, {"name": "Citilink", "iata": "QG", "icao": "CTV"}, {"name": "Lion Air", "iata": "JT", "icao": "LNI"}, {"name": "Garuda Indonesia", "iata": "GA", "icao": "GIA"}, {"name": "Super Air Jet", "iata": "IU", "icao": "SJV"}, {"name": "Sriwijaya Air", "iata": "SJ", "icao": "SJY"}]}, {"destination": {"icao": "WMKK", "iata": "KUL", "name": "Kuala Lumpur ", "shortName": "Kuala Lumpur", "municipalityName": "Kuala Lumpur", "location": {"lat": 2.745579, "lon": 101.71}, "countryCode": "MY"}, "averageDailyFlights": 29.86, "operators": [{"name": "Malaysia Airlines", "iata": "MH", "icao": "MAS"}, {"name": "TransNusa", "iata": "8B", "icao": "TNU"}, {"name": "Indonesia AirAsia", "iata": "QZ", "icao": "AWQ"}, {"name": "Batik Air", "iata": "ID", "icao": "BTK"}, {"name": "AirAsia", "iata": "AK", "icao": "AXM"}, {"name": "Malindo Air", "iata": "OD", "icao": "MXD"}, {"name": "Citilink", "iata": "QG", "icao": "CTV"}, {"name": "Garuda Indonesia", "iata": "GA", "icao": "GIA"}, {"name": "KLM", "iata": "KL", "icao": "KLM"}]}, {"destination": {"icao": "WARR", "iata": "SUB", "name": "Surabaya Juanda", "shortName": "Juanda", "municipalityName": "Surabaya", "location": {"lat": -7.379829, "lon": 112.787}, "countryCode": "ID"}, "averageDailyFlights": 29.86, "operators": [{"name": "Lion Air", "iata": "JT", "icao": "LNI"}, {"name": "Citilink", "iata": "QG", "icao": "CTV"}, {"name": "Garuda Indonesia", "iata": "GA", "icao": "GIA"}, {"name": "Batik Air", "iata": "ID", "icao": "BTK"}]}, {"destination": {"icao": "WSSS", "iata": "SIN", "name": "Singapore Changi", "shortName": "Changi", "municipalityName": "Singapore", "location": {"lat": 1.35019, "lon": 103.994}, "countryCode": "SG"}, "averageDailyFlights": 29.39, "operators": [{"name": "Singapore Airlines", "iata": "SQ", "icao": "SIA"}, {"name": "Citilink", "iata": "QG", "icao": "CTV"}, {"name": "Indonesia AirAsia", "iata": "QZ", "icao": "AWQ"}, {"name": "TransNusa", "iata": "8B", "icao": "TNU"}, {"name": "Garuda Indonesia", "iata": "GA", "icao": "GIA"}, {"name": "Batik Air", "iata": "ID", "icao": "BTK"}, {"name": "Jetstar Asia", "iata": "3K", "icao": "JSA"}, {"name": "Scoot", "iata": "TR", "icao": "TGW"}]}, {"destination": {"icao": "WIOO", "iata": "PNK", "name": "Pontianak-Borneo Island Supadio", "shortName": "Supadio", "municipalityName": "Pontianak-Borneo Island", "location": {"lat": -0.15071, "lon": 109.404}, "countryCode": "ID"}, "averageDailyFlights": 23.43, "operators": [{"name": "Citilink", "iata": "QG", "icao": "CTV"}, {"name": "Sriwijaya Air", "iata": "SJ", "icao": "SJY"}, {"name": "Lion Air", "iata": "JT", "icao": "LNI"}, {"name": "Super Air Jet", "iata": "IU", "icao": "SJV"}, {"name": "Garuda Indonesia", "iata": "GA", "icao": "GIA"}, {"name": "Nam Air", "iata": "IN", "icao": "LKN"}]}, {"destination": {"icao": "WIDD", "iata": "BTH", "name": "Batam Island Hang Nadim", "shortName": "Hang Nadim", "municipalityName": "Batam Island", "location": {"lat": 1.121029, "lon": 104.119}, "countryCode": "ID"}, "averageDailyFlights": 17.86, "operators": [{"name": "Super Air Jet", "iata": "IU", "icao": "SJV"}, {"name": "Citilink", "iata": "QG", "icao": "CTV"}, {"name": "Lion Air", "iata": "JT", "icao": "LNI"}, {"name": "Garuda Indonesia", "iata": "GA", "icao": "GIA"}, {"name": "Batik Air", "iata": "ID", "icao": "BTK"}, {"name": "Nam Air", "iata": "IN", "icao": "LKN"}]}, {"destination": {"icao": "WALL", "iata": "BPN", "name": "Kotamadya Balikpapan Sultan Aji Muhamad Sulaiman", "shortName": "Sultan Aji Muhamad Sulaiman", "municipalityName": "Kotamadya Balikpapan", "location": {"lat": -1.26827, "lon": 116.894}, "countryCode": "ID"}, "averageDailyFlights": 17.29, "operators": [{"name": "Batik Air", "iata": "ID", "icao": "BTK"}, {"name": "Citilink", "iata": "QG", "icao": "CTV"}, {"name": "Lion Air", "iata": "JT", "icao": "LNI"}, {"name": "Garuda Indonesia", "iata": "GA", "icao": "GIA"}, {"name": "Super Air Jet", "iata": "IU", "icao": "SJV"}]}, {"destination": {"icao": "WIPK", "iata": "PGK", "name": "Pangkal Pinang-Palaubangka Island Pangkal Pinang (Depati Amir)", "shortName": "Pangkal Pinang (Depati Amir)", "municipalityName": "Pangkal Pinang-Palaubangka Island", "location": {"lat": -2.162199, "lon": 106.139}, "countryCode": "ID"}, "averageDailyFlights": 17.14, "operators": [{"name": "Lion Air", "iata": "JT", "icao": "LNI"}, {"name": "Super Air Jet", "iata": "IU", "icao": "SJV"}, {"name": "Citilink", "iata": "QG", "icao": "CTV"}, {"name": "Garuda Indonesia", "iata": "GA", "icao": "GIA"}, {"name": "Batik Air", "iata": "ID", "icao": "BTK"}, {"name": "Sriwijaya Air", "iata": "SJ", "icao": "SJY"}, {"name": "Nam Air", "iata": "IN", "icao": "LKN"}]}, {"destination": {"icao": "WIBB", "iata": "PKU", "name": "Pekanbaru-Sumatra Island Sultan Syarif Kasim Ii (Simpang Tiga)", "shortName": "Sultan Syarif Kasim Ii (Simpang Tiga)", "municipalityName": "Pekanbaru-Sumatra Island", "location": {"lat": 0.460786, "lon": 101.445}, "countryCode": "ID"}, "averageDailyFlights": 16.57, "operators": [{"name": "Batik Air", "iata": "ID", "icao": "BTK"}, {"name": "Super Air Jet", "iata": "IU", "icao": "SJV"}, {"name": "Citilink", "iata": "QG", "icao": "CTV"}, {"name": "Garuda Indonesia", "iata": "GA", "icao": "GIA"}, {"name": "Lion Air", "iata": "JT", "icao": "LNI"}]}, {"destination": {"icao": "WIPP", "iata": "PLM", "name": "Palembang-Sumatra Island Sultan Mahmud Badaruddin Ii", "shortName": "Sultan Mahmud Badaruddin Ii", "municipalityName": "Palembang-Sumatra Island", "location": {"lat": -2.89825, "lon": 104.7}, "countryCode": "ID"}, "averageDailyFlights": 14.57, "operators": [{"name": "Citilink", "iata": "QG", "icao": "CTV"}, {"name": "Garuda Indonesia", "iata": "GA", "icao": "GIA"}, {"name": "Super Air Jet", "iata": "IU", "icao": "SJV"}, {"name": "Lion Air", "iata": "JT", "icao": "LNI"}]}, {"destination": {"name": "Dzhokyakarta"}, "averageDailyFlights": 14.43, "operators": [{"name": "Batik Air", "iata": "ID", "icao": "BTK"}, {"name": "Garuda Indonesia", "iata": "GA", "icao": "GIA"}, {"name": "TransNusa", "iata": "8B", "icao": "TNU"}, {"name": "Citilink", "iata": "QG", "icao": "CTV"}]}, {"destination": {"icao": "WARS", "iata": "SRG", "name": "Semarang-Java Island Achmad Yani", "shortName": "Achmad Yani", "municipalityName": "Semarang-Java Island", "location": {"lat": -6.97273, "lon": 110.375}, "countryCode": "ID"}, "averageDailyFlights": 14.0, "operators": [{"name": "Batik Air", "iata": "ID", "icao": "BTK"}, {"name": "Citilink", "iata": "QG", "icao": "CTV"}, {"name": "Garuda Indonesia", "iata": "GA", "icao": "GIA"}]}, {"destination": {"icao": "WIPA", "iata": "DJB", "name": "Jambi-Sumatra Island Sultan Thaha", "shortName": "Sultan Thaha", "municipalityName": "Jambi-Sumatra Island", "location": {"lat": -1.63802, "lon": 103.644}, "countryCode": "ID"}, "averageDailyFlights": 13.57, "operators": [{"name": "Super Air Jet", "iata": "IU", "icao": "SJV"}, {"name": "Garuda Indonesia", "iata": "GA", "icao": "GIA"}, {"name": "Lion Air", "iata": "JT", "icao": "LNI"}, {"name": "Citilink", "iata": "QG", "icao": "CTV"}, {"name": "Batik Air", "iata": "ID", "icao": "BTK"}]}, {"destination": {"icao": "WIMG", "iata": "PDG", "name": "Padang-Sumatra Island Tabing", "shortName": "Tabing", "municipalityName": "Padang-Sumatra Island", "location": {"lat": -0.874988, "lon": 100.352}, "countryCode": "ID"}, "averageDailyFlights": 13.0, "operators": [{"name": "Super Air Jet", "iata": "IU", "icao": "SJV"}, {"name": "Garuda Indonesia", "iata": "GA", "icao": "GIA"}, {"name": "Citilink", "iata": "QG", "icao": "CTV"}]}, {"destination": {"icao": "WICT", "iata": "TKG", "name": "Bandar Lampung-Sumatra Island Radin Inten II (Branti)", "shortName": "Radin Inten II (Branti)", "municipalityName": "Bandar Lampung-Sumatra Island", "location": {"lat": -5.240556, "lon": 105.17555}, "countryCode": "ID"}, "averageDailyFlights": 12.29, "operators": [{"name": "Lion Air", "iata": "JT", "icao": "LNI"}, {"name": "Super Air Jet", "iata": "IU", "icao": "SJV"}, {"name": "Garuda Indonesia", "iata": "GA", "icao": "GIA"}, {"name": "Indonesia AirAsia", "iata": "QZ", "icao": "AWQ"}]}, {"destination": {"icao": "WAOO", "iata": "BDJ", "name": "Banjarmasin-Borneo Island Syamsudin Noor", "shortName": "Syamsudin Noor", "municipalityName": "Banjarmasin-Borneo Island", "location": {"lat": -3.442359, "lon": 114.763}, "countryCode": "ID"}, "averageDailyFlights": 11.71, "operators": [{"name": "Garuda Indonesia", "iata": "GA", "icao": "GIA"}, {"name": "Batik Air", "iata": "ID", "icao": "BTK"}, {"name": "Citilink", "iata": "QG", "icao": "CTV"}, {"name": "Super Air Jet", "iata": "IU", "icao": "SJV"}, {"name": "Lion Air", "iata": "JT", "icao": "LNI"}]}, {"destination": {"icao": "WADL", "iata": "LOP", "name": "Mataram Bandara  Lombok", "shortName": "Bandara  Lombok", "municipalityName": "Mataram", "location": {"lat": -8.757322, "lon": 116.27667}, "countryCode": "ID"}, "averageDailyFlights": 10.57, "operators": [{"name": "Lion Air", "iata": "JT", "icao": "LNI"}, {"name": "Batik Air", "iata": "ID", "icao": "BTK"}, {"name": "Garuda Indonesia", "iata": "GA", "icao": "GIA"}, {"name": "Super Air Jet", "iata": "IU", "icao": "SJV"}, {"name": "Citilink", "iata": "QG", "icao": "CTV"}]}, {"destination": {"icao": "WAMM", "iata": "MDC", "name": "Manado-Celebes Island Sam Ratulangi", "shortName": "Sam Ratulangi", "municipalityName": "Manado-Celebes Island", "location": {"lat": 1.54926, "lon": 124.926}, "countryCode": "ID"}, "averageDailyFlights": 9.14, "operators": [{"name": "Batik Air", "iata": "ID", "icao": "BTK"}, {"name": "Citilink", "iata": "QG", "icao": "CTV"}, {"name": "Garuda Indonesia", "iata": "GA", "icao": "GIA"}]}, {"destination": {"icao": "WARQ", "iata": "SOC", "name": "Sukarata(Solo)-Java Island Adi Sumarmo Wiryokusumo", "shortName": "Adi Sumarmo Wiryokusumo", "municipalityName": "Sukarata(Solo)-Java Island", "location": {"lat": -7.516089, "lon": 110.757}, "countryCode": "ID"}, "averageDailyFlights": 7.71, "operators": [{"name": "Batik Air", "iata": "ID", "icao": "BTK"}, {"name": "Citilink", "iata": "QG", "icao": "CTV"}, {"name": "Garuda Indonesia", "iata": "GA", "icao": "GIA"}, {"name": "Lion Air", "iata": "JT", "icao": "LNI"}]}, {"destination": {"icao": "VTBD", "iata": "DMK", "name": "Bangkok Don Mueang", "shortName": "Don Mueang", "municipalityName": "Bangkok", "location": {"lat": 13.912599, "lon": 100.607}, "countryCode": "TH"}, "averageDailyFlights": 7.14, "operators": [{"name": "Batik Air", "iata": "ID", "icao": "BTK"}, {"name": "Indonesia AirAsia", "iata": "QZ", "icao": "AWQ"}, {"name": "Thai AirAsia", "iata": "FD", "icao": "AIQ"}, {"name": "Thai Lion Air", "iata": "SL", "icao": "TLM"}]}, {"destination": {"icao": "OEJN", "iata": "JED", "name": "Jeddah King Abdulaziz", "shortName": "King Abdulaziz", "municipalityName": "Jeddah", "location": {"lat": 21.6796, "lon": 39.1565}, "countryCode": "SA"}, "averageDailyFlights": 6.86, "operators": [{"name": "Saudi Arabian Airlines", "iata": "SV", "icao": "SVA"}, {"name": "Lion Air", "iata": "JT", "icao": "LNI"}, {"name": "Garuda Indonesia", "iata": "GA", "icao": "GIA"}]}, {"destination": {"icao": "WAOP", "iata": "PKY", "name": "Palangkaraya-Kalimantan Tengah Tjilik Riwut", "shortName": "Tjilik Riwut", "municipalityName": "Palangkaraya-Kalimantan Tengah", "location": {"lat": -2.22513, "lon": 113.943}, "countryCode": "ID"}, "averageDailyFlights": 6.71, "operators": [{"name": "Batik Air", "iata": "ID", "icao": "BTK"}, {"name": "Lion Air", "iata": "JT", "icao": "LNI"}, {"name": "Citilink", "iata": "QG", "icao": "CTV"}, {"name": "Garuda Indonesia", "iata": "GA", "icao": "GIA"}]}, {"destination": {"icao": "WIOD", "iata": "TJQ", "name": "Tanjung Pandan-Belitung Island Buluh Tumbang (H A S Hanandjoeddin)", "shortName": "Buluh Tumbang (H A S Hanandjoeddin)", "municipalityName": "Tanjung Pandan-Belitung Island", "location": {"lat": -2.745719, "lon": 107.755}, "countryCode": "ID"}, "averageDailyFlights": 6.71, "operators": [{"name": "Sriwijaya Air", "iata": "SJ", "icao": "SJY"}, {"name": "Lion Air", "iata": "JT", "icao": "LNI"}, {"name": "Citilink", "iata": "QG", "icao": "CTV"}, {"name": "Nam Air", "iata": "IN", "icao": "LKN"}]}, {"destination": {"icao": "WIPL", "iata": "BKS", "name": "Bengkulu-Sumatra Island Padang Kemiling (Fatmawati Soekarno)", "shortName": "Padang Kemiling (Fatmawati Soekarno)", "municipalityName": "Bengkulu-Sumatra Island", "location": {"lat": -3.863699, "lon": 102.339}, "countryCode": "ID"}, "averageDailyFlights": 6.57, "operators": [{"name": "Lion Air", "iata": "JT", "icao": "LNI"}, {"name": "Citilink", "iata": "QG", "icao": "CTV"}, {"name": "Super Air Jet", "iata": "IU", "icao": "SJV"}, {"name": "Garuda Indonesia", "iata": "GA", "icao": "GIA"}]}, {"destination": {"icao": "WITT", "iata": "BTJ", "name": "Banda Aceh Sultan Iskandar Muda", "shortName": "Sultan Iskandar Muda", "municipalityName": "Banda Aceh", "location": {"lat": 5.522872, "lon": 95.42064}, "countryCode": "ID"}, "averageDailyFlights": 4.57, "operators": [{"name": "Garuda Indonesia", "iata": "GA", "icao": "GIA"}, {"name": "Batik Air", "iata": "ID", "icao": "BTK"}]}, {"destination": {"name": "Siborong-Borong"}, "averageDailyFlights": 4.57, "operators": [{"name": "Super Air Jet", "iata": "IU", "icao": "SJV"}, {"name": "Indonesia AirAsia", "iata": "QZ", "icao": "AWQ"}, {"name": "Batik Air", "iata": "ID", "icao": "BTK"}]}, {"destination": {"icao": "WAWW", "iata": "KDI", "name": "Kendari-Celebes Island Wolter Monginsidi", "shortName": "Wolter Monginsidi", "municipalityName": "Kendari-Celebes Island", "location": {"lat": -4.08161, "lon": 122.418}, "countryCode": "ID"}, "averageDailyFlights": 4.43, "operators": [{"name": "Batik Air", "iata": "ID", "icao": "BTK"}, {"name": "Citilink", "iata": "QG", "icao": "CTV"}]}, {"destination": {"name": "Houston"}, "averageDailyFlights": 4.43, "operators": [{"name": "Batik Air", "iata": "ID", "icao": "BTK"}, {"name": "Citilink", "iata": "QG", "icao": "CTV"}]}, {"destination": {"icao": "WAML", "iata": "PLW", "name": "Palu-Celebes Island Mutiara", "shortName": "Mutiara", "municipalityName": "Palu-Celebes Island", "location": {"lat": -0.918542, "lon": 119.91}, "countryCode": "ID"}, "averageDailyFlights": 4.29, "operators": [{"name": "Garuda Indonesia", "iata": "GA", "icao": "GIA"}, {"name": "Batik Air", "iata": "ID", "icao": "BTK"}, {"name": "Citilink", "iata": "QG", "icao": "CTV"}]}, {"destination": {"icao": "WMKP", "iata": "PEN", "name": "Penang ", "shortName": "Penang", "municipalityName": "Penang", "location": {"lat": 5.29714, "lon": 100.277}, "countryCode": "MY"}, "averageDailyFlights": 4.29, "operators": [{"name": "AirAsia", "iata": "AK", "icao": "AXM"}, {"name": "Batik Air", "iata": "ID", "icao": "BTK"}, {"name": "Indonesia AirAsia", "iata": "QZ", "icao": "AWQ"}, {"name": "Korean Air", "iata": "KE", "icao": "KAL"}, {"name": "Cathay Pacific", "iata": "CX", "icao": "CPA"}]}, {"destination": {"icao": "VHHH", "iata": "HKG", "name": "Hong Kong Chek Lap Kok", "shortName": "Chek Lap Kok", "municipalityName": "Hong Kong", "location": {"lat": 22.3089, "lon": 113.915}, "countryCode": "HK"}, "averageDailyFlights": 4.14, "operators": [{"name": "Cathay Pacific", "iata": "CX", "icao": "CPA"}, {"name": "Garuda Indonesia", "iata": "GA", "icao": "GIA"}]}, {"destination": {"icao": "VTBS", "iata": "BKK", "name": "Bangkok Suvarnabhumi", "shortName": "Suvarnabhumi", "municipalityName": "Bangkok", "location": {"lat": 13.681099, "lon": 100.747}, "countryCode": "TH"}, "averageDailyFlights": 4.0, "operators": [{"name": "Garuda Indonesia", "iata": "GA", "icao": "GIA"}, {"name": "Thai Airways International", "iata": "TG", "icao": "THA"}, {"name": "Ethiopian Airlines", "iata": "ET", "icao": "ETH"}]}, {"destination": {"icao": "WAPP", "iata": "AMQ", "name": "Ambon City Ambon", "shortName": "Ambon", "municipalityName": "Ambon City", "location": {"lat": -3.710259, "lon": 128.089}, "countryCode": "ID"}, "averageDailyFlights": 3.86, "operators": [{"name": "Batik Air", "iata": "ID", "icao": "BTK"}, {"name": "Citilink", "iata": "QG", "icao": "CTV"}, {"name": "Garuda Indonesia", "iata": "GA", "icao": "GIA"}, {"name": "Lion Air", "iata": "JT", "icao": "LNI"}]}, {"destination": {"icao": "WAJJ", "iata": "DJJ", "name": "Jayapura-Papua Island Sentani", "shortName": "Sentani", "municipalityName": "Jayapura-Papua Island", "location": {"lat": -2.57695, "lon": 140.516}, "countryCode": "ID"}, "averageDailyFlights": 3.86, "operators": [{"name": "Batik Air", "iata": "ID", "icao": "BTK"}, {"name": "Garuda Indonesia", "iata": "GA", "icao": "GIA"}, {"name": "Lion Air", "iata": "JT", "icao": "LNI"}]}, {"destination": {"icao": "WATO", "iata": "LBJ", "name": "Labuan Bajo-Flores Island Komodo (Mutiara II)", "shortName": "Komodo (Mutiara II)", "municipalityName": "Labuan Bajo-Flores Island", "location": {"lat": -8.48666, "lon": 119.889}, "countryCode": "ID"}, "averageDailyFlights": 3.57, "operators": [{"name": "Batik Air", "iata": "ID", "icao": "BTK"}, {"name": "Citilink", "iata": "QG", "icao": "CTV"}, {"name": "Garuda Indonesia", "iata": "GA", "icao": "GIA"}, {"name": "Indonesia AirAsia", "iata": "QZ", "icao": "AWQ"}]}, {"destination": {"icao": "OTHH", "iata": "DOH", "name": "Doha Hamad", "shortName": "Hamad", "municipalityName": "Doha", "location": {"lat": 25.273056, "lon": 51.608055}, "countryCode": "QA"}, "averageDailyFlights": 3.43, "operators": [{"name": "Qatar Airways", "iata": "QR", "icao": "QTR"}]}, {"destination": {"icao": "ZGGG", "iata": "CAN", "name": "Guangzhou Baiyun", "shortName": "Baiyun", "municipalityName": "Guangzhou", "location": {"lat": 23.3924, "lon": 113.299}, "countryCode": "CN"}, "averageDailyFlights": 3.43, "operators": [{"name": "China Southern Airlines", "iata": "CZ", "icao": "CSN"}, {"name": "TransNusa", "iata": "8B", "icao": "TNU"}, {"name": "Garuda Indonesia", "iata": "GA", "icao": "GIA"}]}, {"destination": {"icao": "WAMT", "iata": "TTE", "name": "Sango-Ternate Island Sultan Khairun Babullah", "shortName": "Sultan Khairun Babullah", "municipalityName": "Sango-Ternate Island", "location": {"lat": 0.831413, "lon": 127.381}, "countryCode": "ID"}, "averageDailyFlights": 3.43, "operators": [{"name": "Lion Air", "iata": "JT", "icao": "LNI"}, {"name": "Garuda Indonesia", "iata": "GA", "icao": "GIA"}, {"name": "Batik Air", "iata": "ID", "icao": "BTK"}]}, {"destination": {"icao": "WIDN", "iata": "TNJ", "name": "Tanjung Pinang-Bintan Island Raja Haji Fisabilillah", "shortName": "Raja Haji Fisabilillah", "municipalityName": "Tanjung Pinang-Bintan Island", "location": {"lat": 0.922683, "lon": 104.532}, "countryCode": "ID"}, "averageDailyFlights": 3.29, "operators": [{"name": "Batik Air", "iata": "ID", "icao": "BTK"}, {"name": "Citilink", "iata": "QG", "icao": "CTV"}, {"name": "Garuda Indonesia", "iata": "GA", "icao": "GIA"}]}, {"destination": {"icao": "WARA", "iata": "MLG", "name": "Malang-Java Island Abdul Rachman Saleh", "shortName": "Abdul Rachman Saleh", "municipalityName": "Malang-Java Island", "location": {"lat": -7.926559, "lon": 112.715}, "countryCode": "ID"}, "averageDailyFlights": 3.14, "operators": [{"name": "Garuda Indonesia", "iata": "GA", "icao": "GIA"}, {"name": "Citilink", "iata": "QG", "icao": "CTV"}, {"name": "Batik Air", "iata": "ID", "icao": "BTK"}]}, {"destination": {"icao": "RCTP", "iata": "TPE", "name": "Taipei Taiwan Taoyuan", "shortName": "Taiwan Taoyuan", "municipalityName": "Taipei", "location": {"lat": 25.0777, "lon": 121.233}, "countryCode": "TW"}, "averageDailyFlights": 2.86, "operators": [{"name": "China Airlines", "iata": "CI", "icao": "CAL"}, {"name": "EVA Air", "iata": "BR", "icao": "EVA"}]}, {"destination": {"icao": "RJAA", "iata": "NRT", "name": "Tokyo Narita", "shortName": "Narita", "municipalityName": "Tokyo", "location": {"lat": 35.7647, "lon": 140.386}, "countryCode": "JP"}, "averageDailyFlights": 2.71, "operators": [{"name": "ANA", "iata": "NH", "icao": "ANA"}, {"name": "JAL", "iata": "JL", "icao": "JAL"}]}, {"destination": {"icao": "RKSI", "iata": "ICN", "name": "Seoul Incheon", "shortName": "Incheon", "municipalityName": "Seoul", "location": {"lat": 37.4691, "lon": 126.451}, "countryCode": "KR"}, "averageDailyFlights": 2.6, "operators": [{"name": "Korean Air", "iata": "KE", "icao": "KAL"}, {"name": "Asiana Airlines", "iata": "OZ", "icao": "AAR"}, {"name": "Garuda Indonesia", "iata": "GA", "icao": "GIA"}]}, {"destination": {"icao": "WARB", "iata": "BWX", "name": "Banyuwangi Blimbingsari", "shortName": "Blimbingsari", "municipalityName": "Banyuwangi", "location": {"lat": -8.31015, "lon": 114.3401}, "countryCode": "ID"}, "averageDailyFlights": 2.57, "operators": [{"name": "Batik Air", "iata": "ID", "icao": "BTK"}, {"name": "Super Air Jet", "iata": "IU", "icao": "SJV"}, {"name": "Citilink", "iata": "QG", "icao": "CTV"}]}, {"destination": {"icao": "YPPH", "iata": "PER", "name": "Perth International", "shortName": "International", "municipalityName": "Perth", "location": {"lat": -31.940277, "lon": 115.96694}, "countryCode": "AU"}, "averageDailyFlights": 2.43, "operators": [{"name": "Batik Air", "iata": "ID", "icao": "BTK"}, {"name": "Indonesia AirAsia", "iata": "QZ", "icao": "AWQ"}, {"name": "Citilink", "iata": "QG", "icao": "CTV"}]}, {"destination": {"icao": "WASS", "iata": "SOQ", "name": "Sorong-Papua Island Dominique Edward Osok", "shortName": "Dominique Edward Osok", "municipalityName": "Sorong-Papua Island", "location": {"lat": -0.894, "lon": 131.287}, "countryCode": "ID"}, "averageDailyFlights": 2.43, "operators": [{"name": "Garuda Indonesia", "iata": "GA", "icao": "GIA"}, {"name": "Batik Air", "iata": "ID", "icao": "BTK"}, {"name": "Lion Air", "iata": "JT", "icao": "LNI"}]}, {"destination": {"icao": "OMAA", "iata": "AUH", "name": "Abu Dhabi Island and Internal Islands City Abu Dhabi", "shortName": "Abu Dhabi", "municipalityName": "Abu Dhabi Island and Internal Islands City", "location": {"lat": 24.433, "lon": 54.6511}, "countryCode": "AE"}, "averageDailyFlights": 2.29, "operators": [{"name": "Etihad Airways", "iata": "EY", "icao": "ETD"}]}, {"destination": {"icao": "OMDB", "iata": "DXB", "name": "Dubai ", "shortName": "Dubai", "municipalityName": "Dubai", "location": {"lat": 25.252798, "lon": 55.3644}, "countryCode": "AE"}, "averageDailyFlights": 2.29, "operators": [{"name": "Emirates", "iata": "EK", "icao": "UAE"}]}, {"destination": {"icao": "VVTS", "iata": "SGN", "name": "Ho Chi Minh City Tan Son Nhat", "shortName": "Tan Son Nhat", "municipalityName": "Ho Chi Minh City", "location": {"lat": 10.818799, "lon": 106.652}, "countryCode": "VN"}, "averageDailyFlights": 2.29, "operators": [{"name": "VietJetAir", "iata": "VJ", "icao": "VJC"}, {"name": "Vietnam Airlines", "iata": "VN", "icao": "HVN"}]}, {"destination": {"icao": "WATT", "iata": "KOE", "name": "Kupang-Timor Island El Tari", "shortName": "El Tari", "municipalityName": "Kupang-Timor Island", "location": {"lat": -10.1716, "lon": 123.671}, "countryCode": "ID"}, "averageDailyFlights": 2.29, "operators": [{"name": "Batik Air", "iata": "ID", "icao": "BTK"}, {"name": "Citilink", "iata": "QG", "icao": "CTV"}]}, {"destination": {"icao": "RPLL", "iata": "MNL", "name": "Manila Ninoy Aquino", "shortName": "Ninoy Aquino", "municipalityName": "Manila", "location": {"lat": 14.5086, "lon": 121.02}, "countryCode": "PH"}, "averageDailyFlights": 2.29, "operators": [{"name": "Cebu Pacific Air", "iata": "5J", "icao": "CEB"}, {"name": "Philippine Airlines", "iata": "PR", "icao": "PAL"}]}, {"destination": {"icao": "WMKJ", "iata": "JHB", "name": "Senai ", "shortName": "Senai", "municipalityName": "Senai", "location": {"lat": 1.641309, "lon": 103.67}, "countryCode": "MY"}, "averageDailyFlights": 2.29, "operators": [{"name": "TransNusa", "iata": "8B", "icao": "TNU"}, {"name": "Indonesia AirAsia", "iata": "QZ", "icao": "AWQ"}]}, {"destination": {"icao": "WAOI", "iata": "PKN", "name": "Pangkalanbun-Borneo Island Iskandar", "shortName": "Iskandar", "municipalityName": "Pangkalanbun-Borneo Island", "location": {"lat": -2.705199, "lon": 111.673}, "countryCode": "ID"}, "averageDailyFlights": 1.86, "operators": [{"name": "Nam Air", "iata": "IN", "icao": "LKN"}]}, {"destination": {"icao": "ZSAM", "iata": "XMN", "name": "Xiamen Gaoqi", "shortName": "Gaoqi", "municipalityName": "Xiamen", "location": {"lat": 24.544, "lon": 118.128}, "countryCode": "CN"}, "averageDailyFlights": 1.86, "operators": [{"name": "Shandong Airlines", "iata": "SC", "icao": "CDG"}, {"name": "Xiamen Airlines", "iata": "MF", "icao": "CXA"}]}, {"destination": {"icao": "YSSY", "iata": "SYD", "name": "Sydney City Sydney Kingsford Smith", "shortName": "Sydney Kingsford Smith", "municipalityName": "Sydney City", "location": {"lat": -33.9461, "lon": 151.177}, "countryCode": "AU"}, "averageDailyFlights": 1.71, "operators": [{"name": "Qantas", "iata": "QF", "icao": "QFA"}, {"name": "Garuda Indonesia", "iata": "GA", "icao": "GIA"}]}, {"destination": {"icao": "OEMA", "iata": "MED", "name": "Medina Prince Mohammad Bin Abdulaziz", "shortName": "Prince Mohammad Bin Abdulaziz", "municipalityName": "Medina", "location": {"lat": 24.5534, "lon": 39.7051}, "countryCode": "SA"}, "averageDailyFlights": 1.57, "operators": [{"name": "Saudi Arabian Airlines", "iata": "SV", "icao": "SVA"}, {"name": "Garuda Indonesia", "iata": "GA", "icao": "GIA"}, {"name": "Lion Air", "iata": "JT", "icao": "LNI"}]}, {"destination": {"icao": "ZSPD", "iata": "PVG", "name": "Shanghai Pudong", "shortName": "Pudong", "municipalityName": "Shanghai", "location": {"lat": 31.1434, "lon": 121.805}, "countryCode": "CN"}, "averageDailyFlights": 1.57, "operators": [{"name": "China Eastern Airlines", "iata": "MU", "icao": "CES"}, {"name": "Garuda Indonesia", "iata": "GA", "icao": "GIA"}]}, {"destination": {"icao": "WAMG", "iata": "GTO", "name": "Gorontalo-Celebes Island Jalaluddin", "shortName": "Jalaluddin", "municipalityName": "Gorontalo-Celebes Island", "location": {"lat": 0.637118, "lon": 122.85}, "countryCode": "ID"}, "averageDailyFlights": 1.29, "operators": [{"name": "Batik Air", "iata": "ID", "icao": "BTK"}, {"name": "Garuda Indonesia", "iata": "GA", "icao": "GIA"}]}, {"destination": {"name": "Lubuklinggau"}, "averageDailyFlights": 1.29, "operators": [{"name": "Batik Air", "iata": "ID", "icao": "BTK"}]}, {"destination": {"icao": "ZSFZ", "iata": "FOC", "name": "Fuzhou Changle", "shortName": "Changle", "municipalityName": "Fuzhou", "location": {"lat": 25.9351, "lon": 119.663}, "countryCode": "CN"}, "averageDailyFlights": 1.14, "operators": [{"name": "Xiamen Airlines", "iata": "MF", "icao": "CXA"}]}, {"destination": {"icao": "YMML", "iata": "MEL", "name": "Melbourne City Melbourne", "shortName": "Melbourne", "municipalityName": "Melbourne City", "location": {"lat": -37.6733, "lon": 144.843}, "countryCode": "AU"}, "averageDailyFlights": 1.14, "operators": [{"name": "Garuda Indonesia", "iata": "GA", "icao": "GIA"}, {"name": "Qantas", "iata": "QF", "icao": "QFA"}]}, {"destination": {"icao": "VABB", "iata": "BOM", "name": "Mumbai Chhatrapati Shivaji", "shortName": "Chhatrapati Shivaji", "municipalityName": "Mumbai", "location": {"lat": 19.0887, "lon": 72.8679}, "countryCode": "IN"}, "averageDailyFlights": 1.14, "operators": [{"name": "IndiGo", "iata": "6E", "icao": "IGO"}]}, {"destination": {"icao": "OOMS", "iata": "MCT", "name": "Muscat ", "shortName": "Muscat", "municipalityName": "Muscat", "location": {"lat": 23.5933, "lon": 58.2844}, "countryCode": "OM"}, "averageDailyFlights": 1.14, "operators": [{"name": "Oman Air", "iata": "WY", "icao": "OMA"}]}, {"destination": {"icao": "WAOS", "iata": "SMQ", "name": "Sampit-Borneo Island Sampit(Hasan)", "shortName": "Sampit(Hasan)", "municipalityName": "Sampit-Borneo Island", "location": {"lat": -2.49919, "lon": 112.975}, "countryCode": "ID"}, "averageDailyFlights": 1.14, "operators": [{"name": "Nam Air", "iata": "IN", "icao": "LKN"}]}, {"destination": {"icao": "WAQQ", "iata": "TRK", "name": "Tarakan Island Juwata", "shortName": "Juwata", "municipalityName": "Tarakan Island", "location": {"lat": 3.326666, "lon": 117.56944}, "countryCode": "ID"}, "averageDailyFlights": 1.14, "operators": [{"name": "Batik Air", "iata": "ID", "icao": "BTK"}]}, {"destination": {"icao": "WALK", "iata": "BEJ", "name": "Tanjung Redep-Borneo Island Barau(Kalimaru)", "shortName": "Barau(Kalimaru)", "municipalityName": "Tanjung Redep-Borneo Island", "location": {"lat": 2.155499, "lon": 117.432}, "countryCode": "ID"}, "averageDailyFlights": 1.0, "operators": [{"name": "Batik Air", "iata": "ID", "icao": "BTK"}]}, {"destination": {"icao": "WBSB", "iata": "BWN", "name": "Bandar Seri Begawan Brunei", "shortName": "Brunei", "municipalityName": "Bandar Seri Begawan", "location": {"lat": 4.9442, "lon": 114.928}, "countryCode": "BN"}, "averageDailyFlights": 0.86, "operators": [{"name": "Royal Brunei Airlines", "iata": "BI", "icao": "RBA"}]}, {"destination": {"icao": "VVNB", "iata": "HAN", "name": "Hanoi Noi Bai", "shortName": "Noi Bai", "municipalityName": "Hanoi", "location": {"lat": 21.2212, "lon": 105.807}, "countryCode": "VN"}, "averageDailyFlights": 0.86, "operators": [{"name": "VietJetAir", "iata": "VJ", "icao": "VJC"}, {"name": "Cathay Pacific", "iata": "CX", "icao": "CPA"}]}, {"destination": {"name": "Shenzhen"}, "averageDailyFlights": 0.86, "operators": [{"name": "China Southern Airlines", "iata": "CZ", "icao": "CSN"}]}, {"destination": {"icao": "ZBAA", "iata": "PEK", "name": "Beijing Capital", "shortName": "Capital", "municipalityName": "Beijing", "location": {"lat": 40.0801, "lon": 116.585}, "countryCode": "CN"}, "averageDailyFlights": 0.71, "operators": [{"name": "Air China", "iata": "CA", "icao": "CCA"}]}, {"destination": {"icao": "VCBI", "iata": "CMB", "name": "Colombo Bandaranaike", "shortName": "Bandaranaike", "municipalityName": "Colombo", "location": {"lat": 7.180759, "lon": 79.8841}, "countryCode": "LK"}, "averageDailyFlights": 0.57, "operators": [{"name": "SriLankan Airlines", "iata": "UL", "icao": "ALK"}]}, {"destination": {"icao": "ZPPP", "iata": "KMG", "name": "Kunming Changshui", "shortName": "Changshui", "municipalityName": "Kunming", "location": {"lat": 25.101944, "lon": 102.92917}, "countryCode": "CN"}, "averageDailyFlights": 0.57, "operators": [{"name": "Batik Air", "iata": "ID", "icao": "BTK"}]}, {"destination": {"icao": "VDPP", "iata": "PNH", "name": "Phnom Penh ", "shortName": "Phnom Penh", "municipalityName": "Phnom Penh", "location": {"lat": 11.5466, "lon": 104.844}, "countryCode": "KH"}, "averageDailyFlights": 0.57, "operators": [{"name": "Indonesia AirAsia", "iata": "QZ", "icao": "AWQ"}]}, {"destination": {"icao": "RJTT", "iata": "HND", "name": "Tokyo ", "shortName": "Tokyo", "municipalityName": "Tokyo", "location": {"lat": 35.5523, "lon": 139.78}, "countryCode": "JP"}, "averageDailyFlights": 0.57, "operators": [{"name": "Garuda Indonesia", "iata": "GA", "icao": "GIA"}]}, {"destination": {"name": "Chengdu"}, "averageDailyFlights": 0.57, "operators": [{"name": "Air China", "iata": "CA", "icao": "CCA"}]}, {"destination": {"icao": "HECA", "iata": "CAI", "name": "Cairo ", "shortName": "Cairo", "municipalityName": "Cairo", "location": {"lat": 30.1219, "lon": 31.4056}, "countryCode": "EG"}, "averageDailyFlights": 0.43, "operators": [{"name": "EgyptAir", "iata": "MS", "icao": "MSR"}]}, {"destination": {"icao": "WBGG", "iata": "KCH", "name": "Kuching ", "shortName": "Kuching", "municipalityName": "Kuching", "location": {"lat": 1.484699, "lon": 110.347}, "countryCode": "MY"}, "averageDailyFlights": 0.43, "operators": [{"name": "Indonesia AirAsia", "iata": "QZ", "icao": "AWQ"}]}, {"destination": {"icao": "EHAM", "iata": "AMS", "name": "Amsterdam Schiphol", "shortName": "Schiphol", "municipalityName": "Amsterdam", "location": {"lat": 52.3086, "lon": 4.763889}, "countryCode": "NL"}, "averageDailyFlights": 0.29, "operators": [{"name": "Garuda Indonesia", "iata": "GA", "icao": "GIA"}]}, {"destination": {"icao": "VMMC", "iata": "MFM", "name": "Taipa Macau", "shortName": "Macau", "municipalityName": "Taipa", "location": {"lat": 22.1496, "lon": 113.592}, "countryCode": "MO"}, "averageDailyFlights": 0.29, "operators": [{"name": "Air Macau", "iata": "NX", "icao": "AMU"}]}, {"destination": {"icao": "UTTT", "iata": "TAS", "localCode": "\u0422\u0410\u0421", "name": "Tashkent ", "shortName": "Tashkent", "municipalityName": "Tashkent", "location": {"lat": 41.2579, "lon": 69.2812}, "countryCode": "UZ"}, "averageDailyFlights": 0.29, "operators": [{"name": "Uzbekistan Airways", "iata": "HY", "icao": "UZB"}]}, {"destination": {"name": "Buyo"}, "averageDailyFlights": 0.29, "operators": [{"name": "Nam Air", "iata": "IN", "icao": "LKN"}]}, {"destination": {"name": "Istanbul"}, "averageDailyFlights": 0.29, "operators": [{"name": "Turkish Airlines", "iata": "TK", "icao": "THY"}]}, {"destination": {"icao": "ZGKL", "iata": "KWL", "name": "Guilin City Guilin Liangjiang", "shortName": "Guilin Liangjiang", "municipalityName": "Guilin City", "location": {"lat": 25.2181, "lon": 110.039}, "countryCode": "CN"}, "averageDailyFlights": 0.14, "operators": [{"name": "Batik Air", "iata": "ID", "icao": "BTK"}]}, {"destination": {"icao": "ZSHC", "iata": "HGH", "name": "Hangzhou Xiaoshan", "shortName": "Xiaoshan", "municipalityName": "Hangzhou", "location": {"lat": 30.2295, "lon": 120.434}, "countryCode": "CN"}, "averageDailyFlights": 0.14, "operators": [{"name": "Sriwijaya Air", "iata": "SJ", "icao": "SJY"}]}, {"destination": {"icao": "WBKK", "iata": "BKI", "name": "Kota Kinabalu ", "shortName": "Kota Kinabalu", "municipalityName": "Kota Kinabalu", "location": {"lat": 5.93721, "lon": 116.051}, "countryCode": "MY"}, "averageDailyFlights": 0.14, "operators": [{"name": "Indonesia AirAsia", "iata": "QZ", "icao": "AWQ"}]}, {"destination": {"icao": "ZGNN", "iata": "NNG", "name": "Nanning Wuxu", "shortName": "Wuxu", "municipalityName": "Nanning", "location": {"lat": 22.6083, "lon": 108.172}, "countryCode": "CN"}, "averageDailyFlights": 0.14, "operators": [{"name": "Sichuan Airlines", "iata": "3U", "icao": "CSC"}]}, {"destination": {"name": "Dip-Bey"}, "averageDailyFlights": 0.14, "operators": [{"name": "Batik Air", "iata": "ID", "icao": "BTK"}]}]}